$GPRMB,A,1.00,R,003,004,4917.24,N,12309.57,W,001.3,052.5,000.5,V*3F
$GPRMB,A,2.00,R,003,004,4917.24,N,12309.57,W,001.3,052.5,000.5,V*3C
$GPRMB,A,3.00,R,003,004,4917.24,N,12309.57,W,001.3,052.5,000.5,V*3D
$GPRMB,A,4.00,R,003,004,4917.24,N,12309.57,W,001.3,052.5,000.5,V*3A
$IIHDG,025,,,,*50
$IIMWV,034,R,05.3,N,A*12
$IIVHW,,,025,M,,,,*33
$IIVWR,034,R,05.3,N,,,,*60
$IIHDG,021,,,,*54
$IIMTW,+00.0,C*38
$IIMWV,038,R,09.3,N,A*12
$IIVHW,,,021,M,04.0,N,,*63
$IIVLW,01336,N,000.0,N*54
$IIVWR,038,R,09.3,N,,,,*60
$GPRMB,A,5.00,R,003,004,4917.24,N,12309.57,W,001.3,052.5,000.5,V*3B
$IIHDG,016,,,,*50
$IIMTW,+20.5,C*3F
$IIMWV,039,R,09.9,N,A*19
$IIMWV,060,T,06.5,N,A*10
$IIVHW,,,016,M,04.3,N,,*64
$IIVLW,01336,N,000.0,N*54
$IIVWR,039,R,09.9,N,,,,*6B
$IIHDG,015,,,,*53
$IIMTW,+20.5,C*3F
$IIMWV,043,R,10.0,N,A*15
$IIMWV,062,T,07.0,N,A*16
$IIVHW,,,015,M,04.6,N,,*62
$IIVLW,01336,N,000.0,N*54
$IIVWR,043,R,10.0,N,,,,*67
$IIDPT,012.9,-1.0,*4A
$GPRMB,A,6.00,R,003,004,4917.24,N,12309.57,W,001.3,052.5,000.5,V*38
$IIHDG,016,,,,*50
$IIMTW,+20.5,C*3F
$IIMWV,039,R,10.0,N,A*18
$IIMWV,069,T,07.3,N,A*1E
$IIVHW,,,016,M,04.8,N,,*6F
$IIVLW,01336,N,000.0,N*54
$IIVWR,039,R,10.0,N,,,,*6A
$IIDPT,012.9,-1.0,*4A
$IIHDG,017,,,,*51
$IIMTW,+20.5,C*3F
$IIMWV,034,R,11.3,N,A*17
$IIMWV,065,T,06.9,N,A*19
$IIVHW,,,016,M,05.1,N,,*67
$IIVLW,01336,N,000.0,N*54
$IIVWR,032,R,11.8,N,,,,*68
$IIDPT,012.9,-1.0,*4A
$IIHDG,016,,,,*50
$IIMTW,+20.5,C*3F
$IIMWV,032,R,11.8,N,A*1A
$IIMWV,056,T,07.6,N,A*17
$IIVHW,,,018,M,05.1,N,,*69
$IIVLW,01336,N,000.0,N*54
$IIVWR,036,R,11.9,N,,,,*6D
$IIDPT,012.9,-1.0,*4A
$IIHDG,018,,,,*5E
$IIMTW,+20.5,C*3F
$IIMWV,036,R,11.9,N,A*1F
$IIMWV,052,T,07.9,N,A*1C
$GPRMB,A,7.00,R,003,004,4917.24,N,12309.57,W,001.3,052.5,000.5,V*39
$IIVHW,,,020,M,05.2,N,,*61
$IIVLW,01336,N,000.0,N*54
$IIVWR,033,R,12.7,N,,,,*65
$IIDPT,012.9,-1.0,*4A
$IIHDG,020,,,,*55
$IIMTW,+20.5,C*3F
$IIMWV,033,R,12.7,N,A*17
$IIMWV,058,T,08.2,N,A*12
$IIVHW,,,022,M,05.3,N,,*62
$IIVLW,01336,N,000.0,N*54
$IIVWR,031,R,13.0,N,,,,*61
$IIDPT,012.9,-1.0,*4A
$IIHDG,022,,,,*57
$IIMTW,+20.5,C*3F
$IIMWV,031,R,13.0,N,A*13
$IIMWV,052,T,08.6,N,A*1C
$IIVHW,,,021,M,05.3,N,,*61
$IIVLW,01336,N,000.0,N*54
$IIVWR,034,R,12.4,N,,,,*61
$IIDPT,012.9,-1.0,*4A
$IIHDG,021,,,,*54
$IIMTW,+21.0,C*3B
$IIMWV,034,R,12.4,N,A*13
$IIMWV,049,T,08.8,N,A*18
$GPRMB,A,8.00,R,003,004,4917.24,N,12309.57,W,001.3,052.5,000.5,V*36
$IIVHW,,,020,M,05.4,N,,*67
$IIVLW,01336,N,000.0,N*54
$IIVWR,039,R,12.7,N,,,,*6F
$IIDPT,012.9,-1.0,*4A
$IIHDG,020,,,,*55
$IIMTW,+22.0,C*38
$IIMWV,039,R,12.7,N,A*1D
$IIMWV,055,T,08.4,N,A*19
$IIVHW,,,021,M,05.4,N,,*66
$IIVLW,01336,N,000.0,N*54
$IIVWR,036,R,13.2,N,,,,*64
$IIDPT,012.9,-1.0,*4A
$IIHDG,021,,,,*54
$IIMTW,+21.5,C*3E
$IIMWV,036,R,13.2,N,A*16
$IIMWV,061,T,09.1,N,A*1A
$IIVHW,,,022,M,05.5,N,,*64
$IIVLW,01336,N,000.0,N*54
$IIVWR,038,R,14.0,N,,,,*6F
$IIDPT,012.9,-1.0,*4A
$IIHDG,022,,,,*57
$IIMTW,+21.5,C*3E
$IIMWV,038,R,14.0,N,A*1D
$IIMWV,057,T,09.2,N,A*1C
$GPRMB,A,9.00,R,003,004,4917.24,N,12309.57,W,001.3,052.5,000.5,V*37
$IIVHW,,,022,M,05.5,N,,*64
$IIVLW,01336,N,000.0,N*54
$IIVWR,036,R,14.0,N,,,,*61
$IIDPT,012.9,-1.0,*4A
$IIHDG,022,,,,*57
$IIMTW,+21.5,C*3E
$IIMWV,036,R,14.0,N,A*13
$IIMWV,057,T,10.2,N,A*14
$IIVHW,,,021,M,05.5,N,,*67
$IIVLW,01336,N,000.0,N*54
$IIVWR,034,R,14.3,N,,,,*60
$IIDPT,012.9,-1.0,*4A
$IIHDG,021,,,,*54
$IIMTW,+21.5,C*3E
$IIMWV,034,R,14.3,N,A*12
$IIMWV,055,T,09.9,N,A*15
$IIVHW,,,020,M,05.5,N,,*66
$IIVLW,01336,N,000.0,N*54
$IIVWR,032,R,14.1,N,,,,*64
$GPRMB,A,0.00,R,003,004,4917.24,N,12309.57,W,001.3,052.5,000.5,V*3E
$IIDPT,012.9,-1.0,*4A
$IIHDG,020,,,,*55
$IIMTW,+21.5,C*3E
$IIMWV,031,R,13.7,N,A*14
$IIMWV,050,T,09.7,N,A*1E
$IIVHW,,,020,M,05.5,N,,*66
$IIVLW,01336,N,000.0,N*54
$IIVWR,031,R,13.7,N,,,,*66
$IIDPT,012.9,-1.0,*4A
$IIHDG,020,,,,*55
$IIMTW,+21.5,C*3E
$IIMWV,030,R,13.7,N,A*15
$IIMWV,049,T,09.3,N,A*12
$IIVHW,,,020,M,05.5,N,,*66
$IIVLW,01336,N,000.0,N*54
$IIVWR,030,R,13.7,N,,,,*67
$IIDPT,012.9,-1.0,*4A
$IIHDG,018,,,,*5E
$IIMTW,+21.5,C*3E
$IIMWV,030,R,13.8,N,A*1A
$IIMWV,047,T,09.2,N,A*1D
$IIVHW,,,018,M,05.5,N,,*6D
$IIVLW,01336,N,000.0,N*54
$IIVWR,030,R,13.8,N,,,,*68
$GPRMB,A,1.00,R,003,004,4917.24,N,12309.57,W,001.3,052.5,000.5,V*3F
$IIDPT,012.9,-1.0,*4A
$IIHDG,020,,,,*55
$IIMTW,+21.5,C*3E
$IIMWV,033,R,13.9,N,A*18
$IIMWV,047,T,09.4,N,A*1B
$IIVHW,,,020,M,05.6,N,,*65
$IIVLW,01336,N,000.0,N*54
$IIVWR,033,R,13.9,N,,,,*6A
$IIDPT,012.9,-1.0,*4A
$IIHDG,020,,,,*55
$IIMTW,+21.5,C*3E
$IIMWV,036,R,14.2,N,A*11
$IIMWV,051,T,09.6,N,A*1E
$IIVHW,,,020,M,05.6,N,,*65
$IIVLW,01336,N,000.0,N*54
$IIVWR,036,R,14.2,N,,,,*63
$IIDPT,012.9,-1.0,*4A
$IIHDG,020,,,,*55
$IIMTW,+21.5,C*3E
$IIMWV,039,R,14.1,N,A*1D
$IIMWV,055,T,10.1,N,A*15
$IIVHW,,,020,M,05.6,N,,*65
$IIVLW,01336,N,000.0,N*54
$IIVWR,039,R,14.1,N,,,,*6F
$GPRMB,A,2.00,R,003,004,4917.24,N,12309.57,W,001.3,052.5,000.5,V*3C
$IIDPT,012.9,-1.0,*4A
$IIHDG,021,,,,*54
$IIMTW,+21.5,C*3E
$IIMWV,041,R,14.0,N,A*13
$IIMWV,059,T,10.2,N,A*1A
$IIVHW,,,021,M,05.7,N,,*65
$IIVLW,01336,N,000.0,N*54
$IIVWR,041,R,14.0,N,,,,*61
$IIDPT,012.9,-1.0,*4A
$IIHDG,021,,,,*54
$IIMTW,+21.5,C*3E
$IIMWV,039,R,14.3,N,A*1F
$IIMWV,063,T,10.3,N,A*12
$IIVHW,,,021,M,05.7,N,,*65
$IIVLW,01336,N,000.0,N*54
$IIVWR,039,R,14.3,N,,,,*6D
$IIDPT,012.9,-1.0,*4A
$IIHDG,022,,,,*57
$IIMTW,+21.0,C*3B
$IIMWV,039,R,14.4,N,A*18
$IIMWV,059,T,10.4,N,A*1C
$IIVHW,,,022,M,05.8,N,,*69
$IIVLW,01336,N,000.0,N*54
$IIVWR,039,R,14.4,N,,,,*6A
$GPRMB,A,3.00,R,003,004,4917.24,N,12309.57,W,001.3,052.5,000.5,V*3D
$IIDPT,012.9,-1.0,*4A
$IIHDG,022,,,,*57
$IIMTW,+21.0,C*3B
$IIMWV,039,R,14.6,N,A*1A
$IIMWV,059,T,10.4,N,A*1C
$IIVHW,,,022,M,05.8,N,,*69
$IIVLW,01336,N,000.0,N*54
$IIVWR,039,R,14.6,N,,,,*68
$IIDPT,012.9,-1.0,*4A
$IIHDG,022,,,,*57
$IIMTW,+21.0,C*3B
$IIMWV,038,R,14.3,N,A*1E
$IIMWV,059,T,10.5,N,A*1D
$IIVHW,,,022,M,05.8,N,,*69
$IIVLW,01336,N,000.0,N*54
$IIVWR,038,R,14.3,N,,,,*6C
$IIDPT,012.9,-1.0,*4A
$IIHDG,021,,,,*54
$IIMTW,+21.0,C*3B
$IIMWV,039,R,14.1,N,A*1D
$IIMWV,059,T,10.2,N,A*1A
$IIVHW,,,021,M,05.8,N,,*6A
$IIVLW,01336,N,000.0,N*54
$IIVWR,039,R,14.1,N,,,,*6F
$GPRMB,A,4.00,R,003,004,4917.24,N,12309.57,W,001.3,052.5,000.5,V*3A
$IIDPT,012.9,-1.0,*4A
$IIHDG,021,,,,*54
$IIMTW,+21.0,C*3B
$IIMWV,041,R,14.1,N,A*12
$IIMWV,060,T,10.1,N,A*13
$IIVHW,,,021,M,05.9,N,,*6B
$IIVLW,01336,N,000.0,N*54
$IIVWR,041,R,14.1,N,,,,*60
$IIDPT,012.9,-1.0,*4A
$IIHDG,022,,,,*57
$IIMTW,+21.0,C*3B
$IIMWV,044,R,14.0,N,A*16
$IIMWV,064,T,10.3,N,A*15
$IIVHW,,,022,M,05.9,N,,*68
$IIVLW,01336,N,000.1,N*55
$IIVWR,044,R,14.0,N,,,,*64
$IIDPT,012.9,-1.0,*4A
$IIGLL,5450.725,N,00931.651,E,100805,A,A*51
$IIHDG,020,,,,*55
$IIMTW,+21.0,C*3B
$IIMWV,041,R,13.6,N,A*12
$IIMWV,067,T,10.4,N,A*11
$IIRMC,100805,A,5450.725,N,00931.651,E,06.2,015,020813,,,A*40
$IIVHW,,,020,M,05.9,N,,*6A
$IIVLW,01336,N,000.1,N*55
$GPRMB,A,5.00,R,003,004,4917.24,N,12309.57,W,001.3,052.5,000.5,V*3B
$IIVWR,040,R,13.3,N,,,,*64
$IIDPT,012.9,-1.0,*4A
$IIGLL,5450.727,N,00931.652,E,100806,A,A*53
$IIHDG,017,,,,*51
$IIMTW,+21.0,C*3B
$IIMWV,040,R,13.3,N,A*16
$IIMWV,065,T,09.8,N,A*17
$IIRMC,100806,A,5450.727,N,00931.652,E,06.4,022,020813,,,A*40
$IIVHW,,,017,M,06.0,N,,*64
$IIVLW,01336,N,000.1,N*55
$IIVWR,040,R,13.2,N,,,,*65
$IIDPT,012.9,-1.0,*4A
$IIGLL,5450.729,N,00931.653,E,100807,A,A*5D
$IIHDG,015,,,,*53
$IIMTW,+21.0,C*3B
$IIMWV,040,R,13.2,N,A*17
$IIMWV,064,T,09.4,N,A*1A
$IIRMC,100807,A,5450.729,N,00931.653,E,06.6,026,020813,,,A*48
$IIVHW,,,012,M,06.0,N,,*61
$IIVLW,01336,N,000.1,N*55
$IIVWR,040,R,13.1,N,,,,*66
$IIDPT,012.9,-1.0,*4A
$IIGLL,5450.731,N,00931.654,E,100808,A,A*5C
$IIHDG,012,,,,*54
$IIMTW,+21.0,C*3B
$IIMWV,040,R,13.1,N,A*14
$IIMWV,064,T,09.3,N,A*1D
$GPRMB,A,6.00,R,003,004,4917.24,N,12309.57,W,001.3,052.5,000.5,V*38
$IIRMC,100809,A,5450.732,N,00931.654,E,05.7,023,020813,,,A*4C
$IIVHW,,,012,M,06.0,N,,*61
$IIVLW,01336,N,000.1,N*55
$IIVWR,040,R,13.0,N,,,,*67
$IIDPT,012.9,-1.0,*4A
$IIGLL,5450.732,N,00931.654,E,100809,A,A*5E
$IIHDG,012,,,,*54
$IIMTW,+21.0,C*3B
$IIMWV,040,R,13.0,N,A*15
$IIMWV,065,T,09.1,N,A*1E
$IIRMC,100810,A,5450.734,N,00931.654,E,06.3,007,020813,,,A*43
$IIVHW,,,011,M,06.1,N,,*63
$IIVLW,01336,N,000.1,N*55
$IIVWR,039,R,13.0,N,,,,*69
$IIDPT,012.9,-1.0,*4A
$IIGLL,5450.734,N,00931.654,E,100810,A,A*50
$IIHDG,011,,,,*57
$IIMTW,+21.0,C*3B
$IIMWV,039,R,12.9,N,A*13
$IIMWV,064,T,09.0,N,A*1E
$IIRMC,100811,A,5450.736,N,00931.654,E,06.3,355,020813,,,A*44
$IIVHW,,,010,M,06.1,N,,*62
$IIVLW,01336,N,000.1,N*55
$IIVWR,039,R,12.9,N,,,,*61
$IIDPT,012.9,-1.0,*4A
$IIGLL,5450.736,N,00931.654,E,100811,A,A*53
$IIHDG,010,,,,*56
$GPRMB,A,7.00,R,003,004,4917.24,N,12309.57,W,001.3,052.5,000.5,V*39
$IIMTW,+21.0,C*3B
$IIMWV,037,R,13.3,N,A*16
$IIMWV,064,T,08.9,N,A*16
$IIRMC,100812,A,5450.738,N,00931.655,E,06.0,011,020813,,,A*48
$IIVHW,,,010,M,06.1,N,,*62
$IIVLW,01336,N,000.1,N*55
$IIVWR,037,R,13.3,N,,,,*64
$IIDPT,012.9,-1.0,*4A
$IIGLL,5450.738,N,00931.655,E,100812,A,A*5F
$IIHDG,011,,,,*57
$IIMTW,+21.0,C*3B
$IIMWV,037,R,12.8,N,A*1C
$IIMWV,060,T,09.0,N,A*1A
$IIRMC,100813,A,5450.739,N,00931.655,E,05.4,007,020813,,,A*48
$IIVHW,,,011,M,06.1,N,,*63
$IIVLW,01336,N,000.1,N*55
$IIVWR,037,R,12.8,N,,,,*6E
$IIDPT,012.9,-1.0,*4A
$IIGLL,5450.741,N,00931.655,E,100814,A,A*57
$IIHDG,010,,,,*56
$IIMTW,+21.0,C*3B
$IIMWV,039,R,12.5,N,A*1F
$IIMWV,061,T,08.6,N,A*1C
$IIRMC,100814,A,5450.741,N,00931.655,E,06.0,010,020813,,,A*41
$IIVHW,,,010,M,06.1,N,,*62
$IIVLW,01336,N,000.1,N*55
$IIVWR,039,R,12.5,N,,,,*6D
$GPRMB,A,8.00,R,003,004,4917.24,N,12309.57,W,001.3,052.5,000.5,V*36
$IIDPT,012.9,-1.0,*4A
$IIGLL,5450.743,N,00931.656,E,100815,A,A*57
$IIHDG,011,,,,*57
$IIMTW,+20.5,C*3F
$IIMWV,039,R,13.4,N,A*1F
$IIMWV,065,T,08.5,N,A*1B
$IIRMC,100815,A,5450.743,N,00931.656,E,06.3,009,020813,,,A*4A
$IIVHW,,,011,M,06.1,N,,*63
$IIVLW,01336,N,000.1,N*55
$IIVWR,039,R,13.7,N,,,,*6E
$IIDPT,012.9,-1.0,*4A
$IIGLL,5450.744,N,00931.656,E,100816,A,A*53
$IIHDG,012,,,,*54
$IIMTW,+20.5,C*3F
$IIMWV,039,R,13.7,N,A*1C
$IIMWV,063,T,09.4,N,A*1D
$IIRMC,100816,A,5450.744,N,00931.656,E,05.9,005,020813,,,A*4B
$IIVHW,,,012,M,06.1,N,,*60
$IIVLW,01336,N,000.1,N*55
$IIVWR,044,R,13.3,N,,,,*60
$IIDPT,012.9,-1.0,*4A
$IIGLL,5450.746,N,00931.656,E,100817,A,A*50
$IIHDG,011,,,,*57
$IIMTW,+20.5,C*3F
$IIMWV,044,R,13.3,N,A*12
$IIMWV,063,T,09.7,N,A*1E
$IIRMC,100817,A,5450.746,N,00931.656,E,06.1,359,020813,,,A*49
$GPRMB,A,9.00,R,003,004,4917.24,N,12309.57,W,001.3,052.5,000.5,V*37
$IIVHW,,,008,M,06.1,N,,*6B
$IIVLW,01336,N,000.1,N*55
$IIVWR,049,R,13.2,N,,,,*6C
$IIDPT,012.9,-1.0,*4A
$IIGLL,5450.747,N,00931.655,E,100818,A,A*5D
$IIHDG,008,,,,*5F
$IIMTW,+21.0,C*3B
$IIMWV,049,R,13.2,N,A*1E
$IIMWV,070,T,09.7,N,A*1C
$IIRMC,100819,A,5450.748,N,00931.654,E,05.6,353,020813,,,A*45
$IIVHW,,,004,M,06.1,N,,*67
$IIVLW,01336,N,000.1,N*55
$IIVWR,053,R,13.5,N,,,,*60
$IIDPT,012.9,-1.0,*4A
$IIGLL,5450.748,N,00931.654,E,100819,A,A*52
$IIHDG,004,,,,*53
$IIMTW,+21.0,C*3B
$IIMWV,053,R,13.5,N,A*12
$IIMWV,080,T,10.9,N,A*15
$IIRMC,100820,A,5450.750,N,00931.654,E,06.1,000,020813,,,A*47
$IIVHW,,,001,M,06.2,N,,*61
$IIVLW,01336,N,000.1,N*55
$IIVWR,052,R,13.7,N,,,,*63
$IIDPT,013.0,-1.0,*42
$IIGLL,5450.750,N,00931.654,E,100820,A,A*51
$IIHDG,001,,,,*56
$IIMTW,+21.0,C*3B
$GPRMB,A,0.00,R,003,004,4917.24,N,12309.57,W,001.3,052.5,000.5,V*3E
$IIMWV,051,R,13.8,N,A*1D
$IIMWV,078,T,11.0,N,A*1A
$IIRMC,100821,A,5450.752,N,00931.655,E,05.9,002,020813,,,A*4C
$IIVHW,,,000,M,06.2,N,,*60
$IIVLW,01336,N,000.1,N*55
$IIVWR,051,R,13.8,N,,,,*6F
$IIDPT,013.0,-1.0,*42
$IIGLL,5450.752,N,00931.655,E,100821,A,A*53
$IIHDG,000,,,,*57
$IIMTW,+21.0,C*3B
$IIMWV,051,R,14.7,N,A*15
$IIMWV,078,T,10.9,N,A*12
$IIRMC,100822,A,5450.753,N,00931.655,E,05.6,003,020813,,,A*40
$IIVHW,,,001,M,06.2,N,,*61
$IIVLW,01336,N,000.1,N*55
$IIVWR,051,R,14.7,N,,,,*67
$IIDPT,013.0,-1.0,*42
$IIGLL,5450.753,N,00931.655,E,100822,A,A*51
$IIHDG,002,,,,*55
$IIMTW,+21.0,C*3B
$IIMWV,051,R,15.1,N,A*12
$IIMWV,075,T,11.7,N,A*10
$IIRMC,100823,A,5450.754,N,00931.652,E,04.6,003,020813,,,A*40
$IIVHW,,,002,M,06.2,N,,*62
$IIVLW,01336,N,000.1,N*55
$IIVWR,051,R,15.1,N,,,,*60
$IIDPT,013.0,-1.0,*42
$GPRMB,A,1.00,R,003,004,4917.24,N,12309.57,W,001.3,052.5,000.5,V*3F
$IIGLL,5450.756,N,00931.654,E,100824,A,A*53
$IIHDG,003,,,,*54
$IIMTW,+21.0,C*3B
$IIMWV,051,R,14.9,N,A*1B
$IIMWV,074,T,12.1,N,A*14
$IIRMC,100824,A,5450.756,N,00931.654,E,04.7,017,020813,,,A*47
$IIVHW,,,003,M,06.2,N,,*63
$IIVLW,01336,N,000.1,N*55
$IIVWR,051,R,14.9,N,,,,*69
$IIDPT,013.0,-1.0,*42
$IIGLL,5450.758,N,00931.656,E,100825,A,A*5E
$IIHDG,004,,,,*53
$IIMTW,+21.0,C*3B
$IIMWV,051,R,15.2,N,A*11
$IIMWV,075,T,12.0,N,A*14
$IIRMC,100825,A,5450.758,N,00931.656,E,05.6,013,020813,,,A*4E
$IIVHW,,,004,M,06.2,N,,*64
$IIVLW,01336,N,000.1,N*55
$IIVWR,049,R,15.7,N,,,,*6F
$IIDPT,013.0,-1.0,*42
$IIGLL,5450.759,N,00931.656,E,100826,A,A*5C
$IIHDG,005,,,,*52
$IIMTW,+21.0,C*3B
$IIMWV,049,R,15.7,N,A*1D
$IIMWV,074,T,12.2,N,A*17
$IIRMC,100826,A,5450.759,N,00931.656,E,05.9,010,020813,,,A*40
$IIVHW,,,005,M,06.2,N,,*65
$GPRMB,A,2.00,R,003,004,4917.24,N,12309.57,W,001.3,052.5,000.5,V*3C
$IIVLW,01336,N,000.1,N*55
$IIVWR,046,R,15.7,N,,,,*60
$IIDPT,013.1,-1.0,*43
$IIGLL,5450.761,N,00931.656,E,100827,A,A*56
$IIHDG,005,,,,*52
$IIMTW,+21.0,C*3B
$IIMWV,046,R,15.7,N,A*12
$IIMWV,071,T,12.3,N,A*13
$IIRMC,100827,A,5450.761,N,00931.656,E,06.1,006,020813,,,A*46
$IIVHW,,,007,M,06.2,N,,*67
$IIVLW,01336,N,000.1,N*55
$IIVWR,045,R,16.0,N,,,,*67
$IIDPT,013.1,-1.0,*43
$IIGLL,5450.763,N,00931.657,E,100828,A,A*5A
$IIHDG,007,,,,*50
$IIMTW,+21.0,C*3B
$IIMWV,045,R,16.0,N,A*15
$IIMWV,068,T,12.1,N,A*19
$IIRMC,100829,A,5450.765,N,00931.658,E,05.7,016,020813,,,A*46
$IIVHW,,,010,M,06.3,N,,*60
$IIVLW,01336,N,000.1,N*55
$IIVWR,046,R,16.3,N,,,,*67
$IIDPT,013.1,-1.0,*43
$IIGLL,5450.765,N,00931.658,E,100829,A,A*52
$IIHDG,010,,,,*56
$IIMTW,+21.0,C*3B
$IIMWV,046,R,16.3,N,A*15
$GPRMB,A,3.00,R,003,004,4917.24,N,12309.57,W,001.3,052.5,000.5,V*3D
$IIMWV,067,T,12.6,N,A*11
$IIRMC,100830,A,5450.767,N,00931.659,E,06.5,013,020813,,,A*49
$IIVHW,,,012,M,06.3,N,,*62
$IIVLW,01336,N,000.1,N*55
$IIVWR,048,R,16.4,N,,,,*6E
$IIDPT,013.2,-1.0,*40
$IIGLL,5450.767,N,00931.659,E,100830,A,A*59
$IIHDG,012,,,,*54
$IIMTW,+21.0,C*3B
$IIMWV,050,R,16.5,N,A*14
$IIMWV,069,T,12.9,N,A*10
$IIRMC,100831,A,5450.769,N,00931.660,E,06.5,013,020813,,,A*4C
$IIVHW,,,012,M,06.3,N,,*62
$IIVLW,01336,N,000.1,N*55
$IIVWR,050,R,16.5,N,,,,*66
$IIDPT,013.2,-1.0,*40
$IIGLL,5450.769,N,00931.660,E,100831,A,A*5C
$IIHDG,012,,,,*54
$IIMTW,+21.0,C*3B
$IIMWV,050,R,16.1,N,A*10
$IIMWV,072,T,13.3,N,A*11
$IIRMC,100832,A,5450.770,N,00931.661,E,06.1,013,020813,,,A*42
$IIVHW,,,010,M,06.4,N,,*67
$IIVLW,01336,N,000.1,N*55
$IIVWR,050,R,16.1,N,,,,*62
$IIDPT,013.2,-1.0,*40
$IIGLL,5450.770,N,00931.661,E,100832,A,A*56
$GPRMB,A,4.00,R,003,004,4917.24,N,12309.57,W,001.3,052.5,000.5,V*3A
$IIHDG,009,,,,*5E
$IIMTW,+22.0,C*38
$IIMWV,051,R,16.2,N,A*12
$IIMWV,073,T,12.9,N,A*1B
$IIRMC,100833,A,5450.772,N,00931.661,E,06.5,012,020813,,,A*44
$IIVHW,,,009,M,06.4,N,,*6F
$IIVLW,01336,N,000.1,N*55
$IIVWR,051,R,16.2,N,,,,*60
$IIDPT,013.2,-1.0,*40
$IIGLL,5450.774,N,00931.662,E,100834,A,A*57
$IIHDG,009,,,,*5E
$IIMTW,+21.5,C*3E
$IIMWV,050,R,15.8,N,A*1A
$IIMWV,074,T,13.1,N,A*15
$IIRMC,100834,A,5450.774,N,00931.662,E,06.6,012,020813,,,A*45
$IIVHW,,,009,M,06.4,N,,*6F
$IIVLW,01336,N,000.1,N*55
$IIVWR,050,R,15.8,N,,,,*68
$IIDPT,013.2,-1.0,*40
$IIGLL,5450.776,N,00931.662,E,100835,A,A*54
$IIHDG,007,,,,*50
$IIMTW,+21.0,C*3B
$IIMWV,049,R,14.8,N,A*13
$IIMWV,073,T,12.6,N,A*14
$IIRMC,100835,A,5450.776,N,00931.662,E,06.9,012,020813,,,A*49
$IIVHW,,,007,M,06.5,N,,*60
$IIVLW,01336,N,000.1,N*55
$GPRMB,A,5.00,R,003,004,4917.24,N,12309.57,W,001.3,052.5,000.5,V*3B
$IIVWR,048,R,14.8,N,,,,*60
$IIDPT,013.2,-1.0,*40
$IIGLL,5450.778,N,00931.663,E,100836,A,A*58
$IIHDG,009,,,,*5E
$IIMTW,+21.0,C*3B
$IIMWV,048,R,14.8,N,A*12
$IIMWV,074,T,11.5,N,A*13
$IIRMC,100836,A,5450.778,N,00931.663,E,06.6,014,020813,,,A*4C
$IIVHW,,,009,M,06.5,N,,*6E
$IIVLW,01336,N,000.1,N*55
$IIVWR,048,R,14.7,N,,,,*6F
$IIDPT,013.2,-1.0,*40
$IIGLL,5450.781,N,00931.664,E,100837,A,A*58
$IIHDG,011,,,,*57
$IIMTW,+21.0,C*3B
$IIMWV,048,R,14.7,N,A*1D
$IIMWV,073,T,11.4,N,A*15
$IIRMC,100837,A,5450.781,N,00931.664,E,06.7,017,020813,,,A*4E
$IIVHW,,,013,M,06.5,N,,*65
$IIVLW,01336,N,000.1,N*55
$IIVWR,049,R,14.7,N,,,,*6E
$IIDPT,013.2,-1.0,*40
$IIGLL,5450.783,N,00931.664,E,100838,A,A*55
$IIHDG,013,,,,*55
$IIMTW,+21.0,C*3B
$IIMWV,049,R,14.7,N,A*1C
$IIMWV,073,T,11.2,N,A*13
$GPRMB,A,6.00,R,003,004,4917.24,N,12309.57,W,001.3,052.5,000.5,V*38
$IIRMC,100839,A,5450.785,N,00931.665,E,06.1,018,020813,,,A*4C
$IIVHW,,,014,M,06.5,N,,*62
$IIVLW,01336,N,000.1,N*55
$IIVWR,048,R,14.4,N,,,,*6C
$IIDPT,013.2,-1.0,*40
$IIGLL,5450.785,N,00931.665,E,100839,A,A*53
$IIHDG,014,,,,*52
$IIMTW,+21.0,C*3B
$IIMWV,048,R,14.4,N,A*1E
$IIMWV,074,T,11.0,N,A*16
$IIRMC,100840,A,5450.786,N,00931.666,E,06.5,014,020813,,,A*4A
$IIVHW,,,014,M,06.5,N,,*62
$IIVLW,01336,N,000.1,N*55
$IIVWR,046,R,14.9,N,,,,*6F
$IIDPT,013.2,-1.0,*40
$IIGLL,5450.786,N,00931.666,E,100840,A,A*5D
$IIHDG,014,,,,*52
$IIMTW,+21.0,C*3B
$IIMWV,044,R,14.5,N,A*13
$IIMWV,071,T,11.3,N,A*10
$IIRMC,100839,A,5450.788,N,00931.667,E,07.1,011,020813,,,A*4B
$IIVHW,,,015,M,06.5,N,,*63
$IIVLW,01336,N,000.1,N*55
$IIVWR,044,R,14.5,N,,,,*61
$IIDPT,013.2,-1.0,*40
$IIGLL,5450.788,N,00931.667,E,100839,A,A*5C
$IIHDG,015,,,,*53
$GPRMB,A,7.00,R,003,004,4917.24,N,12309.57,W,001.3,052.5,000.5,V*39
$IIMTW,+21.0,C*3B
$IIMWV,044,R,14.5,N,A*13
$IIMWV,069,T,10.7,N,A*1C
$IIRMC,100840,A,5450.790,N,00931.668,E,06.1,016,020813,,,A*45
$IIVHW,,,015,M,06.5,N,,*63
$IIVLW,01336,N,000.1,N*55
$IIVWR,044,R,14.5,N,,,,*61
$IIDPT,013.2,-1.0,*40
$IIGLL,5450.790,N,00931.668,E,100840,A,A*54
$IIHDG,015,,,,*53
$IIMTW,+21.0,C*3B
$IIMWV,043,R,14.2,N,A*13
$IIMWV,069,T,10.7,N,A*1C
$IIRMC,100841,A,5450.791,N,00931.669,E,06.0,016,020813,,,A*45
$IIVHW,,,015,M,06.5,N,,*63
$IIVLW,01336,N,000.1,N*55
$IIVWR,043,R,14.2,N,,,,*61
$IIDPT,013.2,-1.0,*40
$IIGLL,5450.792,N,00931.670,E,100842,A,A*5D
$IIHDG,015,,,,*53
$IIMTW,+21.0,C*3B
$IIMWV,044,R,14.4,N,A*12
$IIMWV,069,T,10.3,N,A*18
$IIRMC,100842,A,5450.792,N,00931.670,E,06.3,015,020813,,,A*4D
$IIVHW,,,015,M,06.4,N,,*62
$IIVLW,01336,N,000.1,N*55
$IIVWR,044,R,14.4,N,,,,*60
$GPRMB,A,8.00,R,003,004,4917.24,N,12309.57,W,001.3,052.5,000.5,V*36
$IIDPT,013.2,-1.0,*40
$IIGLL,5450.794,N,00931.671,E,100843,A,A*5B
$IIHDG,017,,,,*51
$IIMTW,+21.0,C*3B
$IIMWV,045,R,14.5,N,A*12
$IIMWV,069,T,10.6,N,A*1D
$IIRMC,100843,A,5450.794,N,00931.671,E,06.4,017,020813,,,A*4E
$IIVHW,,,017,M,06.4,N,,*60
$IIVLW,01336,N,000.1,N*55
$IIVWR,046,R,14.2,N,,,,*64
$IIDPT,013.2,-1.0,*40
$IIGLL,5450.795,N,00931.672,E,100844,A,A*5E
$IIHDG,016,,,,*50
$IIMTW,+21.0,C*3B
$IIMWV,046,R,14.2,N,A*16
$IIMWV,070,T,10.8,N,A*1B
$IIRMC,100844,A,5450.795,N,00931.672,E,06.2,015,020813,,,A*4F
$IIVHW,,,016,M,06.4,N,,*61
$IIVLW,01336,N,000.1,N*55
$IIVWR,049,R,14.0,N,,,,*69
$IIDPT,013.2,-1.0,*40
$IIGLL,5450.797,N,00931.674,E,100845,A,A*5B
$IIHDG,015,,,,*53
$IIMTW,+22.5,C*3D
$IIMWV,049,R,14.0,N,A*1B
$IIMWV,072,T,10.7,N,A*16
$IIRMC,100845,A,5450.797,N,00931.674,E,06.1,018,020813,,,A*44
$GPRMB,A,9.00,R,003,004,4917.24,N,12309.57,W,001.3,052.5,000.5,V*37
$IIVHW,,,015,M,06.4,N,,*62
$IIVLW,01336,N,000.1,N*55
$IIVWR,046,R,13.2,N,,,,*63
$IIDPT,013.2,-1.0,*40
$IIGLL,5450.798,N,00931.675,E,100846,A,A*56
$IIHDG,015,,,,*53
$IIMTW,+21.0,C*3B
$IIMWV,046,R,13.2,N,A*11
$IIMWV,075,T,10.8,N,A*1E
$IIRMC,100847,A,5450.800,N,00931.676,E,06.4,017,020813,,,A*4F
$IIVHW,,,016,M,06.4,N,,*61
$IIVLW,01336,N,000.1,N*55
$IIVWR,044,R,12.9,N,,,,*6B
$IIDPT,013.2,-1.0,*40
$IIGLL,5450.800,N,00931.676,E,100847,A,A*5A
$IIHDG,016,,,,*50
$IIMTW,+21.0,C*3B
$IIMWV,044,R,12.9,N,A*19
$IIMWV,073,T,09.3,N,A*1B
$IIRMC,100848,A,5450.802,N,00931.677,E,06.3,015,020813,,,A*46
$IIVHW,,,015,M,06.4,N,,*62
$IIVLW,01336,N,000.1,N*55
$IIVWR,046,R,12.9,N,,,,*69
$IIDPT,013.2,-1.0,*40
$IIGLL,5450.802,N,00931.677,E,100848,A,A*56
$IIHDG,015,,,,*53
$IIMTW,+21.0,C*3B
$GPRMB,A,0.00,R,003,004,4917.24,N,12309.57,W,001.3,052.5,000.5,V*3E
$IIMWV,048,R,12.9,N,A*15
$IIMWV,075,T,09.5,N,A*1B
$IIRMC,100849,A,5450.803,N,00931.678,E,06.0,016,020813,,,A*49
$IIVHW,,,013,M,06.3,N,,*63
$IIVLW,01336,N,000.1,N*55
$IIVWR,048,R,12.9,N,,,,*67
$IIDPT,013.2,-1.0,*40
$IIGLL,5450.803,N,00931.678,E,100849,A,A*59
$IIHDG,013,,,,*55
$IIMTW,+21.0,C*3B
$IIMWV,050,R,13.0,N,A*14
$IIMWV,077,T,09.7,N,A*1B
$IIRMC,100850,A,5450.805,N,00931.678,E,06.3,013,020813,,,A*41
$IIVHW,,,013,M,06.3,N,,*63
$IIVLW,01336,N,000.1,N*55
$IIVWR,050,R,13.0,N,,,,*66
$IIDPT,013.2,-1.0,*40
$IIGLL,5450.805,N,00931.678,E,100850,A,A*57
$IIHDG,014,,,,*52
$IIMTW,+21.0,C*3B
$IIMWV,051,R,12.5,N,A*11
$IIMWV,079,T,10.1,N,A*1B
$IIRMC,100851,A,5450.807,N,00931.679,E,06.1,017,020813,,,A*45
$IIVHW,,,014,M,06.3,N,,*64
$IIVLW,01336,N,000.1,N*55
$IIVWR,051,R,12.5,N,,,,*63
$IIDPT,013.2,-1.0,*40
$GPRMB,A,1.00,R,003,004,4917.24,N,12309.57,W,001.3,052.5,000.5,V*3F
$IIGLL,5450.808,N,00931.681,E,100852,A,A*5E
$IIHDG,015,,,,*53
$IIMTW,+21.0,C*3B
$IIMWV,051,R,12.7,N,A*13
$IIMWV,081,T,09.8,N,A*1D
$IIRMC,100852,A,5450.808,N,00931.681,E,06.1,023,020813,,,A*49
$IIVHW,,,015,M,06.3,N,,*65
$IIVLW,01336,N,000.1,N*55
$IIVWR,051,R,12.7,N,,,,*61
$IIDPT,013.2,-1.0,*40
$IIGLL,5450.810,N,00931.682,E,100853,A,A*55
$IIHDG,015,,,,*53
$IIMTW,+21.0,C*3B
$IIMWV,054,R,12.4,N,A*15
$IIMWV,080,T,10.0,N,A*1C
$IIRMC,100853,A,5450.810,N,00931.682,E,06.0,018,020813,,,A*4B
$IIVHW,,,015,M,06.2,N,,*64
$IIVLW,01336,N,000.1,N*55
$IIVWR,057,R,11.7,N,,,,*64
$IIDPT,013.2,-1.0,*40
$IIGLL,5450.811,N,00931.683,E,100854,A,A*52
$IIHDG,017,,,,*51
$IIMTW,+21.0,C*3B
$IIMWV,057,R,11.7,N,A*16
$IIMWV,084,T,10.0,N,A*18
$IIRMC,100854,A,5450.811,N,00931.683,E,06.1,016,020813,,,A*43
$IIVHW,,,017,M,06.2,N,,*66
$GPRMB,A,2.00,R,003,004,4917.24,N,12309.57,W,001.3,052.5,000.5,V*3C
$IIVLW,01336,N,000.1,N*55
$IIVWR,054,R,11.0,N,,,,*60
$IIDPT,013.2,-1.0,*40
$IIGLL,5450.813,N,00931.684,E,100855,A,A*56
$IIHDG,017,,,,*51
$IIMTW,+21.0,C*3B
$IIMWV,054,R,11.0,N,A*12
$IIMWV,090,T,09.8,N,A*1D
$IIRMC,100855,A,5450.813,N,00931.684,E,06.6,018,020813,,,A*4E
$IIVHW,,,017,M,06.1,N,,*65
$IIVLW,01336,N,000.1,N*55
$IIVWR,043,R,10.6,N,,,,*61
$IIDPT,013.2,-1.0,*40
$IIGLL,5450.815,N,00931.685,E,100856,A,A*52
$IIHDG,017,,,,*51
$IIMTW,+21.0,C*3B
$IIMWV,043,R,10.6,N,A*13
$IIMWV,089,T,08.9,N,A*15
$IIRMC,100857,A,5450.816,N,00931.686,E,05.3,011,020813,,,A*44
$IIVHW,,,016,M,06.1,N,,*64
$IIVLW,01336,N,000.1,N*55
$IIVWR,041,R,10.5,N,,,,*60
$IIDPT,013.2,-1.0,*40
$IIGLL,5450.816,N,00931.686,E,100857,A,A*53
$IIHDG,016,,,,*50
$IIMTW,+21.0,C*3B
$IIMWV,041,R,10.5,N,A*12
$GPRMB,A,3.00,R,003,004,4917.24,N,12309.57,W,001.3,052.5,000.5,V*3D
$IIMWV,077,T,07.0,N,A*12
$IIRMC,100858,A,5450.818,N,00931.686,E,06.3,013,020813,,,A*44
$IIVHW,,,017,M,06.1,N,,*65
$IIVLW,01336,N,000.1,N*55
$IIVWR,039,R,12.7,N,,,,*6F
$IIDPT,013.2,-1.0,*40
$IIGLL,5450.818,N,00931.686,E,100858,A,A*52
$IIHDG,017,,,,*51
$IIMTW,+21.0,C*3B
$IIMWV,039,R,13.3,N,A*18
$IIMWV,065,T,08.8,N,A*16
$IIRMC,100859,A,5450.819,N,00931.687,E,05.8,020,020813,,,A*4D
$IIVHW,,,017,M,06.1,N,,*65
$IIVLW,01336,N,000.1,N*55
$IIVWR,039,R,13.3,N,,,,*6A
$IIDPT,013.2,-1.0,*40
$IIGLL,5450.819,N,00931.687,E,100859,A,A*53
$IIHDG,017,,,,*51
$IIMTW,+21.0,C*3B
$IIMWV,035,R,13.5,N,A*12
$IIMWV,063,T,09.3,N,A*1A
$IIRMC,100900,A,5450.821,N,00931.688,E,06.6,018,020813,,,A*42
$IIVHW,,,018,M,06.1,N,,*6A
$IIVLW,01336,N,000.1,N*55
$IIVWR,035,R,13.5,N,,,,*60
$IIDPT,013.2,-1.0,*40
$IIGLL,5450.821,N,00931.688,E,100900,A,A*5A
$GPRMB,A,4.00,R,003,004,4917.24,N,12309.57,W,001.3,052.5,000.5,V*3A
$IIHDG,020,,,,*55
$IIMTW,+21.0,C*3B
$IIMWV,034,R,13.9,N,A*1F
$IIMWV,057,T,09.0,N,A*1E
$IIRMC,100901,A,5450.823,N,00931.689,E,06.1,021,020813,,,A*4D
$IIVHW,,,020,M,06.1,N,,*61
$IIVLW,01336,N,000.2,N*56
$IIVWR,034,R,13.9,N,,,,*6D
$IIDPT,013.2,-1.0,*40
$IIGLL,5450.825,N,00931.689,E,100902,A,A*5D
$IIHDG,020,,,,*55
$IIMTW,+21.0,C*3B
$IIMWV,036,R,13.9,N,A*1D
$IIMWV,055,T,09.4,N,A*18
$IIRMC,100902,A,5450.825,N,00931.689,E,05.7,021,020813,,,A*4D
$IIVHW,,,020,M,06.0,N,,*60
$IIVLW,01336,N,000.2,N*56
$IIVWR,036,R,13.9,N,,,,*6F
$IIDPT,013.2,-1.0,*40
$IIGLL,5450.826,N,00931.690,E,100903,A,A*57
$IIHDG,020,,,,*55
$IIMTW,+21.0,C*3B
$IIMWV,037,R,13.8,N,A*1D
$IIMWV,058,T,09.6,N,A*17
$IIRMC,100903,A,5450.826,N,00931.690,E,05.0,026,020813,,,A*47
$IIVHW,,,020,M,06.0,N,,*60
$IIVLW,01336,N,000.2,N*56
$GPRMB,A,5.00,R,003,004,4917.24,N,12309.57,W,001.3,052.5,000.5,V*3B
$IIVWR,036,R,14.4,N,,,,*65
$IIDPT,013.2,-1.0,*40
$IIGLL,5450.828,N,00931.691,E,100904,A,A*5F
$IIHDG,021,,,,*54
$IIMTW,+21.0,C*3B
$IIMWV,036,R,14.4,N,A*17
$IIMWV,059,T,09.5,N,A*15
$IIRMC,100904,A,5450.828,N,00931.691,E,05.6,024,020813,,,A*4B
$IIVHW,,,021,M,06.0,N,,*61
$IIVLW,01336,N,000.2,N*56
$IIVWR,036,R,14.2,N,,,,*63
$IIDPT,013.2,-1.0,*40
$IIGLL,5450.829,N,00931.692,E,100905,A,A*5C
$IIHDG,020,,,,*55
$IIMTW,+21.0,C*3B
$IIMWV,036,R,14.2,N,A*11
$IIMWV,057,T,10.0,N,A*16
$IIRMC,100905,A,5450.829,N,00931.692,E,05.5,026,020813,,,A*49
$IIVHW,,,020,M,06.0,N,,*60
$IIVLW,01336,N,000.2,N*56
$IIVWR,037,R,14.6,N,,,,*66
$IIDPT,013.2,-1.0,*40
$IIGLL,5450.831,N,00931.693,E,100906,A,A*57
$IIHDG,020,,,,*55
$IIMTW,+21.0,C*3B
$IIMWV,037,R,14.6,N,A*14
$IIMWV,057,T,09.9,N,A*17
$GPRMB,A,6.00,R,003,004,4917.24,N,12309.57,W,001.3,052.5,000.5,V*38
$IIRMC,100907,A,5450.833,N,00931.694,E,06.0,023,020813,,,A*45
$IIVHW,,,021,M,06.0,N,,*61
$IIVLW,01336,N,000.2,N*56
$IIVWR,036,R,15.1,N,,,,*61
$IIDPT,013.2,-1.0,*40
$IIGLL,5450.833,N,00931.694,E,100907,A,A*53
$IIHDG,021,,,,*54
$IIMTW,+21.0,C*3B
$IIMWV,036,R,15.1,N,A*13
$IIMWV,055,T,10.8,N,A*1C
$IIRMC,100908,A,5450.834,N,00931.695,E,06.6,021,020813,,,A*48
$IIVHW,,,022,M,06.0,N,,*62
$IIVLW,01336,N,000.2,N*56
$IIVWR,036,R,15.0,N,,,,*60
$IIDPT,013.2,-1.0,*40
$IIGLL,5450.834,N,00931.695,E,100908,A,A*5A
$IIHDG,022,,,,*57
$IIMTW,+21.0,C*3B
$IIMWV,036,R,14.5,N,A*16
$IIMWV,055,T,10.7,N,A*13
$IIRMC,100909,A,5450.836,N,00931.696,E,06.0,022,020813,,,A*4D
$IIVHW,,,023,M,06.0,N,,*63
$IIVLW,01336,N,000.2,N*56
$IIVWR,036,R,14.5,N,,,,*64
$IIDPT,013.2,-1.0,*40
$IIGLL,5450.836,N,00931.696,E,100909,A,A*5A
$IIHDG,023,,,,*56
$GPRMB,A,7.00,R,003,004,4917.24,N,12309.57,W,001.3,052.5,000.5,V*39
$IIMTW,+20.5,C*3F
$IIMWV,036,R,13.9,N,A*1D
$IIMWV,056,T,10.2,N,A*15
$IIRMC,100910,A,5450.838,N,00931.697,E,05.7,022,020813,,,A*4E
$IIVHW,,,022,M,06.0,N,,*62
$IIVLW,01336,N,000.2,N*56
$IIVWR,036,R,13.9,N,,,,*6F
$IIDPT,013.2,-1.0,*40
$IIGLL,5450.838,N,00931.697,E,100910,A,A*5D
$IIHDG,022,,,,*57
$IIMTW,+20.5,C*3F
$IIMWV,037,R,13.7,N,A*12
$IIMWV,057,T,09.7,N,A*19
$IIRMC,100911,A,5450.839,N,00931.698,E,06.0,026,020813,,,A*41
$IIVHW,,,022,M,06.0,N,,*62
$IIVLW,01336,N,000.2,N*56
$IIVWR,037,R,13.7,N,,,,*60
$IIDPT,013.2,-1.0,*40
$IIGLL,5450.841,N,00931.699,E,100912,A,A*5F
$IIHDG,022,,,,*57
$IIMTW,+20.5,C*3F
$IIMWV,039,R,13.7,N,A*1C
$IIMWV,059,T,09.5,N,A*15
$IIRMC,100912,A,5450.841,N,00931.699,E,06.4,023,020813,,,A*4D
$IIVHW,,,022,M,06.0,N,,*62
$IIVLW,01336,N,000.2,N*56
$IIVWR,039,R,13.7,N,,,,*6E
$GPRMB,A,8.00,R,003,004,4917.24,N,12309.57,W,001.3,052.5,000.5,V*36
$IIDPT,013.2,-1.0,*40
$IIGLL,5450.842,N,00931.701,E,100913,A,A*5D
$IIHDG,024,,,,*51
$IIMTW,+20.5,C*3F
$IIMWV,036,R,13.5,N,A*11
$IIMWV,063,T,09.7,N,A*1E
$IIRMC,100913,A,5450.842,N,00931.701,E,06.4,027,020813,,,A*4B
$IIVHW,,,024,M,06.0,N,,*64
$IIVLW,01336,N,000.2,N*56
$IIVWR,035,R,13.6,N,,,,*63
$IIDPT,013.2,-1.0,*40
$IIGLL,5450.844,N,00931.702,E,100914,A,A*5F
$IIHDG,025,,,,*50
$IIMTW,+20.5,C*3F
$IIMWV,035,R,13.6,N,A*11
$IIMWV,059,T,09.2,N,A*12
$IIRMC,100914,A,5450.844,N,00931.702,E,05.9,027,020813,,,A*47
$IIVHW,,,025,M,06.0,N,,*65
$IIVLW,01336,N,000.2,N*56
$IIVWR,034,R,13.9,N,,,,*6D
$IIDPT,013.2,-1.0,*40
$IIGLL,5450.845,N,00931.703,E,100915,A,A*5E
$IIHDG,026,,,,*53
$IIMTW,+20.5,C*3F
$IIMWV,034,R,13.9,N,A*1F
$IIMWV,057,T,09.1,N,A*1F
$IIRMC,100915,A,5450.845,N,00931.703,E,05.3,026,020813,,,A*4D
$GPRMB,A,9.00,R,003,004,4917.24,N,12309.57,W,001.3,052.5,000.5,V*37
$IIVHW,,,026,M,06.0,N,,*66
$IIVLW,01336,N,000.2,N*56
$IIVWR,032,R,14.0,N,,,,*65
$IIDPT,013.2,-1.0,*40
$IIGLL,5450.847,N,00931.705,E,100916,A,A*59
$IIHDG,026,,,,*53
$IIMTW,+20.5,C*3F
$IIMWV,032,R,14.0,N,A*17
$IIMWV,055,T,09.4,N,A*18
$IIRMC,100917,A,5450.848,N,00931.706,E,05.4,028,020813,,,A*4E
$IIVHW,,,026,M,06.0,N,,*66
$IIVLW,01336,N,000.2,N*56
$IIVWR,033,R,14.6,N,,,,*62
$IIDPT,013.2,-1.0,*40
$IIGLL,5450.848,N,00931.706,E,100917,A,A*54
$IIHDG,026,,,,*53
$IIMTW,+20.5,C*3F
$IIMWV,033,R,14.6,N,A*10
$IIMWV,052,T,09.9,N,A*12
$IIRMC,100918,A,5450.848,N,00931.707,E,04.3,035,020813,,,A*4A
$IIVHW,,,025,M,06.0,N,,*65
$IIVLW,01336,N,000.2,N*56
$IIVWR,030,R,14.7,N,,,,*60
$IIDPT,013.2,-1.0,*40
$IIGLL,5450.848,N,00931.707,E,100918,A,A*5A
$IIHDG,025,,,,*50
$IIMTW,+20.5,C*3F
$GPRMB,A,0.00,R,003,004,4917.24,N,12309.57,W,001.3,052.5,000.5,V*3E
$IIMWV,030,R,14.9,N,A*1C
$IIMWV,048,T,09.8,N,A*18
$IIRMC,100919,A,5450.850,N,00931.709,E,05.8,027,020813,,,A*45
$IIVHW,,,025,M,06.0,N,,*65
$IIVLW,01336,N,000.2,N*56
$IIVWR,030,R,14.9,N,,,,*6E
$IIDPT,013.2,-1.0,*40
$IIGLL,5450.850,N,00931.709,E,100919,A,A*5C
$IIHDG,025,,,,*50
$IIMTW,+21.0,C*3B
$IIMWV,032,R,14.2,N,A*15
$IIMWV,047,T,10.1,N,A*16
$IIRMC,100920,A,5450.852,N,00931.710,E,05.6,030,020813,,,A*4D
$IIVHW,,,025,M,05.9,N,,*6F
$IIVLW,01336,N,000.2,N*56
$IIVWR,032,R,14.2,N,,,,*67
$IIDPT,013.2,-1.0,*40
$IIGLL,5450.852,N,00931.710,E,100920,A,A*5C
$IIHDG,026,,,,*53
$IIMTW,+21.0,C*3B
$IIMWV,038,R,14.5,N,A*18
$IIMWV,051,T,09.6,N,A*1E
$IIRMC,100921,A,5450.853,N,00931.712,E,05.4,030,020813,,,A*4D
$IIVHW,,,026,M,05.9,N,,*6C
$IIVLW,01336,N,000.2,N*56
$IIVWR,038,R,14.5,N,,,,*6A
$IIDPT,013.2,-1.0,*40
$GPRMB,A,1.00,R,003,004,4917.24,N,12309.57,W,001.3,052.5,000.5,V*3F
$IIGLL,5450.855,N,00931.714,E,100922,A,A*5D
$IIHDG,027,,,,*52
$IIMTW,+21.0,C*3B
$IIMWV,039,R,14.6,N,A*1A
$IIMWV,059,T,10.4,N,A*1C
$IIRMC,100922,A,5450.855,N,00931.714,E,06.3,029,020813,,,A*42
$IIVHW,,,027,M,05.9,N,,*6D
$IIVLW,01336,N,000.2,N*56
$IIVWR,039,R,14.6,N,,,,*68
$IIDPT,013.2,-1.0,*40
$IIGLL,5450.856,N,00931.715,E,100923,A,A*5E
$IIHDG,027,,,,*52
$IIMTW,+21.0,C*3B
$IIMWV,038,R,14.1,N,A*1C
$IIMWV,059,T,10.5,N,A*1D
$IIRMC,100923,A,5450.856,N,00931.715,E,04.8,033,020813,,,A*43
$IIVHW,,,027,M,05.9,N,,*6D
$IIVLW,01336,N,000.2,N*56
$IIVWR,039,R,14.5,N,,,,*6B
$IIDPT,013.2,-1.0,*40
$IIGLL,5450.858,N,00931.716,E,100924,A,A*54
$IIHDG,029,,,,*5C
$IIMTW,+21.0,C*3B
$IIMWV,039,R,14.5,N,A*19
$IIMWV,059,T,10.1,N,A*19
$IIRMC,100924,A,5450.858,N,00931.716,E,05.6,031,020813,,,A*44
$IIVHW,,,029,M,05.9,N,,*63
$GPRMB,A,2.00,R,003,004,4917.24,N,12309.57,W,001.3,052.5,000.5,V*3C
$IIVLW,01336,N,000.2,N*56
$IIVWR,038,R,14.2,N,,,,*6D
$IIDPT,013.2,-1.0,*40
$IIGLL,5450.859,N,00931.718,E,100925,A,A*5A
$IIHDG,029,,,,*5C
$IIMTW,+21.0,C*3B
$IIMWV,038,R,14.2,N,A*1F
$IIMWV,059,T,10.5,N,A*1D
$IIRMC,100925,A,5450.859,N,00931.718,E,05.9,022,020813,,,A*47
$IIVHW,,,028,M,05.8,N,,*63
$IIVLW,01336,N,000.2,N*56
$IIVWR,039,R,14.1,N,,,,*6F
$IIDPT,013.2,-1.0,*40
$IIGLL,5450.861,N,00931.719,E,100926,A,A*53
$IIHDG,028,,,,*5D
$IIMTW,+21.0,C*3B
$IIMWV,039,R,14.1,N,A*1D
$IIMWV,059,T,10.2,N,A*1A
$IIRMC,100927,A,5450.861,N,00931.720,E,05.3,016,020813,,,A*48
$IIVHW,,,027,M,05.8,N,,*6C
$IIVLW,01336,N,000.2,N*56
$IIVWR,036,R,13.5,N,,,,*63
$IIDPT,013.2,-1.0,*40
$IIGLL,5450.861,N,00931.720,E,100927,A,A*58
$IIHDG,027,,,,*52
$IIMTW,+21.0,C*3B
$IIMWV,036,R,13.5,N,A*11
$GPRMB,A,3.00,R,003,004,4917.24,N,12309.57,W,001.3,052.5,000.5,V*3D
$IIMWV,057,T,09.4,N,A*1A
$IIRMC,100928,A,5450.862,N,00931.721,E,06.2,025,020813,,,A*47
$IIVHW,,,027,M,05.8,N,,*6C
$IIVLW,01336,N,000.2,N*56
$IIVWR,035,R,13.2,N,,,,*67
$IIDPT,013.2,-1.0,*40
$IIGLL,5450.862,N,00931.721,E,100928,A,A*55
$IIHDG,027,,,,*52
$IIMTW,+21.0,C*3B
$IIMWV,034,R,13.1,N,A*17
$IIMWV,057,T,08.9,N,A*16
$IIRMC,100929,A,5450.864,N,00931.722,E,06.1,018,020813,,,A*4E
$IIVHW,,,027,M,05.8,N,,*6C
$IIVLW,01336,N,000.2,N*56
$IIVWR,034,R,13.1,N,,,,*65
$IIDPT,013.2,-1.0,*40
$IIGLL,5450.864,N,00931.722,E,100929,A,A*51
$IIHDG,027,,,,*52
$IIMTW,+21.0,C*3B
$IIMWV,036,R,13.1,N,A*15
$IIMWV,056,T,08.7,N,A*19
$IIRMC,100930,A,5450.866,N,00931.723,E,06.4,020,020813,,,A*4B
$IIVHW,,,025,M,05.8,N,,*6E
$IIVLW,01336,N,000.2,N*56
$IIVWR,036,R,13.1,N,,,,*67
$IIDPT,013.2,-1.0,*40
$IIGLL,5450.866,N,00931.723,E,100930,A,A*5A
$GPRMB,A,4.00,R,003,004,4917.24,N,12309.57,W,001.3,052.5,000.5,V*3A
$IIHDG,023,,,,*56
$IIMTW,+21.0,C*3B
$IIMWV,038,R,13.6,N,A*1C
$IIMWV,058,T,09.0,N,A*11
$IIRMC,100931,A,5450.868,N,00931.724,E,06.3,019,020813,,,A*4E
$IIVHW,,,023,M,05.8,N,,*68
$IIVLW,01337,N,000.2,N*57
$IIVWR,038,R,13.6,N,,,,*6E
$IIDPT,013.2,-1.0,*40
$IIGLL,5450.869,N,00931.725,E,100932,A,A*51
$IIHDG,023,,,,*56
$IIMTW,+21.0,C*3B
$IIMWV,038,R,13.9,N,A*13
$IIMWV,060,T,09.7,N,A*1D
$IIRMC,100932,A,5450.869,N,00931.725,E,06.4,022,020813,,,A*42
$IIVHW,,,023,M,05.8,N,,*68
$IIVLW,01337,N,000.2,N*57
$IIVWR,038,R,13.9,N,,,,*61
$IIDPT,013.2,-1.0,*40
$IIGLL,5450.871,N,00931.726,E,100933,A,A*5A
$IIHDG,023,,,,*56
$IIMTW,+21.0,C*3B
$IIMWV,038,R,14.2,N,A*1F
$IIMWV,059,T,09.9,N,A*19
$IIRMC,100933,A,5450.871,N,00931.726,E,05.6,030,020813,,,A*4B
$IIVHW,,,023,M,05.8,N,,*68
$IIVLW,01337,N,000.2,N*57
$GPRMB,A,5.00,R,003,004,4917.24,N,12309.57,W,001.3,052.5,000.5,V*3B
$IIVWR,039,R,13.7,N,,,,*6E
$IIDPT,013.2,-1.0,*40
$IIGLL,5450.872,N,00931.727,E,100934,A,A*5F
$IIHDG,023,,,,*56
$IIMTW,+21.0,C*3B
$IIMWV,039,R,13.7,N,A*1C
$IIMWV,058,T,10.3,N,A*1A
$IIRMC,100934,A,5450.872,N,00931.727,E,05.1,027,020813,,,A*4F
$IIVHW,,,023,M,05.8,N,,*68
$IIVLW,01337,N,000.2,N*57
$IIVWR,042,R,13.2,N,,,,*67
$IIDPT,013.2,-1.0,*40
$IIGLL,5450.874,N,00931.728,E,100935,A,A*57
$IIHDG,023,,,,*56
$IIMTW,+21.0,C*3B
$IIMWV,042,R,13.2,N,A*15
$IIMWV,061,T,09.8,N,A*13
$IIRMC,100935,A,5450.874,N,00931.728,E,05.2,022,020813,,,A*41
$IIVHW,,,023,M,05.9,N,,*69
$IIVLW,01337,N,000.2,N*57
$IIVWR,041,R,13.1,N,,,,*67
$IIDPT,013.2,-1.0,*40
$IIGLL,5450.875,N,00931.729,E,100936,A,A*54
$IIHDG,023,,,,*56
$IIMTW,+21.0,C*3B
$IIMWV,041,R,13.1,N,A*15
$IIMWV,067,T,09.5,N,A*18
$GPRMB,A,6.00,R,003,004,4917.24,N,12309.57,W,001.3,052.5,000.5,V*38
$IIRMC,100937,A,5450.877,N,00931.730,E,05.5,027,020813,,,A*4B
$IIVHW,,,023,M,05.9,N,,*69
$IIVLW,01337,N,000.2,N*57
$IIVWR,043,R,13.1,N,,,,*65
$IIDPT,013.2,-1.0,*40
$IIGLL,5450.877,N,00931.730,E,100937,A,A*5F
$IIHDG,023,,,,*56
$IIMTW,+21.0,C*3B
$IIMWV,043,R,13.1,N,A*17
$GPRMB,A,7.00,R,003,004,4917.24,N,12309.57,W,001.3,052.5,000.5,V*39
$IIMWV,068,T,09.6,N,A*14
$IIRMC,100938,A,5450.879,N,00931.731,E,06.8,022,020813,,,A*40
$IIVHW,,,025,M,05.9,N,,*6F
$IIVLW,01337,N,000.2,N*57
$IIVWR,037,R,13.1,N,,,,*66
$IIDPT,013.2,-1.0,*40
$IIGLL,5450.879,N,00931.731,E,100938,A,A*5F
$IIHDG,025,,,,*50
$IIMTW,+21.0,C*3B
$IIMWV,037,R,14.2,N,A*10
$IIMWV,057,T,09.7,N,A*19
$IIRMC,100941,A,5450.883,N,00931.736,E,07.1,021,020813,,,A*47
$IIVHW,,,025,M,06.0,N,,*65
$IIVLW,01337,N,000.2,N*57
$IIVWR,037,R,14.2,N,,,,*62
$IIDPT,013.2,-1.0,*40
$IIGLL,5450.883,N,00931.736,E,100941,A,A*53
$IIHDG,025,,,,*50
$IIMTW,+21.0,C*3B
$IIMWV,037,R,14.4,N,A*16
$IIMWV,058,T,10.0,N,A*19
$IIRMC,100942,A,5450.884,N,00931.737,E,05.9,028,020813,,,A*41
$IIVHW,,,025,M,06.0,N,,*65
$IIVLW,01337,N,000.2,N*57
$IIVWR,037,R,14.4,N,,,,*64
$IIDPT,013.2,-1.0,*40
$IIGLL,5450.884,N,00931.737,E,100942,A,A*56
$GPRMB,A,8.00,R,003,004,4917.24,N,12309.57,W,001.3,052.5,000.5,V*36
$IIHDG,024,,,,*51
$IIMTW,+21.0,C*3B
$IIMWV,006,R,00.0,N,A*15
$IIMWV,057,T,10.2,N,A*14
$IIRMC,100943,A,5450.886,N,00931.739,E,06.3,027,020813,,,A*4A
$IIVHW,,,024,M,06.0,N,,*64
$IIVLW,01337,N,000.2,N*57
$IIVWR,006,R,00.0,N,,,,*67
$IIDPT,013.2,-1.0,*40
$IIGLL,5450.887,N,00931.740,E,100944,A,A*53
$IIHDG,025,,,,*50
$IIMTW,+21.0,C*3B
$IIMWV,038,R,14.9,N,A*14
$IIMWV,006,T,06.0,N,A*15
$IIRMC,100944,A,5450.887,N,00931.740,E,05.2,027,020813,,,A*40
$IIVHW,,,025,M,06.0,N,,*65
$IIVLW,01337,N,000.2,N*57
$IIVWR,038,R,14.9,N,,,,*66
$IIDPT,013.2,-1.0,*40
$IIGLL,5450.888,N,00931.742,E,100945,A,A*5F
$IIHDG,026,,,,*53
$IIMTW,+21.0,C*3B
$IIMWV,038,R,14.6,N,A*1B
$IIMWV,059,T,10.7,N,A*1F
$IIRMC,100945,A,5450.888,N,00931.742,E,05.8,027,020813,,,A*46
$IIVHW,,,026,M,06.0,N,,*66
$IIVLW,01337,N,000.2,N*57
$GPRMB,A,9.00,R,003,004,4917.24,N,12309.57,W,001.3,052.5,000.5,V*37
$IIVWR,036,R,14.5,N,,,,*64
$IIDPT,013.2,-1.0,*40
$IIGLL,5450.890,N,00931.743,E,100946,A,A*54
$IIHDG,026,,,,*53
$IIMTW,+21.0,C*3B
$IIMWV,036,R,14.5,N,A*16
$IIMWV,059,T,10.4,N,A*1C
$IIRMC,100946,A,5450.890,N,00931.743,E,06.2,026,020813,,,A*45
$IIVHW,,,026,M,06.0,N,,*66
$IIVLW,01337,N,000.2,N*57
$IIVWR,035,R,15.4,N,,,,*67
$IIDPT,013.2,-1.0,*40
$IIGLL,5450.892,N,00931.745,E,100947,A,A*51
$IIHDG,026,,,,*53
$IIMTW,+21.0,C*3B
$IIMWV,035,R,15.4,N,A*15
$IIMWV,057,T,10.1,N,A*17
$IIRMC,100947,A,5450.892,N,00931.745,E,06.0,026,020813,,,A*42
$IIVHW,,,027,M,06.1,N,,*66
$IIVLW,01337,N,000.2,N*57
$IIVWR,034,R,15.5,N,,,,*67
$IIDPT,013.2,-1.0,*40
$IIGLL,5450.893,N,00931.746,E,100948,A,A*5C
$IIHDG,027,,,,*52
$IIMTW,+21.0,C*3B
$IIMWV,034,R,15.5,N,A*15
$IIMWV,053,T,10.8,N,A*1A
$GPRMB,A,0.00,R,003,004,4917.24,N,12309.57,W,001.3,052.5,000.5,V*3E
$IIRMC,100949,A,5450.894,N,00931.747,E,05.9,030,020813,,,A*45
$IIVHW,,,027,M,06.1,N,,*66
$IIVLW,01337,N,000.2,N*57
$IIVWR,034,R,16.3,N,,,,*62
$IIDPT,013.2,-1.0,*40
$IIGLL,5450.894,N,00931.747,E,100949,A,A*5B
$IIHDG,027,,,,*52
$IIMTW,+21.0,C*3B
$IIMWV,034,R,16.3,N,A*10
$IIMWV,051,T,11.7,N,A*16
$IIRMC,100950,A,5450.895,N,00931.748,E,05.4,034,020813,,,A*4A
$IIVHW,,,026,M,06.1,N,,*67
$IIVLW,01337,N,000.2,N*57
$IIVWR,038,R,16.8,N,,,,*65
$IIDPT,013.2,-1.0,*40
$IIGLL,5450.895,N,00931.748,E,100950,A,A*5D
$IIHDG,026,,,,*53
$IIMTW,+21.0,C*3B
$IIMWV,037,R,17.0,N,A*11
$IIMWV,056,T,12.5,N,A*10
$IIRMC,100951,A,5450.895,N,00931.750,E,05.0,040,020813,,,A*45
$IIVHW,,,026,M,06.1,N,,*67
$IIVLW,01337,N,000.2,N*57
$IIVWR,037,R,17.0,N,,,,*63
$IIDPT,013.2,-1.0,*40
$IIGLL,5450.895,N,00931.750,E,100951,A,A*55
$IIHDG,026,,,,*53
$GPRMB,A,1.00,R,003,004,4917.24,N,12309.57,W,001.3,052.5,000.5,V*3F
$IIMTW,+21.0,C*3B
$IIMWV,039,R,16.4,N,A*1A
$IIMWV,054,T,12.6,N,A*11
$IIRMC,100952,A,5450.896,N,00931.751,E,04.7,043,020813,,,A*41
$IIVHW,,,025,M,06.1,N,,*64
$IIVLW,01337,N,000.2,N*57
$IIVWR,039,R,16.4,N,,,,*68
$IIDPT,013.2,-1.0,*40
$IIGLL,5450.896,N,00931.751,E,100952,A,A*54
$IIHDG,023,,,,*56
$IIMTW,+21.0,C*3B
$IIMWV,040,R,15.7,N,A*14
$IIMWV,058,T,12.1,N,A*1A
$IIRMC,100953,A,5450.897,N,00931.753,E,05.7,039,020813,,,A*4F
$IIVHW,,,023,M,06.2,N,,*61
$IIVLW,01337,N,000.2,N*57
$IIVWR,040,R,15.7,N,,,,*66
$IIDPT,013.2,-1.0,*40
$IIGLL,5450.898,N,00931.755,E,100954,A,A*58
$IIHDG,024,,,,*51
$IIMTW,+21.0,C*3B
$IIMWV,042,R,15.7,N,A*16
$IIMWV,060,T,11.5,N,A*16
$IIRMC,100954,A,5450.898,N,00931.755,E,06.3,038,020813,,,A*47
$IIVHW,,,024,M,06.2,N,,*66
$IIVLW,01337,N,000.2,N*57
$IIVWR,042,R,15.7,N,,,,*64
$GPRMB,A,2.00,R,003,004,4917.24,N,12309.57,W,001.3,052.5,000.5,V*3C
$IIDPT,013.2,-1.0,*40
$IIGLL,5450.898,N,00931.757,E,100955,A,A*5B
$IIHDG,027,,,,*52
$IIMTW,+21.0,C*3B
$IIMWV,043,R,15.6,N,A*16
$IIMWV,063,T,11.8,N,A*18
$IIRMC,100955,A,5450.898,N,00931.757,E,06.2,043,020813,,,A*49
$IIVHW,,,027,M,06.2,N,,*65
$IIVLW,01337,N,000.2,N*57
$IIVWR,040,R,15.2,N,,,,*63
$IIDPT,013.2,-1.0,*40
$IIGLL,5450.900,N,00931.758,E,100956,A,A*57
$IIHDG,030,,,,*54
$IIMTW,+21.0,C*3B
$IIMWV,040,R,15.2,N,A*11
$IIMWV,064,T,11.7,N,A*10
$IIRMC,100956,A,5450.900,N,00931.758,E,06.1,031,020813,,,A*43
$IIVHW,,,030,M,06.2,N,,*63
$IIVLW,01337,N,000.2,N*57
$IIVWR,036,R,14.9,N,,,,*68
$IIDPT,013.2,-1.0,*40
$IIGLL,5450.901,N,00931.760,E,100957,A,A*5C
$IIHDG,030,,,,*54
$IIMTW,+21.0,C*3B
$IIMWV,036,R,14.9,N,A*1A
$IIMWV,060,T,11.1,N,A*12
$IIRMC,100957,A,5450.901,N,00931.760,E,06.7,027,020813,,,A*49
$GPRMB,A,3.00,R,003,004,4917.24,N,12309.57,W,001.3,052.5,000.5,V*3D
$IIVHW,,,029,M,06.2,N,,*6B
$IIVLW,01337,N,000.2,N*57
$IIVWR,034,R,15.3,N,,,,*61
$IIDPT,013.2,-1.0,*40
$IIGLL,5450.903,N,00931.761,E,100958,A,A*50
$IIHDG,029,,,,*5C
$IIMTW,+21.0,C*3B
$IIMWV,034,R,15.3,N,A*13
$IIMWV,056,T,10.4,N,A*13
$IIRMC,100959,A,5450.904,N,00931.763,E,06.3,027,020813,,,A*45
$IIVHW,,,026,M,06.2,N,,*64
$IIVLW,01337,N,000.2,N*57
$IIVWR,031,R,15.4,N,,,,*63
$IIDPT,013.2,-1.0,*40
$IIGLL,5450.904,N,00931.763,E,100959,A,A*54
$IIHDG,026,,,,*53
$IIMTW,+21.0,C*3B
$IIMWV,031,R,15.4,N,A*11
$IIMWV,049,T,10.5,N,A*1C
$IIRMC,101000,A,5450.906,N,00931.764,E,06.4,030,020813,,,A*45
$IIVHW,,,025,M,06.2,N,,*67
$IIVLW,01337,N,000.2,N*57
$IIVWR,032,R,15.5,N,,,,*61
$IIDPT,013.2,-1.0,*40
$IIGLL,5450.906,N,00931.764,E,101000,A,A*55
$IIHDG,025,,,,*50
$IIMTW,+21.0,C*3B
$GPRMB,A,4.00,R,003,004,4917.24,N,12309.57,W,001.3,052.5,000.5,V*3A
$IIMWV,034,R,15.7,N,A*17
$IIMWV,050,T,10.6,N,A*17
$IIRMC,101001,A,5450.907,N,00931.766,E,06.4,039,020813,,,A*4E
$IIVHW,,,028,M,06.2,N,,*6A
$IIVLW,01337,N,000.3,N*56
$IIVWR,034,R,15.7,N,,,,*65
$IIDPT,013.2,-1.0,*40
$IIGLL,5450.907,N,00931.766,E,101001,A,A*57
$IIHDG,028,,,,*5D
$IIMTW,+21.0,C*3B
$IIMWV,034,R,15.7,N,A*17
$IIMWV,052,T,10.9,N,A*1A
$IIRMC,101002,A,5450.909,N,00931.768,E,05.6,032,020813,,,A*47
$IIVHW,,,031,M,06.2,N,,*62
$IIVLW,01337,N,000.3,N*56
$IIVWR,034,R,15.7,N,,,,*65
$IIDPT,013.2,-1.0,*40
$IIGLL,5450.909,N,00931.768,E,101002,A,A*54
$IIHDG,032,,,,*56
$IIMTW,+22.0,C*38
$IIMWV,033,R,15.7,N,A*10
$IIMWV,052,T,10.9,N,A*1A
$IIRMC,101003,A,5450.912,N,00931.769,E,06.4,032,020813,,,A*4C
$IIVHW,,,032,M,06.2,N,,*61
$IIVLW,01337,N,000.3,N*56
$IIVWR,033,R,15.7,N,,,,*62
$IIDPT,013.2,-1.0,*40
$GPRMB,A,5.00,R,003,004,4917.24,N,12309.57,W,001.3,052.5,000.5,V*3B
$IIGLL,5450.914,N,00931.771,E,101004,A,A*56
$IIHDG,032,,,,*56
$IIMTW,+21.5,C*3E
$IIMWV,032,R,16.1,N,A*14
$IIMWV,051,T,10.8,N,A*18
$IIRMC,101004,A,5450.914,N,00931.771,E,06.9,031,020813,,,A*4A
$IIVHW,,,032,M,06.2,N,,*61
$IIVLW,01337,N,000.3,N*56
$IIVWR,032,R,16.1,N,,,,*66
$IIDPT,013.2,-1.0,*40
$IIGLL,5450.915,N,00931.772,E,101005,A,A*55
$IIHDG,032,,,,*56
$IIMTW,+21.5,C*3E
$IIMWV,032,R,15.3,N,A*15
$IIMWV,049,T,11.2,N,A*1A
$IIRMC,101005,A,5450.915,N,00931.772,E,06.5,033,020813,,,A*47
$IIVHW,,,032,M,06.2,N,,*61
$IIVLW,01337,N,000.3,N*56
$IIVWR,034,R,15.4,N,,,,*66
$IIDPT,013.2,-1.0,*40
$IIGLL,5450.916,N,00931.774,E,101006,A,A*53
$IIHDG,031,,,,*55
$IIMTW,+21.5,C*3E
$IIMWV,034,R,15.4,N,A*14
$IIMWV,050,T,10.5,N,A*14
$IIRMC,101006,A,5450.916,N,00931.774,E,06.2,030,020813,,,A*45
$IIVHW,,,031,M,06.2,N,,*62
$GPRMB,A,6.00,R,003,004,4917.24,N,12309.57,W,001.3,052.5,000.5,V*38
$IIVLW,01337,N,000.3,N*56
$IIVWR,036,R,15.0,N,,,,*60
$IIDPT,013.2,-1.0,*40
$IIGLL,5450.918,N,00931.775,E,101007,A,A*5D
$IIHDG,031,,,,*55
$IIMTW,+21.5,C*3E
$IIMWV,036,R,15.0,N,A*12
$IIMWV,053,T,10.7,N,A*15
$IIRMC,101007,A,5450.918,N,00931.775,E,05.5,032,020813,,,A*4D
$IIVHW,,,031,M,06.2,N,,*62
$IIVLW,01337,N,000.3,N*56
$IIVWR,036,R,15.0,N,,,,*60
$IIDPT,013.2,-1.0,*40
$IIGLL,5450.919,N,00931.776,E,101008,A,A*50
$IIHDG,031,,,,*55
$IIMTW,+20.5,C*3F
$IIMWV,036,R,15.0,N,A*12
$IIMWV,057,T,10.5,N,A*13
$IIRMC,101009,A,5450.920,N,00931.778,E,05.8,036,020813,,,A*4C
$IIVHW,,,031,M,06.2,N,,*62
$IIVLW,01337,N,000.3,N*56
$IIVWR,037,R,15.3,N,,,,*62
$IIDPT,013.2,-1.0,*40
$IIGLL,5450.920,N,00931.778,E,101009,A,A*55
$IIHDG,031,,,,*55
$IIMTW,+20.5,C*3F
$IIMWV,037,R,15.3,N,A*10
$GPRMB,A,7.00,R,003,004,4917.24,N,12309.57,W,001.3,052.5,000.5,V*39
$IIMWV,057,T,10.8,N,A*1E
$IIRMC,101010,A,5450.922,N,00931.780,E,05.7,031,020813,,,A*49
$IIVHW,,,031,M,06.2,N,,*62
$IIVLW,01337,N,000.3,N*56
$IIVWR,038,R,15.4,N,,,,*6A
$IIDPT,013.2,-1.0,*40
$IIGLL,5450.922,N,00931.780,E,101010,A,A*58
$IIHDG,031,,,,*55
$IIMTW,+20.5,C*3F
$IIMWV,035,R,16.4,N,A*16
$IIMWV,054,T,10.8,N,A*1D
$IIRMC,101012,A,5450.923,N,00931.782,E,05.9,034,020813,,,A*43
$IIVHW,,,030,M,06.2,N,,*63
$IIVLW,01337,N,000.3,N*56
$IIVWR,035,R,16.4,N,,,,*64
$IIDPT,013.2,-1.0,*40
$IIGLL,5450.923,N,00931.782,E,101012,A,A*59
$IIHDG,030,,,,*54
$GPRMB,A,8.00,R,003,004,4917.24,N,12309.57,W,001.3,052.5,000.5,V*36
$IIMTW,+21.5,C*3E
$IIMWV,032,R,16.5,N,A*10
$IIMWV,053,T,11.7,N,A*14
$IIRMC,101013,A,5450.925,N,00931.784,E,05.6,035,020813,,,A*4C
$IIVHW,,,031,M,06.2,N,,*62
$IIVLW,01337,N,000.3,N*56
$IIVWR,032,R,16.5,N,,,,*62
$IIDPT,013.2,-1.0,*40
$IIGLL,5450.925,N,00931.784,E,101013,A,A*58
$IIHDG,031,,,,*55
$IIMTW,+21.5,C*3E
$IIMWV,035,R,16.5,N,A*17
$IIMWV,049,T,11.6,N,A*1E
$IIRMC,101014,A,5450.926,N,00931.785,E,06.2,030,020813,,,A*4B
$IIVHW,,,031,M,06.2,N,,*62
$IIVLW,01337,N,000.3,N*56
$IIVWR,035,R,16.5,N,,,,*65
$IIDPT,013.2,-1.0,*40
$IIGLL,5450.928,N,00931.787,E,101015,A,A*50
$IIHDG,031,,,,*55
$IIMTW,+21.0,C*3B
$IIMWV,034,R,16.4,N,A*17
$IIMWV,053,T,11.8,N,A*1B
$IIRMC,101015,A,5450.928,N,00931.787,E,05.9,037,020813,,,A*49
$IIVHW,,,031,M,06.2,N,,*62
$IIVLW,01337,N,000.3,N*56
$IIVWR,034,R,16.4,N,,,,*65
$GPRMB,A,9.00,R,003,004,4917.24,N,12309.57,W,001.3,052.5,000.5,V*37
$IIDPT,013.2,-1.0,*40
$IIGLL,5450.929,N,00931.788,E,101016,A,A*5D
$IIHDG,027,,,,*52
$IIMTW,+21.0,C*3B
$IIMWV,034,R,16.0,N,A*13
$IIMWV,051,T,11.6,N,A*17
$IIRMC,101016,A,5450.929,N,00931.788,E,05.9,035,020813,,,A*46
$IIVHW,,,027,M,06.2,N,,*65
$IIVLW,01337,N,000.3,N*56
$IIVWR,036,R,16.2,N,,,,*61
$IIDPT,013.2,-1.0,*40
$IIGLL,5450.931,N,00931.790,E,101017,A,A*5C
$IIHDG,026,,,,*53
$IIMTW,+21.0,C*3B
$IIMWV,036,R,16.2,N,A*13
$IIMWV,052,T,11.2,N,A*10
$IIRMC,101017,A,5450.931,N,00931.790,E,05.9,040,020813,,,A*45
$IIVHW,,,026,M,06.2,N,,*64
$IIVLW,01337,N,000.3,N*56
$IIVWR,036,R,15.9,N,,,,*69
$IIDPT,013.2,-1.0,*40
$IIGLL,5450.932,N,00931.792,E,101018,A,A*52
$IIHDG,027,,,,*52
$IIMTW,+21.0,C*3B
$IIMWV,036,R,15.9,N,A*1B
$IIMWV,054,T,11.6,N,A*12
$IIRMC,101018,A,5450.932,N,00931.792,E,05.2,035,020813,,,A*42
$GPRMB,A,0.00,R,003,004,4917.24,N,12309.57,W,001.3,052.5,000.5,V*3E
$IIVHW,,,027,M,06.2,N,,*65
$IIVLW,01337,N,000.3,N*56
$IIVWR,033,R,16.1,N,,,,*67
$IIDPT,013.2,-1.0,*40
$IIGLL,5450.933,N,00931.793,E,101019,A,A*53
$IIHDG,027,,,,*52
$IIMTW,+21.0,C*3B
$IIMWV,033,R,16.1,N,A*15
$IIMWV,055,T,11.3,N,A*16
$IIRMC,101020,A,5450.934,N,00931.794,E,04.7,039,020813,,,A*41
$IIVHW,,,029,M,06.2,N,,*6B
$IIVLW,01337,N,000.3,N*56
$IIVWR,033,R,16.7,N,,,,*61
$IIDPT,013.2,-1.0,*40
$IIGLL,5450.934,N,00931.794,E,101020,A,A*59
$IIHDG,029,,,,*5C
$IIMTW,+21.0,C*3B
$IIMWV,033,R,16.7,N,A*13
$IIMWV,049,T,11.8,N,A*10
$IIRMC,101021,A,5450.935,N,00931.796,E,05.2,036,020813,,,A*48
$IIVHW,,,031,M,06.2,N,,*62
$IIVLW,01337,N,000.3,N*56
$IIVWR,033,R,16.7,N,,,,*61
$IIDPT,013.1,-1.0,*43
$IIGLL,5450.935,N,00931.796,E,101021,A,A*5B
$IIHDG,031,,,,*55
$IIMTW,+21.0,C*3B
$GPRMB,A,1.00,R,003,004,4917.24,N,12309.57,W,001.3,052.5,000.5,V*3F
$IIMWV,032,R,16.5,N,A*10
$IIMWV,049,T,11.8,N,A*10
$IIRMC,101022,A,5450.939,N,00931.798,E,06.6,030,020813,,,A*48
$IIVHW,,,032,M,06.2,N,,*61
$IIVLW,01337,N,000.3,N*56
$IIVWR,032,R,16.5,N,,,,*62
$IIDPT,013.0,-1.0,*42
$IIGLL,5450.939,N,00931.798,E,101022,A,A*5A
$IIHDG,032,,,,*56
$IIMTW,+21.0,C*3B
$IIMWV,031,R,17.0,N,A*17
$IIMWV,049,T,11.6,N,A*1E
$IIRMC,101023,A,5450.940,N,00931.800,E,06.3,032,020813,,,A*4E
$IIVHW,,,032,M,06.2,N,,*61
$IIVLW,01337,N,000.3,N*56
$IIVWR,031,R,17.0,N,,,,*65
$IIDPT,013.0,-1.0,*42
$IIGLL,5450.940,N,00931.800,E,101023,A,A*5B
$IIHDG,031,,,,*55
$IIMTW,+21.0,C*3B
$IIMWV,031,R,17.3,N,A*14
$IIMWV,047,T,12.0,N,A*15
$IIRMC,101024,A,5450.942,N,00931.802,E,07.2,035,020813,,,A*4E
$IIVHW,,,031,M,06.2,N,,*62
$IIVLW,01337,N,000.3,N*56
$IIVWR,031,R,17.3,N,,,,*66
$IIDPT,013.0,-1.0,*42
$GPRMB,A,2.00,R,003,004,4917.24,N,12309.57,W,001.3,052.5,000.5,V*3C
$IIGLL,5450.945,N,00931.804,E,101025,A,A*5C
$IIHDG,028,,,,*5D
$IIMTW,+21.0,C*3B
$IIMWV,032,R,17.0,N,A*14
$IIMWV,046,T,12.3,N,A*17
$IIRMC,101025,A,5450.945,N,00931.804,E,07.1,033,020813,,,A*4B
$IIVHW,,,028,M,06.2,N,,*6A
$IIVLW,01337,N,000.3,N*56
$IIVWR,032,R,17.0,N,,,,*66
$IIDPT,013.0,-1.0,*42
$IIGLL,5450.947,N,00931.807,E,101026,A,A*5E
$IIHDG,030,,,,*54
$IIMTW,+21.0,C*3B
$IIMWV,032,R,17.6,N,A*12
$IIMWV,048,T,12.1,N,A*1B
$IIRMC,101026,A,5450.947,N,00931.807,E,06.4,031,020813,,,A*4F
$IIVHW,,,030,M,06.2,N,,*63
$IIVLW,01337,N,000.3,N*56
$IIVWR,032,R,17.6,N,,,,*60
$IIDPT,013.0,-1.0,*42
$IIGLL,5450.948,N,00931.809,E,101027,A,A*5E
$IIHDG,031,,,,*55
$IIMTW,+21.0,C*3B
$IIMWV,032,R,17.6,N,A*12
$IIMWV,047,T,12.7,N,A*12
$IIRMC,101027,A,5450.948,N,00931.809,E,06.4,039,020813,,,A*47
$IIVHW,,,031,M,06.2,N,,*62
$GPRMB,A,3.00,R,003,004,4917.24,N,12309.57,W,001.3,052.5,000.5,V*3D
$IIVLW,01337,N,000.3,N*56
$IIVWR,031,R,17.6,N,,,,*63
$IIDPT,013.0,-1.0,*42
$IIGLL,5450.950,N,00931.811,E,101028,A,A*51
$IIHDG,032,,,,*56
$IIMTW,+21.0,C*3B
$IIMWV,031,R,17.6,N,A*11
$IIMWV,047,T,12.7,N,A*12
$IIRMC,101028,A,5450.950,N,00931.811,E,06.0,039,020813,,,A*4C
$IIVHW,,,031,M,06.2,N,,*62
$IIVLW,01337,N,000.3,N*56
$IIVWR,034,R,17.5,N,,,,*65
$IIDPT,013.0,-1.0,*42
$IIGLL,5450.951,N,00931.813,E,101029,A,A*53
$IIHDG,031,,,,*55
$IIMTW,+21.0,C*3B
$IIMWV,034,R,17.5,N,A*17
$IIMWV,046,T,12.7,N,A*13
$IIRMC,101030,A,5450.953,N,00931.815,E,06.7,045,020813,,,A*4E
$IIVHW,,,031,M,06.2,N,,*62
$IIVLW,01337,N,000.3,N*56
$IIVWR,035,R,17.5,N,,,,*64
$IIDPT,013.0,-1.0,*42
$IIGLL,5450.953,N,00931.815,E,101030,A,A*5F
$IIHDG,031,,,,*55
$IIMTW,+21.0,C*3B
$IIMWV,035,R,17.5,N,A*16
$GPRMB,A,4.00,R,003,004,4917.24,N,12309.57,W,001.3,052.5,000.5,V*3A
$IIMWV,051,T,12.7,N,A*15
$IIRMC,101031,A,5450.954,N,00931.817,E,05.6,041,020813,,,A*4C
$IIVHW,,,033,M,06.2,N,,*60
$IIVLW,01337,N,000.3,N*56
$IIVWR,034,R,17.5,N,,,,*65
$IIDPT,013.0,-1.0,*42
$IIGLL,5450.954,N,00931.817,E,101031,A,A*5B
$IIHDG,033,,,,*57
$IIMTW,+21.0,C*3B
$IIMWV,033,R,18.3,N,A*19
$IIMWV,050,T,12.7,N,A*14
$IIRMC,101032,A,5450.955,N,00931.818,E,05.9,037,020813,,,A*4F
$IIVHW,,,033,M,06.2,N,,*60
$IIVLW,01337,N,000.3,N*56
$IIVWR,033,R,18.3,N,,,,*6B
$IIDPT,013.0,-1.0,*42
$IIGLL,5450.955,N,00931.818,E,101032,A,A*56
$IIHDG,033,,,,*57
$IIMTW,+21.0,C*3B
$IIMWV,031,R,18.4,N,A*1C
$IIMWV,047,T,13.3,N,A*17
$IIRMC,101033,A,5450.956,N,00931.820,E,05.5,031,020813,,,A*4C
$IIVHW,,,033,M,06.2,N,,*60
$IIVLW,01337,N,000.3,N*56
$IIVWR,031,R,18.4,N,,,,*6E
$IIDPT,013.0,-1.0,*42
$IIGLL,5450.956,N,00931.820,E,101033,A,A*5F
$GPRMB,A,5.00,R,003,004,4917.24,N,12309.57,W,001.3,052.5,000.5,V*3B
$IIHDG,032,,,,*56
$IIMTW,+21.0,C*3B
$IIMWV,031,R,18.1,N,A*19
$IIMWV,045,T,13.4,N,A*12
$IIRMC,101034,A,5450.957,N,00931.821,E,06.0,037,020813,,,A*4B
$IIVHW,,,032,M,06.3,N,,*60
$IIVLW,01337,N,000.3,N*56
$IIVWR,031,R,18.1,N,,,,*6B
$IIDPT,013.0,-1.0,*42
$IIGLL,5450.959,N,00931.823,E,101035,A,A*55
$IIHDG,032,,,,*56
$IIMTW,+21.0,C*3B
$IIMWV,032,R,18.1,N,A*1A
$IIMWV,046,T,13.1,N,A*14
$IIRMC,101035,A,5450.959,N,00931.823,E,06.3,038,020813,,,A*4A
$IIVHW,,,032,M,06.2,N,,*61
$IIVLW,01337,N,000.3,N*56
$IIVWR,032,R,18.1,N,,,,*68
$IIDPT,013.0,-1.0,*42
$IIGLL,5450.961,N,00931.825,E,101036,A,A*5B
$IIHDG,032,,,,*56
$IIMTW,+21.0,C*3B
$IIMWV,032,R,18.6,N,A*1D
$IIMWV,047,T,13.0,N,A*14
$IIRMC,101036,A,5450.961,N,00931.825,E,07.2,037,020813,,,A*4B
$IIVHW,,,032,M,06.3,N,,*60
$IIVLW,01337,N,000.3,N*56
$GPRMB,A,6.00,R,003,004,4917.24,N,12309.57,W,001.3,052.5,000.5,V*38
$IIVWR,006,R,00.0,N,,,,*67
$IIDPT,013.0,-1.0,*42
$IIGLL,5450.963,N,00931.828,E,101037,A,A*55
$IIHDG,032,,,,*56
$IIMTW,+21.0,C*3B
$IIMWV,006,R,00.0,N,A*15
$IIMWV,046,T,13.6,N,A*13
$IIRMC,101037,A,5450.963,N,00931.828,E,06.9,038,020813,,,A*40
$IIVHW,,,032,M,06.3,N,,*60
$IIVLW,01337,N,000.3,N*56
$IIVWR,031,R,18.7,N,,,,*6D
$IIDPT,013.0,-1.0,*42
$IIGLL,5450.966,N,00931.830,E,101038,A,A*56
$IIHDG,033,,,,*57
$IIMTW,+21.0,C*3B
$IIMWV,031,R,18.7,N,A*1F
$IIMWV,006,T,06.3,N,A*16
$IIRMC,101038,A,5450.966,N,00931.830,E,06.6,040,020813,,,A*43
$IIVHW,,,034,M,06.3,N,,*66
$IIVLW,01337,N,000.3,N*56
$IIVWR,031,R,18.0,N,,,,*6A
$IIDPT,013.0,-1.0,*42
$IIGLL,5450.967,N,00931.831,E,101039,A,A*57
$IIHDG,034,,,,*50
$IIMTW,+21.0,C*3B
$IIMWV,031,R,18.0,N,A*18
$IIMWV,045,T,13.7,N,A*11
$GPRMB,A,7.00,R,003,004,4917.24,N,12309.57,W,001.3,052.5,000.5,V*39
$IIRMC,101040,A,5450.968,N,00931.833,E,06.6,042,020813,,,A*43
$IIVHW,,,034,M,06.3,N,,*66
$IIVLW,01337,N,000.3,N*56
$IIVWR,032,R,17.4,N,,,,*62
$IIDPT,013.0,-1.0,*42
$IIGLL,5450.968,N,00931.833,E,101040,A,A*54
$IIHDG,034,,,,*50
$IIMTW,+21.0,C*3B
$IIMWV,032,R,17.4,N,A*10
$IIMWV,048,T,12.3,N,A*19
$IIRMC,101041,A,5450.969,N,00931.835,E,06.5,044,020813,,,A*40
$IIVHW,,,035,M,06.4,N,,*60
$IIVLW,01337,N,000.3,N*56
$IIVWR,032,R,17.2,N,,,,*64
$IIDPT,013.0,-1.0,*42
$IIGLL,5450.969,N,00931.835,E,101041,A,A*52
$IIHDG,035,,,,*51
$IIMTW,+21.0,C*3B
$IIMWV,032,R,17.0,N,A*14
$IIMWV,048,T,12.2,N,A*18
$IIRMC,101042,A,5450.968,N,00931.837,E,05.6,050,020813,,,A*45
$IIVHW,,,037,M,06.4,N,,*62
$IIVLW,01337,N,000.3,N*56
$IIVWR,032,R,17.0,N,,,,*66
$IIDPT,013.0,-1.0,*42
$IIGLL,5450.968,N,00931.837,E,101042,A,A*52
$IIHDG,037,,,,*53
$GPRMB,A,8.00,R,003,004,4917.24,N,12309.57,W,001.3,052.5,000.5,V*36
$IIMTW,+21.0,C*3B
$IIMWV,030,R,16.6,N,A*11
$IIMWV,048,T,12.0,N,A*1A
$IIRMC,101043,A,5450.969,N,00931.838,E,05.5,044,020813,,,A*4C
$IIVHW,,,036,M,06.4,N,,*63
$IIVLW,01337,N,000.3,N*56
$IIVWR,030,R,16.6,N,,,,*63
$IIDPT,013.0,-1.0,*42
$IIGLL,5450.969,N,00931.838,E,101043,A,A*5D
$IIHDG,036,,,,*52
$IIMTW,+21.0,C*3B
$IIMWV,031,R,16.6,N,A*10
$IIMWV,046,T,11.5,N,A*12
$IIRMC,101044,A,5450.970,N,00931.840,E,06.0,040,020813,,,A*4E
$IIVHW,,,036,M,06.4,N,,*63
$IIVLW,01337,N,000.3,N*56
$IIVWR,031,R,16.6,N,,,,*62
$IIDPT,013.0,-1.0,*42
$IIGLL,5450.971,N,00931.842,E,101045,A,A*5F
$IIHDG,037,,,,*53
$IIMTW,+21.0,C*3B
$IIMWV,032,R,17.0,N,A*14
$IIMWV,048,T,11.6,N,A*1F
$IIRMC,101045,A,5450.971,N,00931.842,E,06.5,034,020813,,,A*4A
$IIVHW,,,037,M,06.4,N,,*62
$IIVLW,01337,N,000.3,N*56
$IIVWR,032,R,17.0,N,,,,*66
$GPRMB,A,9.00,R,003,004,4917.24,N,12309.57,W,001.3,052.5,000.5,V*37
$IIDPT,013.0,-1.0,*42
$IIGLL,5450.972,N,00931.844,E,101046,A,A*59
$IIHDG,036,,,,*52
$IIMTW,+21.5,C*3E
$IIMWV,033,R,17.4,N,A*11
$IIMWV,048,T,12.0,N,A*1A
$IIRMC,101046,A,5450.972,N,00931.844,E,05.8,035,020813,,,A*43
$IIVHW,,,036,M,06.4,N,,*63
$IIVLW,01337,N,000.3,N*56
$IIVWR,032,R,17.9,N,,,,*6F
$IIDPT,013.0,-1.0,*42
$IIGLL,5450.973,N,00931.845,E,101047,A,A*58
$IIHDG,036,,,,*52
$IIMTW,+21.5,C*3E
$IIMWV,032,R,17.9,N,A*1D
$IIMWV,049,T,12.3,N,A*18
$IIRMC,101047,A,5450.973,N,00931.845,E,05.7,034,020813,,,A*4C
$IIVHW,,,036,M,06.4,N,,*63
$IIVLW,01337,N,000.3,N*56
$IIVWR,032,R,18.3,N,,,,*6A
$IIDPT,013.0,-1.0,*42
$IIGLL,5450.974,N,00931.847,E,101048,A,A*52
$IIHDG,035,,,,*51
$IIMTW,+21.5,C*3E
$IIMWV,032,R,18.3,N,A*18
$IIMWV,047,T,12.8,N,A*1D
$IIRMC,101048,A,5450.974,N,00931.847,E,07.0,032,020813,,,A*45
$GPRMB,A,0.00,R,003,004,4917.24,N,12309.57,W,001.3,052.5,000.5,V*3E
$IIVHW,,,035,M,06.3,N,,*67
$IIVLW,01337,N,000.3,N*56
$IIVWR,034,R,18.8,N,,,,*67
$IIDPT,013.0,-1.0,*42
$IIGLL,5450.976,N,00931.849,E,101049,A,A*5F
$IIHDG,035,,,,*51
$IIMTW,+21.5,C*3E
$IIMWV,034,R,18.8,N,A*15
$IIMWV,047,T,13.2,N,A*16
$IIRMC,101050,A,5450.977,N,00931.850,E,06.7,043,020813,,,A*49
$IIVHW,,,035,M,06.3,N,,*67
$IIVLW,01337,N,000.3,N*56
$IIVWR,033,R,19.0,N,,,,*69
$IIDPT,012.9,-1.0,*4A
$IIGLL,5450.977,N,00931.850,E,101050,A,A*5E
$IIHDG,035,,,,*51
$IIMTW,+21.5,C*3E
$IIMWV,033,R,19.0,N,A*1B
$IIMWV,047,T,14.0,N,A*13
$IIRMC,101051,A,5450.978,N,00931.852,E,06.1,035,020813,,,A*42
$IIVHW,,,035,M,06.3,N,,*67
$IIVLW,01337,N,000.3,N*56
$IIVWR,031,R,18.8,N,,,,*62
$IIDPT,012.9,-1.0,*4A
$IIGLL,5450.978,N,00931.852,E,101051,A,A*52
$IIHDG,035,,,,*51
$IIMTW,+21.5,C*3E
$GPRMB,A,1.00,R,003,004,4917.24,N,12309.57,W,001.3,052.5,000.5,V*3F
$IIMWV,031,R,18.7,N,A*1F
$IIMWV,045,T,13.7,N,A*11
$IIRMC,101052,A,5450.980,N,00931.854,E,06.6,032,020813,,,A*40
$IIVHW,,,033,M,06.3,N,,*61
$IIVLW,01337,N,000.3,N*56
$IIVWR,031,R,18.7,N,,,,*6D
$IIDPT,012.9,-1.0,*4A
$IIGLL,5450.980,N,00931.854,E,101052,A,A*50
$IIHDG,033,,,,*57
$IIMTW,+21.0,C*3B
$IIMWV,031,R,18.6,N,A*1E
$IIMWV,045,T,13.7,N,A*11
$IIRMC,101053,A,5450.982,N,00931.856,E,06.6,033,020813,,,A*40
$IIVHW,,,032,M,06.3,N,,*60
$IIVLW,01337,N,000.3,N*56
$IIVWR,031,R,18.6,N,,,,*6C
$IIDPT,012.9,-1.0,*4A
$IIGLL,5450.982,N,00931.856,E,101053,A,A*51
$IIHDG,032,,,,*56
$IIMTW,+21.0,C*3B
$IIMWV,031,R,18.6,N,A*1E
$IIMWV,045,T,13.5,N,A*13
$IIRMC,101054,A,5450.984,N,00931.858,E,06.3,038,020813,,,A*41
$IIVHW,,,032,M,06.3,N,,*60
$IIVLW,01337,N,000.3,N*56
$IIVWR,031,R,18.6,N,,,,*6C
$IIDPT,012.9,-1.0,*4A
$GPRMB,A,2.00,R,003,004,4917.24,N,12309.57,W,001.3,052.5,000.5,V*3C
$IIGLL,5450.986,N,00931.861,E,101055,A,A*57
$IIHDG,031,,,,*55
$IIMTW,+21.0,C*3B
$IIMWV,031,R,18.7,N,A*1F
$IIMWV,045,T,13.5,N,A*13
$IIRMC,101055,A,5450.986,N,00931.861,E,06.8,039,020813,,,A*42
$IIVHW,,,031,M,06.3,N,,*63
$IIVLW,01337,N,000.3,N*56
$IIVWR,031,R,18.7,N,,,,*6D
$IIDPT,012.9,-1.0,*4A
$IIGLL,5450.987,N,00931.862,E,101056,A,A*56
$IIHDG,032,,,,*56
$IIMTW,+21.0,C*3B
$IIMWV,032,R,18.9,N,A*12
$IIMWV,045,T,13.7,N,A*11
$IIRMC,101056,A,5450.987,N,00931.862,E,06.5,042,020813,,,A*42
$IIVHW,,,032,M,06.2,N,,*61
$IIVLW,01337,N,000.3,N*56
$IIVWR,032,R,19.0,N,,,,*68
$IIDPT,012.9,-1.0,*4A
$IIGLL,5450.989,N,00931.864,E,101057,A,A*5F
$IIHDG,032,,,,*56
$IIMTW,+21.0,C*3B
$IIMWV,032,R,19.0,N,A*1A
$IIMWV,046,T,13.9,N,A*1C
$IIRMC,101057,A,5450.989,N,00931.864,E,06.7,039,020813,,,A*45
$IIVHW,,,032,M,06.2,N,,*61
$GPRMB,A,3.00,R,003,004,4917.24,N,12309.57,W,001.3,052.5,000.5,V*3D
$IIVLW,01337,N,000.3,N*56
$IIVWR,032,R,19.0,N,,,,*68
$IIDPT,012.9,-1.0,*4A
$IIGLL,5450.990,N,00931.867,E,101058,A,A*5B
$IIHDG,032,,,,*56
$IIMTW,+21.0,C*3B
$IIMWV,032,R,19.0,N,A*1A
$IIMWV,046,T,14.0,N,A*12
$IIRMC,101058,A,5450.990,N,00931.867,E,06.5,037,020813,,,A*4D
$IIVHW,,,033,M,06.2,N,,*60
$IIVLW,01337,N,000.3,N*56
$IIVWR,033,R,19.1,N,,,,*68
$IIDPT,012.9,-1.0,*4A
$IIGLL,5450.992,N,00931.869,E,101059,A,A*56
$IIHDG,033,,,,*57
$IIMTW,+21.0,C*3B
$IIMWV,033,R,19.1,N,A*1A
$IIMWV,046,T,14.0,N,A*12
$IIRMC,101100,A,5450.992,N,00931.870,E,04.1,048,020813,,,A*4B
$IIVHW,,,035,M,06.2,N,,*66
$IIVLW,01337,N,000.4,N*51
$IIVWR,033,R,19.5,N,,,,*6C
$IIDPT,012.9,-1.0,*4A
$IIGLL,5450.992,N,00931.870,E,101100,A,A*53
$IIHDG,035,,,,*51
$IIMTW,+21.0,C*3B
$IIMWV,033,R,19.5,N,A*1E
$GPRMB,A,4.00,R,003,004,4917.24,N,12309.57,W,001.3,052.5,000.5,V*3A
$IIMWV,046,T,14.5,N,A*17
$IIRMC,101101,A,5450.992,N,00931.872,E,05.0,048,020813,,,A*48
$IIVHW,,,036,M,06.2,N,,*65
$IIVLW,01337,N,000.4,N*51
$IIVWR,032,R,19.4,N,,,,*6C
$IIDPT,012.9,-1.0,*4A
$IIGLL,5450.992,N,00931.872,E,101101,A,A*50
$IIHDG,036,,,,*52
$IIMTW,+21.0,C*3B
$IIMWV,032,R,19.4,N,A*1E
$IIMWV,045,T,14.4,N,A*15
$IIRMC,101102,A,5450.993,N,00931.874,E,05.3,052,020813,,,A*44
$IIVHW,,,036,M,06.1,N,,*66
$IIVLW,01337,N,000.4,N*51
$IIVWR,032,R,19.4,N,,,,*6C
$IIDPT,012.9,-1.0,*4A
$IIGLL,5450.993,N,00931.874,E,101102,A,A*54
$IIHDG,036,,,,*52
$IIMTW,+21.0,C*3B
$IIMWV,006,R,00.0,N,A*15
$IIMWV,045,T,14.4,N,A*15
$IIRMC,101103,A,5450.993,N,00931.876,E,06.1,045,020813,,,A*40
$IIVHW,,,038,M,06.1,N,,*68
$IIVLW,01337,N,000.4,N*51
$IIVWR,006,R,00.0,N,,,,*67
$IIDPT,012.9,-1.0,*4A
$IIGLL,5450.993,N,00931.876,E,101103,A,A*57
$GPRMB,A,5.00,R,003,004,4917.24,N,12309.57,W,001.3,052.5,000.5,V*3B
$IIHDG,039,,,,*5D
$IIMTW,+21.0,C*3B
$IIMWV,032,R,19.0,N,A*1A
$IIMWV,006,T,06.2,N,A*17
$IIRMC,101104,A,5450.994,N,00931.878,E,05.7,052,020813,,,A*4D
$IIVHW,,,039,M,06.1,N,,*69
$IIVLW,01337,N,000.4,N*51
$IIVWR,032,R,19.0,N,,,,*68
$IIDPT,012.9,-1.0,*4A
$IIGLL,5450.995,N,00931.880,E,101105,A,A*5E
$IIHDG,042,,,,*51
$IIMTW,+21.0,C*3B
$IIMWV,031,R,19.0,N,A*19
$IIMWV,045,T,14.0,N,A*11
$IIRMC,101105,A,5450.995,N,00931.880,E,06.6,045,020813,,,A*4E
$IIVHW,,,042,M,06.1,N,,*65
$IIVLW,01337,N,000.4,N*51
$IIVWR,031,R,19.0,N,,,,*6B
$IIDPT,012.9,-1.0,*4A
$IIGLL,5450.996,N,00931.882,E,101106,A,A*5C
$IIHDG,044,,,,*57
$IIMTW,+21.0,C*3B
$IIMWV,030,R,18.9,N,A*10
$IIMWV,044,T,14.0,N,A*10
$IIRMC,101106,A,5450.996,N,00931.882,E,05.9,048,020813,,,A*4D
$IIVHW,,,044,M,06.1,N,,*63
$IIVLW,01337,N,000.4,N*51
$GPRMB,A,6.00,R,003,004,4917.24,N,12309.57,W,001.3,052.5,000.5,V*38
$IIVWR,030,R,19.0,N,,,,*6A
$IIDPT,012.9,-1.0,*4A
$IIGLL,5450.997,N,00931.885,E,101107,A,A*5B
$IIHDG,046,,,,*55
$IIMTW,+21.0,C*3B
$IIMWV,030,R,19.0,N,A*18
$IIMWV,042,T,13.9,N,A*18
$IIRMC,101107,A,5450.997,N,00931.885,E,06.5,046,020813,,,A*4B
$IIVHW,,,046,M,06.1,N,,*61
$IIVLW,01337,N,000.4,N*51
$IIVWR,032,R,18.8,N,,,,*61
$IIDPT,012.9,-1.0,*4A
$IIGLL,5450.998,N,00931.887,E,101108,A,A*59
$IIHDG,046,,,,*55
$IIMTW,+21.0,C*3B
$IIMWV,032,R,18.8,N,A*13
$IIMWV,042,T,14.0,N,A*16
$IIRMC,101108,A,5450.998,N,00931.887,E,05.7,050,020813,,,A*4F
$IIVHW,,,046,M,06.0,N,,*60
$IIVLW,01337,N,000.4,N*51
$IIVWR,034,R,18.4,N,,,,*6B
$IIDPT,012.9,-1.0,*4A
$IIGLL,5451.000,N,00931.889,E,101109,A,A*5F
$IIHDG,046,,,,*55
$IIMTW,+21.0,C*3B
$IIMWV,034,R,18.4,N,A*19
$IIMWV,045,T,13.9,N,A*1F
$GPRMB,A,7.00,R,003,004,4917.24,N,12309.57,W,001.3,052.5,000.5,V*39
$IIRMC,101110,A,5451.001,N,00931.891,E,06.0,046,020813,,,A*4A
$IIVHW,,,048,M,06.0,N,,*6E
$IIVLW,01337,N,000.4,N*51
$IIVWR,035,R,18.0,N,,,,*6E
$IIDPT,012.9,-1.0,*4A
$IIGLL,5451.001,N,00931.891,E,101110,A,A*5F
$IIHDG,048,,,,*5B
$IIMTW,+21.0,C*3B
$IIMWV,035,R,18.0,N,A*1C
$IIMWV,050,T,13.4,N,A*16
$IIRMC,101111,A,5451.002,N,00931.893,E,05.5,049,020813,,,A*43
$IIVHW,,,047,M,06.0,N,,*61
$IIVLW,01337,N,000.4,N*51
$IIVWR,036,R,17.6,N,,,,*64
$IIDPT,012.8,-1.0,*4B
$IIGLL,5451.002,N,00931.893,E,101111,A,A*5F
$IIHDG,047,,,,*54
$IIMTW,+21.0,C*3B
$IIMWV,035,R,17.2,N,A*11
$IIMWV,052,T,13.1,N,A*11
