$IIRMC,162332,A,4612.828,N,00610.243,E,00.0,000,240614,01,E,A*0E
$IIGLL,4612.828,N,00610.243,E,162332,A,A*56
$IIRMC,162333,A,4612.828,N,00610.243,E,00.0,000,240614,01,E,A*0F
$IIGLL,4612.828,N,00610.243,E,162333,A,A*57
$IIRMC,162334,A,4612.828,N,00610.243,E,00.0,000,240614,01,E,A*08
$IIGLL,4612.828,N,00610.243,E,162334,A,A*50
$IIRMC,162335,A,4612.828,N,00610.243,E,00.0,000,240614,01,E,A*09
$IIGLL,4612.828,N,00610.243,E,162335,A,A*51
$IIRMC,162336,A,4612.828,N,00610.243,E,00.0,000,240614,01,E,A*0A
$IIGLL,4612.828,N,00610.243,E,162336,A,A*52
$IIRMC,162337,A,4612.828,N,00610.243,E,00.0,000,240614,01,E,A*0B
$IIGLL,4612.828,N,00610.243,E,162337,A,A*53
$IIRMC,162338,A,4612.828,N,00610.243,E,00.0,000,240614,01,E,A*04
$IIGLL,4612.828,N,00610.243,E,162338,A,A*5C
$IIRMC,162339,A,4612.828,N,00610.243,E,00.0,000,240614,01,E,A*05
$IIGLL,4612.828,N,00610.243,E,162339,A,A*5D
$IIRMC,162340,A,4612.828,N,00610.243,E,00.0,000,240614,01,E,A*0B
$IIGLL,4612.828,N,00610.243,E,162340,A,A*53
$IIRMC,162341,A,4612.828,N,00610.243,E,00.0,000,240614,01,E,A*0A
$IIGLL,4612.828,N,00610.243,E,162341,A,A*52
$IIRMC,162342,A,4612.828,N,00610.243,E,00.0,000,240614,01,E,A*09
$IIGLL,4612.828,N,00610.243,E,162342,A,A*51
$IIMWV,280,R,08.5,N,A*14
$IIRMC,162343,A,4612.828,N,00610.243,E,00.0,000,240614,01,E,A*08
$IIVWR,080,L,08.5,N,,,,*7A
$IIGLL,4612.828,N,00610.243,E,162343,A,A*50
$IIMWV,280,R,08.7,N,A*16
$IIMWV,280,T,08.5,N,A*12
$IIRMC,162344,A,4612.828,N,00610.243,E,00.0,000,240614,01,E,A*0F
$IIVWR,080,L,08.7,N,,,,*78
$IIGLL,4612.828,N,00610.243,E,162344,A,A*57
$IIMWV,276,R,05.3,N,A*16
$IIMWV,280,T,08.7,N,A*10
$IIRMC,162345,A,4612.828,N,00610.243,E,00.0,000,240614,01,E,A*0E
$IIVWR,084,L,05.3,N,,,,*75
$IIGLL,4612.828,N,00610.243,E,162345,A,A*56
$IIMWV,278,R,04.5,N,A*1F
$IIMWV,276,T,05.3,N,A*10
$IIRMC,162346,A,4612.828,N,00610.243,E,00.0,000,240614,01,E,A*0D
$IIVWR,082,L,04.5,N,,,,*74
$IIGLL,4612.828,N,00610.243,E,162346,A,A*55
$IIMWV,283,R,05.3,N,A*1C
$IIMWV,278,T,04.5,N,A*19
$IIRMC,162347,A,4612.828,N,00610.243,E,00.0,000,240614,01,E,A*0C
$IIVWR,077,L,05.3,N,,,,*79
$IIGLL,4612.828,N,00610.243,E,162347,A,A*54
$IIHDG,028,,,01,E*19
$IIMTW,+21.0,C*3B
$IIMWV,282,R,04.8,N,A*17
$IIMWV,283,T,05.3,N,A*1A
$IIRMC,162348,A,4612.828,N,00610.243,E,00.0,000,240614,01,E,A*03
$IIVHW,,,028,M,00.0,N,,*6E
$IIVLW,00861,N,000.0,N*5C
$IIVWR,078,L,04.8,N,,,,*7C
$IIDPT,002.5,+0.7,*47
$IIGLL,4612.828,N,00610.243,E,162348,A,A*5B
$IIHDG,027,,,01,E*16
$IIMTW,+21.0,C*3B
$IIMWV,278,R,04.4,N,A*1E
$IIMWV,282,T,04.8,N,A*11
$IIRMC,162348,A,4612.828,N,00610.243,E,00.0,000,240614,01,E,A*03
$IIVHW,,,027,M,00.0,N,,*61
$IIVLW,00861,N,000.0,N*5C
$IIVWR,082,L,04.4,N,,,,*75
$IIDPT,002.5,+0.7,*47
$IIGLL,4612.828,N,00610.243,E,162350,A,A*52
$IIHDG,028,,,01,E*19
$IIMTW,+21.0,C*3B
$IIMWV,276,R,05.2,N,A*17
$IIMWV,278,T,04.4,N,A*18
$IIRMC,162350,A,4612.828,N,00610.243,E,00.0,000,240614,01,E,A*0A
$IIVHW,,,028,M,00.0,N,,*6E
$IIVLW,00861,N,000.0,N*5C
$IIVWR,086,L,05.0,N,,,,*74
$IIDPT,002.5,+0.7,*47
$IIGLL,4612.828,N,00610.243,E,162351,A,A*53
$IIHDG,027,,,01,E*16
$IIMTW,+21.0,C*3B
$IIMWV,274,R,05.0,N,A*17
$IIMWV,276,T,05.2,N,A*11
$IIRMC,162351,A,4612.828,N,00610.243,E,00.0,000,240614,01,E,A*0B
$IIVHW,,,027,M,00.0,N,,*61
$IIVLW,00861,N,000.0,N*5C
$IIVWR,086,L,05.0,N,,,,*74
$IIDPT,002.5,+0.7,*47
$IIGLL,4612.828,N,00610.243,E,162352,A,A*50
$IIHDG,028,,,01,E*19
$IIMTW,+21.0,C*3B
$IIMWV,274,R,05.0,N,A*17
$IIMWV,274,T,05.0,N,A*11
$IIRMC,162352,A,4612.828,N,00610.243,E,00.0,000,240614,01,E,A*08
$IIVHW,,,028,M,00.0,N,,*6E
$IIVLW,00861,N,000.0,N*5C
$IIVWR,083,L,04.5,N,,,,*75
$IIDPT,002.5,+0.7,*47
$IIGLL,4612.828,N,00610.243,E,162353,A,A*51
$IIHDG,028,,,01,E*19
$IIMTW,+21.0,C*3B
$IIMWV,277,R,04.5,N,A*10
$IIMWV,274,T,05.0,N,A*11
$IIRMC,162354,A,4612.828,N,00610.243,E,00.0,000,240614,01,E,A*0E
$IIVHW,,,028,M,00.0,N,,*6E
$IIVLW,00861,N,000.0,N*5C
$IIVWR,088,L,05.4,N,,,,*7E
$IIDPT,002.4,+0.7,*46
$IIGLL,4612.828,N,00610.243,E,162354,A,A*56
$IIHDG,028,,,01,E*19
$IIMTW,+21.0,C*3B
$IIMWV,272,R,05.4,N,A*15
$IIMWV,272,T,05.4,N,A*13
$IIRMC,162355,A,4612.828,N,00610.243,E,00.0,000,240614,01,E,A*0F
$IIVHW,,,028,M,00.0,N,,*6E
$IIVLW,00861,N,000.0,N*5C
$IIVWR,088,L,05.0,N,,,,*7A
$IIDPT,002.4,+0.7,*46
$IIGLL,4612.828,N,00610.243,E,162355,A,A*57
$IIHDG,028,,,01,E*19
$IIMTW,+21.5,C*3E
$IIMWV,268,R,04.9,N,A*12
$IIMWV,272,T,05.0,N,A*17
$IIRMC,162356,A,4612.828,N,00610.243,E,00.0,000,240614,01,E,A*0C
$IIVHW,,,028,M,00.0,N,,*6E
$IIVLW,00861,N,000.0,N*5C
$IIVWR,092,L,04.9,N,,,,*79
$IIDPT,002.4,+0.7,*46
$IIGLL,4612.828,N,00610.243,E,162356,A,A*54
$IIHDG,028,,,01,E*19
$IIMTW,+21.5,C*3E
$IIMWV,268,R,04.1,N,A*1A
$IIMWV,268,T,04.9,N,A*14
$IIRMC,162358,A,4612.828,N,00610.244,E,00.0,000,240614,01,E,A*05
$IIVHW,,,028,M,00.0,N,,*6E
$IIVLW,00861,N,000.0,N*5C
$IIVWR,092,L,04.1,N,,,,*71
$IIDPT,002.4,+0.7,*46
$IIGLL,4612.828,N,00610.244,E,162358,A,A*5D
$IIHDG,028,,,01,E*19
$IIMTW,+21.5,C*3E
$IIMWV,264,R,03.6,N,A*16
$IIMWV,268,T,04.1,N,A*1C
$IIRMC,162359,A,4612.828,N,00610.244,E,00.0,000,240614,01,E,A*04
$IIVHW,,,028,M,00.0,N,,*6E
$IIVLW,00861,N,000.0,N*5C
$IIVWR,096,L,03.6,N,,,,*75
$IIDPT,002.4,+0.7,*46
$IIGLL,4612.828,N,00610.243,E,162400,A,A*50
$IIHDG,028,,,01,E*19
$IIMTW,+21.5,C*3E
$IIMWV,268,R,03.9,N,A*15
$IIMWV,264,T,03.6,N,A*10
$IIRMC,162400,A,4612.828,N,00610.243,E,00.0,000,240614,01,E,A*08
$IIVHW,,,028,M,00.0,N,,*6E
$IIVLW,00861,N,000.0,N*5C
$IIVWR,092,L,03.9,N,,,,*7E
$IIDPT,002.4,+0.7,*46
$IIGLL,4612.828,N,00610.243,E,162401,A,A*51
$IIHDG,028,,,01,E*19
$IIMTW,+21.5,C*3E
$IIMWV,270,R,03.6,N,A*13
$IIMWV,268,T,03.9,N,A*13
$IIRMC,162401,A,4612.828,N,00610.243,E,00.0,000,240614,01,E,A*09
$IIVHW,,,028,M,00.0,N,,*6E
$IIVLW,00861,N,000.0,N*5C
$IIVWR,090,L,03.2,N,,,,*77
$IIDPT,002.4,+0.7,*46
$IIGLL,4612.828,N,00610.244,E,162402,A,A*55
$IIHDG,028,,,01,E*19
$IIMTW,+21.5,C*3E
$IIMWV,270,R,03.2,N,A*17
$IIMWV,270,T,03.6,N,A*15
$IIRMC,162402,A,4612.828,N,00610.244,E,00.0,000,240614,01,E,A*0D
$IIVHW,,,028,M,00.0,N,,*6E
$IIVLW,00861,N,000.0,N*5C
$IIVWR,088,L,03.7,N,,,,*7B
$IIDPT,002.4,+0.7,*46
$IIGLL,4612.828,N,00610.244,E,162403,A,A*54
$IIHDG,195,,,01,E*1E
$IIMTW,+22.0,C*38
$IIMWV,272,R,03.7,N,A*10
$IIMWV,270,T,03.2,N,A*11
$IIRMC,162403,A,4612.828,N,00610.244,E,00.0,000,240614,01,E,A*0C
$IIVHW,,,028,M,00.0,N,,*6E
$IIVLW,00861,N,000.0,N*5C
$IIVWR,083,L,03.5,N,,,,*72
$IIDPT,002.4,+0.7,*46
$IIGLL,4612.828,N,00610.244,E,162404,A,A*53
$IIHDG,028,,,01,E*19
$IIMTW,+21.5,C*3E
$IIMWV,277,R,03.5,N,A*17
$IIMWV,272,T,03.7,N,A*16
$IIRMC,162405,A,4612.828,N,00610.244,E,00.0,000,240614,01,E,A*0A
$IIVHW,,,029,M,00.0,N,,*6F
$IIVLW,00861,N,000.0,N*5C
$IIVWR,086,L,03.2,N,,,,*70
$IIDPT,002.4,+0.7,*46
$IIGLL,4612.828,N,00610.244,E,162405,A,A*52
$IIHDG,029,,,01,E*18
$IIMTW,+21.5,C*3E
$IIMWV,274,R,03.2,N,A*13
$IIMWV,274,T,03.2,N,A*15
$IIRMC,162406,A,4612.828,N,00610.244,E,00.0,000,240614,01,E,A*09
$IIVHW,,,028,M,00.0,N,,*6E
$IIVLW,00861,N,000.0,N*5C
$IIVWR,093,L,04.1,N,,,,*70
$IIDPT,002.4,+0.7,*46
$IIGLL,4612.828,N,00610.244,E,162406,A,A*51
$IIHDG,028,,,01,E*19
$IIMTW,+21.5,C*3E
$IIMWV,266,R,04.1,N,A*14
$IIMWV,267,T,04.1,N,A*13
$IIRMC,162407,A,4612.828,N,00610.244,E,00.0,000,240614,01,E,A*08
$IIVHW,,,028,M,00.0,N,,*6E
$IIVLW,00861,N,000.0,N*5C
$IIVWR,094,L,04.1,N,,,,*77
$IIDPT,002.4,+0.7,*46
$IIGLL,4612.828,N,00610.244,E,162407,A,A*50
$IIHDG,028,,,01,E*19
$IIMTW,+21.5,C*3E
$IIMWV,264,R,03.7,N,A*17
$IIMWV,266,T,04.1,N,A*12
$IIRMC,162408,A,4612.828,N,00610.244,E,00.0,000,240614,01,E,A*07
$IIVHW,,,028,M,00.0,N,,*6E
$IIVLW,00861,N,000.0,N*5C
$IIVWR,096,L,03.7,N,,,,*74
$IIDPT,002.4,+0.7,*46
$IIGLL,4612.828,N,00610.244,E,162408,A,A*5F
$IIHDG,028,,,01,E*19
$IIMTW,+21.5,C*3E
$IIMWV,265,R,03.9,N,A*18
$IIMWV,264,T,03.7,N,A*11
$IIRMC,162409,A,4612.828,N,00610.244,E,00.0,000,240614,01,E,A*06
$IIVHW,,,028,M,00.0,N,,*6E
$IIVLW,00861,N,000.0,N*5C
$IIVWR,095,L,03.9,N,,,,*79
$IIDPT,002.4,+0.7,*46
$IIGLL,4612.828,N,00610.244,E,162410,A,A*56
$IIHDG,028,,,01,E*19
$IIMTW,+21.5,C*3E
$IIMWV,263,R,04.1,N,A*11
$IIMWV,265,T,03.9,N,A*1E
$IIRMC,162410,A,4612.828,N,00610.244,E,00.0,000,240614,01,E,A*0E
$IIVHW,,,028,M,00.0,N,,*6E
$IIVLW,00861,N,000.0,N*5C
$IIVWR,097,L,04.1,N,,,,*74
$IIDPT,002.4,+0.7,*46
$IIGLL,4612.828,N,00610.244,E,162411,A,A*57
$IIHDG,028,,,01,E*19
$IIMTW,+21.5,C*3E
$IIMWV,267,R,03.9,N,A*1A
$IIMWV,263,T,04.1,N,A*17
$IIRMC,162411,A,4612.828,N,00610.244,E,00.0,000,240614,01,E,A*0F
$IIVHW,,,028,M,00.0,N,,*6E
$IIVLW,00861,N,000.0,N*5C
$IIVWR,090,L,04.0,N,,,,*72
$IIDPT,002.4,+0.7,*46
$IIGLL,4612.828,N,00610.244,E,162412,A,A*54
$IIHDG,028,,,01,E*19
$IIMTW,+21.5,C*3E
$IIMWV,270,R,04.0,N,A*12
$IIMWV,267,T,03.9,N,A*1C
$IIRMC,162412,A,4612.828,N,00610.244,E,00.0,000,240614,01,E,A*0C
$IIVHW,,,028,M,00.0,N,,*6E
$IIVLW,00861,N,000.0,N*5C
$IIVWR,088,L,03.6,N,,,,*7A
$IIDPT,002.4,+0.7,*46
$IIGLL,4612.828,N,00610.244,E,162413,A,A*55
$IIHDG,028,,,01,E*19
$IIMTW,+21.5,C*3E
$IIMWV,272,R,03.6,N,A*11
$IIMWV,270,T,04.0,N,A*14
$IIRMC,162413,A,4612.828,N,00610.244,E,00.0,000,240614,01,E,A*0D
$IIVHW,,,028,M,00.0,N,,*6E
$IIVLW,00861,N,000.0,N*5C
$IIVWR,088,L,03.1,N,,,,*7D
$IIDPT,002.4,+0.7,*46
$IIGLL,4612.828,N,00610.244,E,162414,A,A*52
$IIHDG,028,,,01,E*19
$IIMTW,+21.5,C*3E
$IIMWV,272,R,03.1,N,A*16
$IIMWV,272,T,03.6,N,A*17
$IIRMC,162415,A,4612.828,N,00610.244,E,00.0,000,240614,01,E,A*0B
$IIVHW,,,028,M,00.0,N,,*6E
$IIVLW,00861,N,000.0,N*5C
$IIVWR,088,L,03.5,N,,,,*79
$IIDPT,002.4,+0.7,*46
$IIGLL,4612.828,N,00610.244,E,162415,A,A*53
$IIHDG,028,,,01,E*19
$IIMTW,+21.5,C*3E
$IIMWV,272,R,03.5,N,A*12
$IIMWV,272,T,03.5,N,A*14
$IIRMC,162416,A,4612.828,N,00610.244,E,00.0,000,240614,01,E,A*08
$IIVHW,,,028,M,00.0,N,,*6E
$IIVLW,00861,N,000.0,N*5C
$IIVWR,093,L,03.3,N,,,,*75
$IIDPT,002.4,+0.7,*46
$IIGLL,4612.828,N,00610.244,E,162416,A,A*50
$IIHDG,028,,,01,E*19
$IIMTW,+21.5,C*3E
$IIMWV,265,R,03.2,N,A*13
$IIMWV,267,T,03.3,N,A*16
$IIRMC,162417,A,4612.828,N,00610.244,E,00.0,000,240614,01,E,A*09
$IIVHW,,,028,M,00.0,N,,*6E
$IIVLW,00861,N,000.0,N*5C
$IIVWR,095,L,03.2,N,,,,*72
$IIDPT,002.4,+0.7,*46
$IIGLL,4612.828,N,00610.244,E,162417,A,A*51
$IIHDG,028,,,01,E*19
$IIMTW,+21.5,C*3E
$IIMWV,259,R,03.6,N,A*18
$IIMWV,265,T,03.2,N,A*15
$IIRMC,162418,A,4612.828,N,00610.244,E,00.0,000,240614,01,E,A*06
$IIVHW,,,029,M,00.0,N,,*6F
$IIVLW,00861,N,000.0,N*5C
$IIVWR,101,L,03.6,N,,,,*7A
$IIDPT,002.4,+0.7,*46
$IIGLL,4612.828,N,00610.244,E,162418,A,A*5E
$IIHDG,028,,,01,E*19
$IIMTW,+21.5,C*3E
$IIMWV,258,R,03.9,N,A*16
$IIMWV,259,T,03.6,N,A*1E
$IIRMC,162419,A,4612.828,N,00610.244,E,00.0,000,240614,01,E,A*07
$IIVHW,,,028,M,00.0,N,,*6E
$IIVLW,00861,N,000.0,N*5C
$IIVWR,102,L,03.9,N,,,,*76
$IIDPT,002.4,+0.7,*46
$IIGLL,4612.828,N,00610.244,E,162420,A,A*55
$IIHDG,028,,,01,E*19
$IIMTW,+21.5,C*3E
$IIMWV,258,R,03.6,N,A*19
$IIMWV,258,T,03.9,N,A*10
$IIRMC,162420,A,4612.828,N,00610.244,E,00.0,000,240614,01,E,A*0D
$IIVHW,,,028,M,00.0,N,,*6E
$IIVLW,00861,N,000.0,N*5C
$IIVWR,102,L,03.6,N,,,,*79
$IIDPT,002.4,+0.7,*46
$IIGLL,4612.828,N,00610.244,E,162421,A,A*54
$IIHDG,028,,,01,E*19
$IIMTW,+21.5,C*3E
$IIMWV,259,R,03.9,N,A*17
$IIMWV,258,T,03.6,N,A*1F
$IIRMC,162421,A,4612.828,N,00610.244,E,00.0,000,240614,01,E,A*0C
$IIVHW,,,028,M,00.0,N,,*6E
$IIVLW,00861,N,000.0,N*5C
$IIVWR,103,L,03.6,N,,,,*78
$IIDPT,002.4,+0.7,*46
$IIGLL,4612.828,N,00610.244,E,162422,A,A*57
$IIHDG,028,,,01,E*19
$IIMTW,+21.5,C*3E
$IIMWV,257,R,03.6,N,A*16
$IIMWV,259,T,03.9,N,A*11
$IIRMC,162422,A,4612.828,N,00610.244,E,00.0,000,240614,01,E,A*0F
$IIVHW,,,028,M,00.0,N,,*6E
$IIVLW,00861,N,000.0,N*5C
$IIVWR,100,L,03.9,N,,,,*74
$IIDPT,002.4,+0.7,*46
$IIGLL,4612.828,N,00610.244,E,162422,A,A*57
$IIHDG,028,,,01,E*19
$IIMTW,+21.5,C*3E
$IIMWV,260,R,03.9,N,A*1D
$IIMWV,257,T,03.6,N,A*10
$IIRMC,162422,A,4612.828,N,00610.244,E,00.0,000,240614,01,E,A*0F
$IIVHW,,,028,M,00.0,N,,*6E
$IIVLW,00861,N,000.0,N*5C
$IIVWR,099,L,04.1,N,,,,*7A
$IIDPT,002.4,+0.7,*46
$IIGLL,4612.828,N,00610.244,E,162424,A,A*51
$IIHDG,028,,,01,E*19
$IIMTW,+21.5,C*3E
$IIMWV,261,R,04.1,N,A*13
$IIMWV,260,T,03.9,N,A*1B
$IIRMC,162425,A,4612.828,N,00610.244,E,00.0,000,240614,01,E,A*08
$IIVHW,,,028,M,00.0,N,,*6E
$IIVLW,00861,N,000.0,N*5C
$IIVWR,099,L,04.5,N,,,,*7E
$IIDPT,002.4,+0.7,*46
$IIGLL,4612.828,N,00610.244,E,162425,A,A*50
$IIHDG,028,,,01,E*19
$IIMTW,+21.5,C*3E
$IIMWV,261,R,04.5,N,A*17
$IIMWV,261,T,04.5,N,A*11
$IIRMC,162426,A,4612.828,N,00610.244,E,00.0,000,240614,01,E,A*0B
$IIVHW,,,028,M,00.0,N,,*6E
$IIVLW,00861,N,000.0,N*5C
$IIVWR,097,L,04.5,N,,,,*70
$IIDPT,002.4,+0.7,*46
$IIGLL,4612.828,N,00610.244,E,162426,A,A*53
$IIHDG,028,,,01,E*19
$IIMTW,+21.5,C*3E
$IIMWV,263,R,04.9,N,A*19
$IIMWV,263,T,04.5,N,A*13
$IIRMC,162427,A,4612.828,N,00610.244,E,00.0,000,240614,01,E,A*0A
$IIVHW,,,028,M,00.0,N,,*6E
$IIVLW,00861,N,000.0,N*5C
$IIVWR,097,L,04.9,N,,,,*7C
$IIDPT,002.4,+0.7,*46
$IIGLL,4612.828,N,00610.244,E,162427,A,A*52
$IIHDG,028,,,01,E*19
$IIMTW,+21.5,C*3E
$IIMWV,260,R,04.9,N,A*1A
$IIMWV,263,T,04.9,N,A*1F
$IIRMC,162428,A,4612.828,N,00610.244,E,00.0,000,240614,01,E,A*05
$IIVHW,,,028,M,00.0,N,,*6E
$IIVLW,00861,N,000.0,N*5C
$IIVWR,100,L,04.9,N,,,,*73
$IIDPT,002.4,+0.7,*46
$IIGLL,4612.828,N,00610.244,E,162428,A,A*5D
$IIHDG,028,,,01,E*19
$IIMTW,+21.5,C*3E
$IIMWV,259,R,04.8,N,A*11
$IIMWV,260,T,04.9,N,A*1C
$IIRMC,162429,A,4612.828,N,00610.244,E,00.0,000,240614,01,E,A*04
$IIVHW,,,028,M,00.0,N,,*6E
$IIVLW,00861,N,000.0,N*5C
$IIVWR,101,L,04.8,N,,,,*73
$IIDPT,002.4,+0.7,*46
$IIGLL,4612.828,N,00610.244,E,162430,A,A*54
$IIHDG,028,,,01,E*19
$IIMTW,+21.5,C*3E
$IIMWV,259,R,05.0,N,A*18
$IIMWV,259,T,04.8,N,A*17
$IIRMC,162430,A,4612.828,N,00610.244,E,00.0,000,240614,01,E,A*0C
$IIVHW,,,028,M,00.0,N,,*6E
$IIVLW,00861,N,000.0,N*5C
$IIVWR,101,L,05.0,N,,,,*7A
$IIDPT,002.4,+0.7,*46
$IIGLL,4612.828,N,00610.244,E,162431,A,A*55
$IIHDG,029,,,01,E*18
$IIMTW,+21.5,C*3E
$IIMWV,260,R,05.3,N,A*11
$IIMWV,259,T,05.0,N,A*1E
$IIRMC,162431,A,4612.828,N,00610.244,E,00.0,000,240614,01,E,A*0D
$IIVHW,,,029,M,00.0,N,,*6F
$IIVLW,00861,N,000.0,N*5C
$IIVWR,098,L,05.8,N,,,,*73
$IIDPT,002.4,+0.7,*46
$IIGLL,4612.828,N,00610.244,E,162432,A,A*56
$IIHDG,028,,,01,E*19
$IIMTW,+21.5,C*3E
$IIMWV,262,R,05.8,N,A*18
$IIMWV,260,T,05.3,N,A*17
$IIRMC,162432,A,4612.828,N,00610.244,E,00.0,000,240614,01,E,A*0E
$IIVHW,,,028,M,00.0,N,,*6E
$IIVLW,00861,N,000.0,N*5C
$IIVWR,100,L,06.2,N,,,,*7A
$IIDPT,002.4,+0.7,*46
$IIGLL,4612.828,N,00610.244,E,162433,A,A*57
$IIHDG,028,,,01,E*19
$IIMTW,+21.5,C*3E
$IIMWV,260,R,06.2,N,A*13
$IIMWV,262,T,05.8,N,A*1E
$IIRMC,162433,A,4612.828,N,00610.244,E,00.0,000,240614,01,E,A*0F
$IIVHW,,,028,M,00.0,N,,*6E
$IIVLW,00861,N,000.0,N*5C
$IIVWR,101,L,06.5,N,,,,*7C
$IIDPT,002.4,+0.7,*46
$IIGLL,4612.828,N,00610.244,E,162434,A,A*50
$IIHDG,028,,,01,E*19
$IIMTW,+21.5,C*3E
$IIMWV,259,R,06.5,N,A*1E
$IIMWV,260,T,06.2,N,A*15
$IIRMC,162435,A,4612.828,N,00610.244,E,00.0,000,240614,01,E,A*09
$IIVHW,,,028,M,00.0,N,,*6E
$IIVLW,00861,N,000.0,N*5C
$IIVWR,101,L,06.7,N,,,,*7E
$IIDPT,002.4,+0.7,*46
$IIGLL,4612.828,N,00610.244,E,162435,A,A*51
$IIHDG,028,,,01,E*19
$IIMTW,+21.5,C*3E
$IIMWV,259,R,06.7,N,A*1C
$IIMWV,259,T,06.7,N,A*1A
$IIRMC,162436,A,4612.828,N,00610.244,E,00.0,000,240614,01,E,A*0A
$IIVHW,,,028,M,00.0,N,,*6E
$IIVLW,00861,N,000.0,N*5C
$IIVWR,102,L,06.6,N,,,,*7C
$IIDPT,002.4,+0.7,*46
$IIGLL,4612.828,N,00610.244,E,162436,A,A*52
$IIHDG,028,,,01,E*19
$IIMTW,+21.5,C*3E
$IIMWV,257,R,06.7,N,A*12
$IIMWV,258,T,06.6,N,A*1A
$IIRMC,162437,A,4612.828,N,00610.244,E,00.0,000,240614,01,E,A*0B
$IIVHW,,,028,M,00.0,N,,*6E
$IIVLW,00861,N,000.0,N*5C
$IIVWR,103,L,06.7,N,,,,*7C
$IIDPT,002.4,+0.7,*46
$IIGLL,4612.828,N,00610.244,E,162437,A,A*53
$IIHDG,028,,,01,E*19
$IIMTW,+21.5,C*3E
$IIMWV,257,R,07.1,N,A*15
$IIMWV,257,T,06.7,N,A*14
$IIRMC,162438,A,4612.828,N,00610.244,E,00.0,000,240614,01,E,A*04
$IIVHW,,,028,M,00.0,N,,*6E
$IIVLW,00861,N,000.0,N*5C
$IIVWR,103,L,07.1,N,,,,*7B
$IIDPT,002.4,+0.7,*46
$IIGLL,4612.828,N,00610.244,E,162438,A,A*5C
$IIHDG,027,,,01,E*16
$IIMTW,+21.5,C*3E
$IIMWV,256,R,07.2,N,A*17
$IIMWV,257,T,07.1,N,A*13
$IIRMC,162439,A,4612.828,N,00610.244,E,00.0,000,240614,01,E,A*05
$IIVHW,,,027,M,00.0,N,,*61
$IIVLW,00861,N,000.0,N*5C
$IIVWR,104,L,07.2,N,,,,*7F
$IIDPT,002.4,+0.7,*46
$IIGLL,4612.828,N,00610.244,E,162440,A,A*53
$IIHDG,027,,,01,E*16
$IIMTW,+21.5,C*3E
$IIMWV,257,R,07.1,N,A*15
$IIMWV,256,T,07.2,N,A*11
$IIRMC,162440,A,4612.828,N,00610.244,E,00.0,000,240614,01,E,A*0B
$IIVHW,,,027,M,00.0,N,,*61
$IIVLW,00861,N,000.0,N*5C
$IIVWR,103,L,07.1,N,,,,*7B
$IIDPT,002.4,+0.7,*46
$IIGLL,4612.828,N,00610.244,E,162441,A,A*52
$IIHDG,027,,,01,E*16
$IIMTW,+21.5,C*3E
$IIMWV,259,R,07.0,N,A*1A
$IIMWV,257,T,07.1,N,A*13
$IIRMC,162441,A,4612.828,N,00610.244,E,00.0,000,240614,01,E,A*0A
$IIVHW,,,027,M,00.0,N,,*61
$IIVLW,00861,N,000.0,N*5C
$IIVWR,099,L,07.0,N,,,,*78
$IIDPT,002.4,+0.7,*46
$IIGLL,4612.828,N,00610.244,E,162442,A,A*51
$IIHDG,027,,,01,E*16
$IIMTW,+21.5,C*3E
$IIMWV,261,R,07.0,N,A*11
$IIMWV,259,T,07.0,N,A*1C
$IIRMC,162442,A,4612.828,N,00610.244,E,00.0,000,240614,01,E,A*09
$IIVHW,,,027,M,00.0,N,,*61
$IIVLW,00861,N,000.0,N*5C
$IIVWR,097,L,07.0,N,,,,*76
$IIDPT,002.4,+0.7,*46
$IIGLL,4612.828,N,00610.244,E,162443,A,A*50
$IIHDG,027,,,01,E*16
$IIMTW,+21.5,C*3E
$IIMWV,263,R,07.0,N,A*13
$IIMWV,261,T,07.0,N,A*17
$IIRMC,162443,A,4612.828,N,00610.244,E,00.0,000,240614,01,E,A*08
$IIVHW,,,027,M,00.0,N,,*61
$IIVLW,00861,N,000.0,N*5C
$IIVWR,097,L,06.8,N,,,,*7F
$IIDPT,002.4,+0.7,*46
$IIGLL,4612.828,N,00610.244,E,162444,A,A*57
$IIHDG,027,,,01,E*16
$IIMTW,+21.5,C*3E
$IIMWV,263,R,06.8,N,A*1A
$IIMWV,263,T,07.0,N,A*15
$IIRMC,162445,A,4612.828,N,00610.244,E,00.0,000,240614,01,E,A*0E
$IIVHW,,,027,M,00.0,N,,*61
$IIVLW,00861,N,000.0,N*5C
$IIVWR,096,L,06.6,N,,,,*70
$IIDPT,002.4,+0.7,*46
$IIGLL,4612.828,N,00610.244,E,162445,A,A*56
$IIHDG,027,,,01,E*16
$IIMTW,+21.5,C*3E
$IIMWV,264,R,06.6,N,A*13
$IIMWV,264,T,06.6,N,A*15
$IIRMC,162446,A,4612.828,N,00610.244,E,00.0,000,240614,01,E,A*0D
$IIVHW,,,027,M,00.0,N,,*61
$IIVLW,00861,N,000.0,N*5C
$IIVWR,093,L,06.5,N,,,,*76
$IIDPT,002.4,+0.7,*46
$IIGLL,4612.828,N,00610.244,E,162446,A,A*55
$IIHDG,027,,,01,E*16
$IIMTW,+21.5,C*3E
$IIMWV,267,R,06.3,N,A*15
$IIMWV,267,T,06.5,N,A*15
$IIRMC,162447,A,4612.828,N,00610.244,E,00.0,000,240614,01,E,A*0C
$IIVHW,,,027,M,00.0,N,,*61
$IIVLW,00861,N,000.0,N*5C
$IIVWR,093,L,06.3,N,,,,*70
$IIDPT,002.4,+0.7,*46
$IIGLL,4612.828,N,00610.244,E,162447,A,A*54
$IIHDG,027,,,01,E*16
$IIMTW,+21.5,C*3E
$IIMWV,267,R,06.2,N,A*14
$IIMWV,267,T,06.3,N,A*13
$IIRMC,162448,A,4612.828,N,00610.244,E,00.0,000,240614,01,E,A*03
$IIVHW,,,027,M,00.0,N,,*61
$IIVLW,00861,N,000.0,N*5C
$IIVWR,093,L,06.2,N,,,,*71
$IIDPT,002.4,+0.7,*46
$IIGLL,4612.828,N,00610.244,E,162448,A,A*5B
$IIHDG,028,,,01,E*19
$IIMTW,+21.5,C*3E
$IIMWV,268,R,06.1,N,A*18
$IIMWV,267,T,06.2,N,A*12
$IIRMC,162449,A,4612.828,N,00610.244,E,00.0,000,240614,01,E,A*02
$IIVHW,,,028,M,00.0,N,,*6E
$IIVLW,00861,N,000.0,N*5C
$IIVWR,092,L,06.1,N,,,,*73
$IIDPT,002.4,+0.7,*46
$IIGLL,4612.828,N,00610.244,E,162450,A,A*52
$IIHDG,027,,,01,E*16
$IIMTW,+21.5,C*3E
$IIMWV,269,R,06.1,N,A*19
$IIMWV,268,T,06.1,N,A*1E
$IIRMC,162450,A,4612.828,N,00610.244,E,00.0,000,240614,01,E,A*0A
$IIVHW,,,027,M,00.0,N,,*61
$IIVLW,00861,N,000.0,N*5C
$IIVWR,091,L,06.1,N,,,,*70
$IIDPT,002.4,+0.7,*46
$IIGLL,4612.828,N,00610.244,E,162451,A,A*53
$IIHDG,028,,,01,E*19
$IIMTW,+21.5,C*3E
$IIMWV,269,R,06.3,N,A*1B
$IIMWV,269,T,06.1,N,A*1F
$IIRMC,162451,A,4612.828,N,00610.244,E,00.0,000,240614,01,E,A*0B
$IIVHW,,,028,M,00.0,N,,*6E
$IIVLW,00861,N,000.0,N*5C
$IIVWR,090,L,06.3,N,,,,*73
$IIDPT,002.4,+0.7,*46
$IIGLL,4612.828,N,00610.244,E,162452,A,A*50
$IIHDG,028,,,01,E*19
$IIMTW,+21.5,C*3E
$IIMWV,270,R,06.3,N,A*13
$IIMWV,269,T,06.3,N,A*1D
$IIRMC,162452,A,4612.828,N,00610.244,E,00.0,000,240614,01,E,A*08
$IIVHW,,,028,M,00.0,N,,*6E
$IIVLW,00861,N,000.0,N*5C
$IIVWR,088,L,06.6,N,,,,*7F
$IIDPT,002.4,+0.7,*46
$IIGLL,4612.828,N,00610.244,E,162453,A,A*51
$IIHDG,028,,,01,E*19
$IIMTW,+21.5,C*3E
$IIMWV,272,R,06.6,N,A*14
$IIMWV,270,T,06.3,N,A*15
$IIRMC,162453,A,4612.828,N,00610.244,E,00.0,000,240614,01,E,A*09
$IIVHW,,,028,M,00.0,N,,*6E
$IIVLW,00861,N,000.0,N*5C
$IIVWR,088,L,06.7,N,,,,*7E
$IIDPT,002.4,+0.7,*46
$IIGLL,4612.828,N,00610.244,E,162454,A,A*56
$IIHDG,028,,,01,E*19
$IIMTW,+21.5,C*3E
$IIMWV,272,R,06.7,N,A*15
$IIMWV,272,T,06.6,N,A*12
$IIRMC,162455,A,4612.828,N,00610.244,E,00.0,000,240614,01,E,A*0F
$IIVHW,,,028,M,00.0,N,,*6E
$IIVLW,00861,N,000.0,N*5C
$IIVWR,089,L,06.8,N,,,,*70
$IIDPT,002.4,+0.7,*46
$IIGLL,4612.828,N,00610.244,E,162455,A,A*57
$IIHDG,028,,,01,E*19
$IIMTW,+21.5,C*3E
$IIMWV,271,R,06.8,N,A*19
$IIMWV,271,T,06.8,N,A*1F
$IIRMC,162456,A,4612.828,N,00610.244,E,00.0,000,240614,01,E,A*0C
$IIVHW,,,028,M,00.0,N,,*6E
$IIVLW,00861,N,000.0,N*5C
$IIVWR,088,L,07.0,N,,,,*78
$IIDPT,002.4,+0.7,*46
$IIGLL,4612.828,N,00610.244,E,162456,A,A*54
$IIHDG,028,,,01,E*19
$IIMTW,+21.5,C*3E
$IIMWV,273,R,07.0,N,A*12
$IIMWV,272,T,07.0,N,A*15
$IIRMC,162457,A,4612.828,N,00610.244,E,00.0,000,240614,01,E,A*0D
$IIVHW,,,028,M,00.0,N,,*6E
$IIVLW,00861,N,000.0,N*5C
$IIVWR,087,L,07.0,N,,,,*77
$IIDPT,002.4,+0.7,*46
$IIGLL,4612.828,N,00610.244,E,162457,A,A*55
$IIHDG,028,,,01,E*19
$IIMTW,+21.5,C*3E
$IIMWV,275,R,07.1,N,A*15
$IIMWV,273,T,07.0,N,A*14
$IIRMC,162458,A,4612.828,N,00610.244,E,00.0,000,240614,01,E,A*02
$IIVHW,,,027,M,00.0,N,,*61
$IIVLW,00861,N,000.0,N*5C
$IIVWR,085,L,07.1,N,,,,*74
$IIDPT,002.4,+0.7,*46
$IIGLL,4612.828,N,00610.244,E,162458,A,A*5A
$IIHDG,028,,,01,E*19
$IIMTW,+21.5,C*3E
$IIMWV,277,R,06.8,N,A*1F
$IIMWV,275,T,07.1,N,A*13
$IIRMC,162459,A,4612.828,N,00610.244,E,00.0,000,240614,01,E,A*03
$IIVHW,,,028,M,00.0,N,,*6E
$IIVLW,00861,N,000.0,N*5C
$IIVWR,083,L,06.8,N,,,,*7A
$IIDPT,002.4,+0.7,*46
$IIGLL,4612.828,N,00610.244,E,162500,A,A*56
$IIHDG,027,,,01,E*16
$IIMTW,+21.5,C*3E
$IIMWV,277,R,06.8,N,A*1F
$IIMWV,277,T,06.8,N,A*19
$IIRMC,162500,A,4612.828,N,00610.244,E,00.0,000,240614,01,E,A*0E
$IIVHW,,,027,M,00.0,N,,*61
$IIVLW,00861,N,000.0,N*5C
$IIVWR,083,L,06.8,N,,,,*7A
$IIDPT,002.4,+0.7,*46
$IIGLL,4612.828,N,00610.244,E,162501,A,A*57
$IIHDG,027,,,01,E*16
$IIMTW,+21.5,C*3E
$IIMWV,275,R,07.0,N,A*14
$IIMWV,277,T,06.8,N,A*19
$IIRMC,162501,A,4612.828,N,00610.244,E,00.0,000,240614,01,E,A*0F
$IIVHW,,,027,M,00.0,N,,*61
$IIVLW,00861,N,000.0,N*5C
$IIVWR,086,L,07.4,N,,,,*72
$IIDPT,002.4,+0.7,*46
$IIGLL,4612.828,N,00610.244,E,162502,A,A*54
$IIHDG,028,,,01,E*19
$IIMTW,+21.5,C*3E
$IIMWV,274,R,07.4,N,A*11
$IIMWV,275,T,07.0,N,A*12
$IIRMC,162502,A,4612.828,N,00610.244,E,00.0,000,240614,01,E,A*0C
$IIVHW,,,028,M,00.0,N,,*6E
$IIVLW,00861,N,000.0,N*5C
$IIVWR,086,L,07.0,N,,,,*76
$IIDPT,002.4,+0.7,*46
$IIGLL,4612.828,N,00610.244,E,162503,A,A*55
$IIHDG,028,,,01,E*19
$IIMTW,+21.5,C*3E
$IIMWV,274,R,07.0,N,A*15
$IIMWV,274,T,07.4,N,A*17
$IIRMC,162503,A,4612.828,N,00610.244,E,00.0,000,240614,01,E,A*0D
$IIVHW,,,028,M,00.0,N,,*6E
$IIVLW,00861,N,000.0,N*5C
$IIVWR,087,L,07.0,N,,,,*77
$IIDPT,002.4,+0.7,*46
$IIGLL,4612.828,N,00610.244,E,162504,A,A*52
$IIHDG,028,,,01,E*19
$IIMTW,+21.5,C*3E
$IIMWV,273,R,07.0,N,A*12
$IIMWV,274,T,07.0,N,A*13
$IIRMC,162505,A,4612.828,N,00610.244,E,00.0,000,240614,01,E,A*0B
$IIVHW,,,027,M,00.0,N,,*61
$IIVLW,00861,N,000.0,N*5C
$IIVWR,087,L,07.2,N,,,,*75
$IIDPT,002.4,+0.7,*46
$IIGLL,4612.828,N,00610.244,E,162505,A,A*53
$IIHDG,027,,,01,E*16
$IIMTW,+21.5,C*3E
$IIMWV,273,R,07.2,N,A*10
$IIMWV,273,T,07.2,N,A*16
$IIRMC,162506,A,4612.828,N,00610.244,E,00.0,000,240614,01,E,A*08
$IIVHW,,,027,M,00.0,N,,*61
$IIVLW,00861,N,000.0,N*5C
$IIVWR,090,L,07.2,N,,,,*73
$IIDPT,002.4,+0.7,*46
$IIGLL,4612.828,N,00610.244,E,162506,A,A*50
$IIHDG,027,,,01,E*16
$IIMTW,+21.5,C*3E
$IIMWV,272,R,07.2,N,A*11
$IIMWV,270,T,07.2,N,A*15
$IIRMC,162506,A,4612.828,N,00610.244,E,00.0,000,240614,01,E,A*08
$IIVHW,,,027,M,00.0,N,,*61
$IIVLW,00861,N,000.0,N*5C
$IIVWR,088,L,07.2,N,,,,*7A
$IIDPT,002.4,+0.7,*46
$IIGLL,4612.828,N,00610.244,E,162506,A,A*50
$IIHDG,027,,,01,E*16
$IIMTW,+21.5,C*3E
$IIMWV,272,R,06.7,N,A*15
$IIMWV,272,T,07.2,N,A*17
$IIRMC,162508,A,4612.828,N,00610.244,E,00.0,000,240614,01,E,A*06
$IIVHW,,,027,M,00.0,N,,*61
$IIVLW,00861,N,000.0,N*5C
$IIVWR,088,L,06.7,N,,,,*7E
$IIDPT,002.4,+0.7,*46
$IIGLL,4612.828,N,00610.244,E,162508,A,A*5E
$IIHDG,027,,,01,E*16
$IIMTW,+21.5,C*3E
$IIMWV,272,R,07.0,N,A*13
$IIMWV,272,T,06.7,N,A*13
$IIRMC,162508,A,4612.828,N,00610.244,E,00.0,000,240614,01,E,A*06
$IIVHW,,,027,M,00.0,N,,*61
$IIVLW,00861,N,000.0,N*5C
$IIVWR,088,L,07.0,N,,,,*78
$IIDPT,002.4,+0.7,*46
$IIGLL,4612.828,N,00610.244,E,162510,A,A*57
$IIHDG,027,,,01,E*16
$IIMTW,+21.5,C*3E
$IIMWV,272,R,07.0,N,A*13
$IIMWV,272,T,07.0,N,A*15
$IIRMC,162510,A,4612.828,N,00610.244,E,00.0,000,240614,01,E,A*0F
$IIVHW,,,027,M,00.0,N,,*61
$IIVLW,00861,N,000.0,N*5C
$IIVWR,088,L,07.0,N,,,,*78
$IIDPT,002.4,+0.7,*46
$IIGLL,4612.828,N,00610.244,E,162511,A,A*56
$IIHDG,027,,,01,E*16
$IIMTW,+21.5,C*3E
$IIMWV,272,R,07.1,N,A*12
$IIMWV,272,T,07.0,N,A*15
$IIRMC,162511,A,4612.828,N,00610.244,E,00.0,000,240614,01,E,A*0E
$IIVHW,,,027,M,00.0,N,,*61
$IIVLW,00861,N,000.0,N*5C
$IIVWR,089,L,06.8,N,,,,*70
$IIDPT,002.4,+0.7,*46
$IIGLL,4612.828,N,00610.244,E,162512,A,A*55
$IIHDG,027,,,01,E*16
$IIMTW,+21.5,C*3E
$IIMWV,271,R,06.8,N,A*19
$IIMWV,272,T,07.1,N,A*14
$IIRMC,162512,A,4612.828,N,00610.244,E,00.0,000,240614,01,E,A*0D
$IIVHW,,,027,M,00.0,N,,*61
$IIVLW,00861,N,000.0,N*5C
$IIVWR,091,L,06.6,N,,,,*77
$IIDPT,002.4,+0.7,*46
$IIGLL,4612.828,N,00610.244,E,162513,A,A*54
$IIHDG,027,,,01,E*16
$IIMTW,+21.5,C*3E
$IIMWV,269,R,06.6,N,A*1E
$IIMWV,271,T,06.8,N,A*1F
$IIRMC,162513,A,4612.828,N,00610.244,E,00.0,000,240614,01,E,A*0C
$IIVHW,,,027,M,00.0,N,,*61
$IIVLW,00861,N,000.0,N*5C
$IIVWR,093,L,06.7,N,,,,*74
$IIDPT,002.4,+0.7,*46
$IIGLL,4612.828,N,00610.244,E,162514,A,A*53
$IIHDG,027,,,01,E*16
$IIMTW,+21.5,C*3E
$IIMWV,267,R,06.7,N,A*11
$IIMWV,269,T,06.6,N,A*18
$IIRMC,162515,A,4612.828,N,00610.244,E,00.0,000,240614,01,E,A*0A
$IIVHW,,,027,M,00.0,N,,*61
$IIVLW,00861,N,000.0,N*5C
$IIVWR,094,L,06.5,N,,,,*71
$IIDPT,002.4,+0.7,*46
$IIGLL,4612.828,N,00610.244,E,162515,A,A*52
$IIHDG,027,,,01,E*16
$IIMTW,+21.5,C*3E
$IIMWV,266,R,06.5,N,A*12
$IIMWV,266,T,06.5,N,A*14
$IIRMC,162516,A,4612.828,N,00610.244,E,00.0,000,240614,01,E,A*09
$IIVHW,,,027,M,00.0,N,,*61
$IIVLW,00861,N,000.0,N*5C
$IIVWR,097,L,05.7,N,,,,*73
$IIDPT,002.4,+0.7,*46
$IIGLL,4612.828,N,00610.244,E,162516,A,A*51
$IIHDG,027,,,01,E*16
$IIMTW,+21.5,C*3E
$IIMWV,263,R,05.7,N,A*16
$IIMWV,263,T,05.7,N,A*10
$IIRMC,162517,A,4612.828,N,00610.244,E,00.0,000,240614,01,E,A*08
$IIVHW,,,028,M,00.0,N,,*6E
$IIVLW,00861,N,000.0,N*5C
$IIVWR,097,L,05.7,N,,,,*73
$IIDPT,002.4,+0.7,*46
$IIGLL,4612.828,N,00610.244,E,162517,A,A*50
$IIHDG,028,,,01,E*19
$IIMTW,+21.5,C*3E
$IIMWV,267,R,05.8,N,A*1D
$IIMWV,263,T,05.7,N,A*10
$IIRMC,162518,A,4612.828,N,00610.244,E,00.0,000,240614,01,E,A*07
$IIVHW,,,027,M,00.0,N,,*61
$IIVLW,00861,N,000.0,N*5C
$IIVWR,093,L,05.8,N,,,,*78
$IIDPT,002.4,+0.7,*46
$IIGLL,4612.828,N,00610.244,E,162518,A,A*5F
$IIHDG,027,,,01,E*16
$IIMTW,+21.5,C*3E
$IIMWV,265,R,05.8,N,A*1F
$IIMWV,267,T,05.8,N,A*1B
$IIRMC,162519,A,4612.828,N,00610.244,E,00.0,000,240614,01,E,A*06
$IIVHW,,,027,M,00.0,N,,*61
$IIVLW,00861,N,000.0,N*5C
$IIVWR,095,L,05.8,N,,,,*7E
$IIDPT,002.4,+0.7,*46
$IIGLL,4612.828,N,00610.244,E,162520,A,A*54
$IIHDG,029,,,01,E*18
$IIMTW,+21.5,C*3E
$IIMWV,267,R,05.9,N,A*1C
$IIMWV,265,T,05.8,N,A*19
$IIRMC,162520,A,4612.828,N,00610.244,E,00.0,000,240614,01,E,A*0C
$IIVHW,,,029,M,00.0,N,,*6F
$IIVLW,00861,N,000.0,N*5C
$IIVWR,093,L,05.9,N,,,,*79
$IIDPT,002.4,+0.7,*46
$IIGLL,4612.828,N,00610.244,E,162521,A,A*55
$IIHDG,029,,,01,E*18
$IIMTW,+21.5,C*3E
$IIMWV,268,R,05.9,N,A*13
$IIMWV,267,T,05.9,N,A*1A
$IIRMC,162521,A,4612.828,N,00610.244,E,00.0,000,240614,01,E,A*0D
$IIVHW,,,029,M,00.0,N,,*6F
$IIVLW,00861,N,000.0,N*5C
$IIVWR,091,L,06.3,N,,,,*72
$IIDPT,002.4,+0.7,*46
$IIGLL,4612.828,N,00610.244,E,162522,A,A*56
$IIHDG,028,,,01,E*19
$IIMTW,+21.5,C*3E
$IIMWV,269,R,06.3,N,A*1B
$IIMWV,268,T,05.9,N,A*15
$IIRMC,162522,A,4612.828,N,00610.244,E,00.0,000,240614,01,E,A*0E
$IIVHW,,,028,M,00.0,N,,*6E
$IIVLW,00861,N,000.0,N*5C
$IIVWR,092,L,06.2,N,,,,*70
$IIDPT,002.4,+0.7,*46
$IIGLL,4612.828,N,00610.244,E,162523,A,A*57
$IIHDG,028,,,01,E*19
$IIMTW,+21.5,C*3E
$IIMWV,268,R,06.2,N,A*1B
$IIMWV,269,T,06.3,N,A*1D
$IIRMC,162523,A,4612.828,N,00610.244,E,00.0,000,240614,01,E,A*0F
$IIVHW,,,028,M,00.0,N,,*6E
$IIVLW,00861,N,000.0,N*5C
$IIVWR,091,L,06.6,N,,,,*77
$IIDPT,002.4,+0.7,*46
$IIGLL,4612.828,N,00610.244,E,162524,A,A*50
$IIHDG,028,,,01,E*19
$IIMTW,+21.5,C*3E
$IIMWV,269,R,06.6,N,A*1E
$IIMWV,268,T,06.2,N,A*1D
$IIRMC,162525,A,4612.828,N,00610.244,E,00.0,000,240614,01,E,A*09
$IIVHW,,,028,M,00.0,N,,*6E
$IIVLW,00861,N,000.0,N*5C
$IIVWR,089,L,07.0,N,,,,*79
$IIDPT,002.4,+0.7,*46
$IIGLL,4612.828,N,00610.244,E,162525,A,A*51
$IIHDG,028,,,01,E*19
$IIMTW,+21.5,C*3E
$IIMWV,271,R,07.0,N,A*10
$IIMWV,271,T,07.0,N,A*16
$IIRMC,162526,A,4612.828,N,00610.244,E,00.0,000,240614,01,E,A*0A
$IIVHW,,,028,M,00.0,N,,*6E
$IIVLW,00861,N,000.0,N*5C
$IIVWR,089,L,07.1,N,,,,*78
$IIDPT,002.4,+0.7,*46
$IIGLL,4612.828,N,00610.244,E,162526,A,A*52
$IIHDG,028,,,01,E*19
$IIMTW,+21.5,C*3E
$IIMWV,273,R,07.2,N,A*10
$IIMWV,271,T,07.1,N,A*17
$IIRMC,162527,A,4612.828,N,00610.244,E,00.0,000,240614,01,E,A*0B
$IIVHW,,,028,M,00.0,N,,*6E
$IIVLW,00861,N,000.0,N*5C
$IIVWR,087,L,07.2,N,,,,*75
$IIDPT,002.4,+0.7,*46
$IIGLL,4612.828,N,00610.244,E,162527,A,A*53
$IIHDG,028,,,01,E*19
$IIMTW,+21.5,C*3E
$IIMWV,272,R,06.8,N,A*1A
$IIMWV,273,T,07.2,N,A*16
$IIRMC,162528,A,4612.828,N,00610.244,E,00.0,000,240614,01,E,A*04
$IIVHW,,,029,M,00.0,N,,*6F
$IIVLW,00861,N,000.0,N*5C
$IIVWR,088,L,06.8,N,,,,*71
$IIDPT,002.4,+0.7,*46
$IIGLL,4612.828,N,00610.244,E,162528,A,A*5C
$IIHDG,028,,,01,E*19
$IIMTW,+21.5,C*3E
$IIMWV,271,R,07.0,N,A*10
$IIMWV,272,T,06.8,N,A*1C
$IIRMC,162529,A,4612.828,N,00610.244,E,00.0,000,240614,01,E,A*05
$IIVHW,,,028,M,00.0,N,,*6E
$IIVLW,00861,N,000.0,N*5C
$IIVWR,089,L,07.0,N,,,,*79
$IIDPT,002.4,+0.7,*46
$IIGLL,4612.828,N,00610.244,E,162530,A,A*55
$IIHDG,027,,,01,E*16
$IIMTW,+21.5,C*3E
$IIMWV,272,R,07.0,N,A*13
$IIMWV,271,T,07.0,N,A*16
$IIRMC,162530,A,4612.828,N,00610.244,E,00.0,000,240614,01,E,A*0D
$IIVHW,,,027,M,00.0,N,,*61
$IIVLW,00861,N,000.0,N*5C
$IIVWR,088,L,07.0,N,,,,*78
$IIDPT,002.4,+0.7,*46
$IIGLL,4612.828,N,00610.244,E,162531,A,A*54
$IIHDG,028,,,01,E*19
$IIMTW,+21.5,C*3E
$IIMWV,271,R,06.7,N,A*16
$IIMWV,272,T,07.0,N,A*15
$IIRMC,162531,A,4612.828,N,00610.244,E,00.0,000,240614,01,E,A*0C
$IIVHW,,,028,M,00.0,N,,*6E
$IIVLW,00861,N,000.0,N*5C
$IIVWR,088,L,06.8,N,,,,*71
$IIDPT,002.4,+0.7,*46
$IIGLL,4612.828,N,00610.244,E,162532,A,A*57
$IIHDG,028,,,01,E*19
$IIMTW,+21.5,C*3E
$IIMWV,272,R,06.8,N,A*1A
$IIMWV,271,T,06.7,N,A*10
$IIRMC,162532,A,4612.828,N,00610.244,E,00.0,000,240614,01,E,A*0F
$IIVHW,,,028,M,00.0,N,,*6E
$IIVLW,00861,N,000.0,N*5C
$IIVWR,090,L,06.6,N,,,,*76
$IIDPT,002.4,+0.7,*46
$IIGLL,4612.828,N,00610.244,E,162533,A,A*56
$IIHDG,028,,,01,E*19
$IIMTW,+21.5,C*3E
$IIMWV,270,R,06.6,N,A*16
$IIMWV,272,T,06.8,N,A*1C
$IIRMC,162533,A,4612.828,N,00610.244,E,00.0,000,240614,01,E,A*0E
$IIVHW,,,028,M,00.0,N,,*6E
$IIVLW,00861,N,000.0,N*5C
$IIVWR,088,L,06.5,N,,,,*7C
$IIDPT,002.4,+0.7,*46
$IIGLL,4612.828,N,00610.244,E,162534,A,A*51
$IIHDG,028,,,01,E*19
$IIMTW,+21.5,C*3E
$IIMWV,272,R,06.5,N,A*17
$IIMWV,270,T,06.6,N,A*10
$IIRMC,162535,A,4612.828,N,00610.244,E,00.0,000,240614,01,E,A*08
$IIVHW,,,028,M,00.0,N,,*6E
$IIVLW,00861,N,000.0,N*5C
$IIVWR,090,L,06.3,N,,,,*73
$IIDPT,002.4,+0.7,*46
$IIGLL,4612.828,N,00610.244,E,162535,A,A*50
$IIHDG,028,,,01,E*19
$IIMTW,+21.5,C*3E
$IIMWV,270,R,06.3,N,A*13
$IIMWV,270,T,06.3,N,A*15
$IIRMC,162536,A,4612.828,N,00610.244,E,00.0,000,240614,01,E,A*0B
$IIVHW,,,028,M,00.0,N,,*6E
$IIVLW,00861,N,000.0,N*5C
$IIVWR,093,L,06.6,N,,,,*75
$IIDPT,002.4,+0.7,*46
$IIGLL,4612.828,N,00610.244,E,162536,A,A*53
$IIHDG,028,,,01,E*19
$IIMTW,+21.5,C*3E
$IIMWV,265,R,06.3,N,A*17
$IIMWV,267,T,06.6,N,A*16
$IIRMC,162537,A,4612.828,N,00610.244,E,00.0,000,240614,01,E,A*0A
$IIVHW,,,028,M,00.0,N,,*6E
$IIVLW,00861,N,000.0,N*5C
$IIVWR,095,L,06.3,N,,,,*76
$IIDPT,002.4,+0.7,*46
$IIGLL,4612.828,N,00610.244,E,162537,A,A*52
$IIHDG,028,,,01,E*19
$IIMTW,+21.5,C*3E
$IIMWV,260,R,06.1,N,A*10
$IIMWV,262,T,06.2,N,A*17
$IIRMC,162540,A,4612.828,N,00610.244,E,00.0,000,240614,01,E,A*0A
$IIVHW,,,028,M,00.0,N,,*6E
$IIVLW,00861,N,000.0,N*5C
$IIVWR,100,L,06.1,N,,,,*79
$IIDPT,002.5,+0.7,*47
$IIGLL,4612.828,N,00610.244,E,162540,A,A*52
$IIHDG,028,,,01,E*19
$IIMTW,+21.5,C*3E
$IIMWV,260,R,06.1,N,A*10
$IIMWV,260,T,06.1,N,A*16
$IIRMC,162541,A,4612.828,N,00610.244,E,00.0,000,240614,01,E,A*0B
$IIVHW,,,028,M,00.0,N,,*6E
$IIVLW,00861,N,000.0,N*5C
$IIVWR,100,L,06.1,N,,,,*79
$IIDPT,002.5,+0.7,*47
$IIGLL,4612.828,N,00610.244,E,162542,A,A*50
$IIHDG,028,,,01,E*19
$IIMTW,+21.5,C*3E
$IIMWV,259,R,05.4,N,A*1C
$IIMWV,260,T,06.1,N,A*16
$IIRMC,162542,A,4612.828,N,00610.244,E,00.0,000,240614,01,E,A*08
$IIVHW,,,028,M,00.0,N,,*6E
$IIVLW,00861,N,000.0,N*5C
$IIVWR,101,L,05.4,N,,,,*7E
$IIDPT,002.5,+0.7,*47
$IIGLL,4612.828,N,00610.244,E,162543,A,A*51
$IIHDG,028,,,01,E*19
$IIMTW,+21.5,C*3E
$IIMWV,258,R,05.5,N,A*1C
$IIMWV,259,T,05.4,N,A*1A
$IIRMC,162543,A,4612.828,N,00610.244,E,00.0,000,240614,01,E,A*09
$IIVHW,,,028,M,00.0,N,,*6E
$IIVLW,00861,N,000.0,N*5C
$IIVWR,101,L,06.2,N,,,,*7B
$IIDPT,002.5,+0.7,*47
$IIGLL,4612.828,N,00610.244,E,162544,A,A*56
$IIHDG,028,,,01,E*19
$IIMTW,+21.5,C*3E
$IIMWV,259,R,06.2,N,A*19
$IIMWV,258,T,05.5,N,A*1A
$IIRMC,162544,A,4612.828,N,00610.244,E,00.0,000,240614,01,E,A*0E
$IIVHW,,,028,M,00.0,N,,*6E
$IIVLW,00861,N,000.0,N*5C
$IIVWR,101,L,06.1,N,,,,*78
$IIDPT,002.5,+0.7,*47
$IIGLL,4612.828,N,00610.244,E,162545,A,A*57
$IIHDG,028,,,01,E*19
$IIMTW,+21.5,C*3E
$IIMWV,259,R,06.1,N,A*1A
$IIMWV,259,T,06.2,N,A*1F
$IIRMC,162545,A,4612.828,N,00610.244,E,00.0,000,240614,01,E,A*0F
$IIVHW,,,028,M,00.0,N,,*6E
$IIVLW,00861,N,000.0,N*5C
$IIVWR,101,L,06.1,N,,,,*78
$IIDPT,002.5,+0.7,*47
$IIGLL,4612.828,N,00610.244,E,162546,A,A*54
$IIHDG,028,,,01,E*19
$IIMTW,+21.5,C*3E
$IIMWV,259,R,06.1,N,A*1A
$IIMWV,259,T,06.1,N,A*1C
$IIRMC,162547,A,4612.828,N,00610.244,E,00.0,000,240614,01,E,A*0D
$IIVHW,,,028,M,00.0,N,,*6E
$IIVLW,00861,N,000.0,N*5C
$IIVWR,101,L,05.9,N,,,,*73
$IIDPT,002.5,+0.7,*47
$IIGLL,4612.828,N,00610.244,E,162547,A,A*55
$IIHDG,028,,,01,E*19
$IIMTW,+21.5,C*3E
$IIMWV,259,R,05.9,N,A*11
$IIMWV,259,T,05.9,N,A*17
$IIRMC,162548,A,4612.828,N,00610.244,E,00.0,000,240614,01,E,A*02
$IIVHW,,,028,M,00.0,N,,*6E
$IIVLW,00861,N,000.0,N*5C
$IIVWR,101,L,05.8,N,,,,*72
$IIDPT,002.5,+0.7,*47
$IIGLL,4612.828,N,00610.244,E,162548,A,A*5A
$IIHDG,028,,,01,E*19
$IIMTW,+21.5,C*3E
$IIMWV,260,R,05.8,N,A*1A
$IIMWV,259,T,05.8,N,A*16
$IIRMC,162549,A,4612.828,N,00610.244,E,00.0,000,240614,01,E,A*03
$IIVHW,,,028,M,00.0,N,,*6E
$IIVLW,00861,N,000.0,N*5C
$IIVWR,100,L,05.8,N,,,,*73
$IIDPT,002.5,+0.7,*47
$IIGLL,4612.828,N,00610.244,E,162549,A,A*5B
$IIHDG,028,,,01,E*19
$IIMTW,+21.5,C*3E
$IIMWV,262,R,05.4,N,A*14
$IIMWV,260,T,05.8,N,A*1C
$IIRMC,162550,A,4612.828,N,00610.244,E,00.0,000,240614,01,E,A*0B
$IIVHW,,,028,M,00.0,N,,*6E
$IIVLW,00861,N,000.0,N*5C
$IIVWR,098,L,05.4,N,,,,*7F
$IIDPT,002.5,+0.7,*47
$IIGLL,4612.828,N,00610.244,E,162550,A,A*53
$IIHDG,028,,,01,E*19
$IIMTW,+21.5,C*3E
$IIMWV,261,R,05.5,N,A*16
$IIMWV,262,T,05.4,N,A*12
$IIRMC,162551,A,4612.828,N,00610.244,E,00.0,000,240614,01,E,A*0A
$IIVHW,,,028,M,00.0,N,,*6E
$IIVLW,00861,N,000.0,N*5C
$IIVWR,099,L,05.5,N,,,,*7F
$IIDPT,002.5,+0.7,*47
$IIGLL,4612.828,N,00610.244,E,162552,A,A*51
$IIHDG,028,,,01,E*19
$IIMTW,+21.5,C*3E
$IIMWV,260,R,05.7,N,A*15
$IIMWV,261,T,05.5,N,A*10
$IIRMC,162552,A,4612.828,N,00610.244,E,00.0,000,240614,01,E,A*09
$IIVHW,,,028,M,00.0,N,,*6E
$IIVLW,00861,N,000.0,N*5C
$IIVWR,100,L,05.7,N,,,,*7C
$IIDPT,002.5,+0.7,*47
$IIGLL,4612.828,N,00610.244,E,162553,A,A*50
$IIHDG,028,,,01,E*19
$IIMTW,+21.5,C*3E
$IIMWV,262,R,05.8,N,A*18
$IIMWV,260,T,05.7,N,A*13
$IIRMC,162553,A,4612.828,N,00610.244,E,00.0,000,240614,01,E,A*08
$IIVHW,,,028,M,00.0,N,,*6E
$IIVLW,00861,N,000.0,N*5C
$IIVWR,100,L,05.3,N,,,,*78
$IIDPT,002.5,+0.7,*47
$IIGLL,4612.828,N,00610.244,E,162554,A,A*57
$IIHDG,028,,,01,E*19
$IIMTW,+21.5,C*3E
$IIMWV,260,R,05.3,N,A*11
$IIMWV,262,T,05.8,N,A*1E
$IIRMC,162554,A,4612.828,N,00610.244,E,00.0,000,240614,01,E,A*0F
$IIVHW,,,028,M,00.0,N,,*6E
$IIVLW,00861,N,000.0,N*5C
$IIVWR,099,L,05.4,N,,,,*7E
$IIDPT,002.5,+0.7,*47
$IIGLL,4612.828,N,00610.244,E,162555,A,A*56
$IIHDG,028,,,01,E*19
$IIMTW,+21.5,C*3E
$IIMWV,261,R,05.4,N,A*17
$IIMWV,260,T,05.3,N,A*17
$IIRMC,162555,A,4612.828,N,00610.244,E,00.0,000,240614,01,E,A*0E
$IIVHW,,,028,M,00.0,N,,*6E
$IIVLW,00861,N,000.0,N*5C
$IIVWR,098,L,05.2,N,,,,*79
$IIDPT,002.5,+0.7,*47
$IIGLL,4612.828,N,00610.244,E,162556,A,A*55
$IIHDG,028,,,01,E*19
$IIMTW,+21.5,C*3E
$IIMWV,262,R,05.2,N,A*12
$IIMWV,261,T,05.4,N,A*11
$IIRMC,162557,A,4612.828,N,00610.244,E,00.0,000,240614,01,E,A*0C
$IIVHW,,,028,M,00.0,N,,*6E
$IIVLW,00861,N,000.0,N*5C
$IIVWR,098,L,05.4,N,,,,*7F
$IIDPT,002.5,+0.7,*47
$IIGLL,4612.828,N,00610.244,E,162557,A,A*54
$IIHDG,028,,,01,E*19
$IIMTW,+21.5,C*3E
$IIMWV,262,R,05.4,N,A*14
$IIMWV,262,T,05.4,N,A*12
$IIRMC,162558,A,4612.828,N,00610.244,E,00.0,000,240614,01,E,A*03
$IIVHW,,,028,M,00.0,N,,*6E
$IIVLW,00861,N,000.0,N*5C
$IIVWR,098,L,05.2,N,,,,*79
$IIDPT,002.5,+0.7,*47
$IIGLL,4612.828,N,00610.244,E,162558,A,A*5B
$IIHDG,028,,,01,E*19
$IIMTW,+21.5,C*3E
$IIMWV,263,R,05.3,N,A*12
$IIMWV,262,T,05.2,N,A*14
$IIRMC,162559,A,4612.828,N,00610.244,E,00.0,000,240614,01,E,A*02
$IIVHW,,,028,M,00.0,N,,*6E
$IIVLW,00861,N,000.0,N*5C
$IIVWR,097,L,05.3,N,,,,*77
$IIDPT,002.5,+0.7,*47
$IIGLL,4612.828,N,00610.244,E,162559,A,A*5A
$IIHDG,028,,,01,E*19
$IIMTW,+21.5,C*3E
$IIMWV,266,R,05.2,N,A*16
$IIMWV,263,T,05.5,N,A*12
$IIRMC,162600,A,4612.828,N,00610.244,E,00.0,000,240614,01,E,A*0D
$IIVHW,,,028,M,00.0,N,,*6E
$IIVLW,00861,N,000.0,N*5C
$IIVWR,094,L,05.2,N,,,,*75
$IIDPT,002.5,+0.7,*47
$IIGLL,4612.828,N,00610.244,E,162600,A,A*55
$IIHDG,028,,,01,E*19
$IIMTW,+21.5,C*3E
$IIMWV,266,R,05.4,N,A*10
$IIMWV,266,T,05.2,N,A*10
$IIRMC,162602,A,4612.828,N,00610.244,E,00.0,000,240614,01,E,A*0F
$IIVHW,,,028,M,00.0,N,,*6E
$IIVLW,00861,N,000.0,N*5C
$IIVWR,094,L,05.4,N,,,,*73
$IIDPT,002.5,+0.7,*47
$IIGLL,4612.828,N,00610.244,E,162603,A,A*56
$IIHDG,027,,,01,E*16
$IIMTW,+21.5,C*3E
$IIMWV,265,R,05.2,N,A*15
$IIMWV,266,T,05.4,N,A*16
$IIRMC,162603,A,4612.828,N,00610.244,E,00.0,000,240614,01,E,A*0E
$IIVHW,,,027,M,00.0,N,,*61
$IIVLW,00861,N,000.0,N*5C
$IIVWR,095,L,05.2,N,,,,*74
$IIDPT,002.5,+0.7,*47
$IIGLL,4612.828,N,00610.244,E,162604,A,A*51
$IIHDG,028,,,01,E*19
$IIMTW,+21.5,C*3E
$IIMWV,263,R,04.9,N,A*19
$IIMWV,265,T,05.2,N,A*13
$IIRMC,162604,A,4612.828,N,00610.244,E,00.0,000,240614,01,E,A*09
$IIVHW,,,028,M,00.0,N,,*6E
$IIVLW,00861,N,000.0,N*5C
$IIVWR,096,L,04.8,N,,,,*7C
$IIDPT,002.5,+0.7,*47
$IIGLL,4612.828,N,00610.244,E,162605,A,A*50
$IIHDG,028,,,01,E*19
$IIMTW,+21.5,C*3E
$IIMWV,264,R,04.8,N,A*1F
$IIMWV,263,T,04.9,N,A*1F
$IIRMC,162605,A,4612.828,N,00610.244,E,00.0,000,240614,01,E,A*08
$IIVHW,,,028,M,00.0,N,,*6E
$IIVLW,00861,N,000.0,N*5C
$IIVWR,094,L,04.6,N,,,,*70
$IIDPT,002.5,+0.7,*47
$IIGLL,4612.828,N,00610.244,E,162606,A,A*53
$IIHDG,028,,,01,E*19
$IIMTW,+21.5,C*3E
$IIMWV,266,R,04.6,N,A*13
$IIMWV,264,T,04.8,N,A*19
$IIRMC,162606,A,4612.828,N,00610.244,E,00.0,000,240614,01,E,A*0B
$IIVHW,,,028,M,00.0,N,,*6E
$IIVLW,00861,N,000.0,N*5C
$IIVWR,094,L,04.6,N,,,,*70
$IIDPT,002.5,+0.7,*47
$IIGLL,4612.828,N,00610.244,E,162607,A,A*52
$IIHDG,028,,,01,E*19
$IIMTW,+21.5,C*3E
$IIMWV,266,R,04.6,N,A*13
$IIMWV,266,T,04.6,N,A*15
$IIRMC,162608,A,4612.828,N,00610.244,E,00.0,000,240614,01,E,A*05
$IIVHW,,,028,M,00.0,N,,*6E
$IIVLW,00861,N,000.0,N*5C
$IIVWR,095,L,04.2,N,,,,*75
$IIDPT,002.5,+0.7,*47
$IIGLL,4612.828,N,00610.244,E,162608,A,A*5D
$IIHDG,028,,,01,E*19
$IIMTW,+21.5,C*3E
$IIMWV,265,R,04.2,N,A*14
$IIMWV,265,T,04.2,N,A*12
$IIRMC,162609,A,4612.828,N,00610.244,E,00.0,000,240614,01,E,A*04
$IIVHW,,,028,M,00.0,N,,*6E
$IIVLW,00861,N,000.0,N*5C
$IIVWR,095,L,04.2,N,,,,*75
$IIDPT,002.5,+0.7,*47
$IIGLL,4612.828,N,00610.244,E,162609,A,A*5C
$IIHDG,028,,,01,E*19
$IIMTW,+21.5,C*3E
$IIMWV,265,R,04.6,N,A*10
$IIMWV,265,T,04.2,N,A*12
$IIRMC,162610,A,4612.828,N,00610.244,E,00.0,000,240614,01,E,A*0C
$IIVHW,,,028,M,00.0,N,,*6E
$IIVLW,00861,N,000.0,N*5C
$IIVWR,095,L,04.6,N,,,,*71
$IIDPT,002.5,+0.7,*47
$IIGLL,4612.828,N,00610.244,E,162610,A,A*54
$IIHDG,028,,,01,E*19
$IIMTW,+21.5,C*3E
$IIMWV,270,R,05.2,N,A*11
$IIMWV,269,T,04.9,N,A*15
$IIRMC,162613,A,4612.828,N,00610.244,E,00.0,000,240614,01,E,A*0F
$IIVHW,,,029,M,00.0,N,,*6F
$IIVLW,00861,N,000.0,N*5C
$IIVWR,090,L,05.2,N,,,,*71
$IIDPT,002.5,+0.7,*47
$IIGLL,4612.828,N,00610.244,E,162613,A,A*57
$IIHDG,028,,,01,E*19
$IIMTW,+21.5,C*3E
$IIMWV,272,R,05.4,N,A*15
$IIMWV,270,T,05.2,N,A*17
$IIRMC,162614,A,4612.828,N,00610.244,E,00.0,000,240614,01,E,A*08
$IIVHW,,,028,M,00.0,N,,*6E
$IIVLW,00861,N,000.0,N*5C
$IIVWR,088,L,05.4,N,,,,*7E
$IIDPT,002.5,+0.7,*47
$IIGLL,4612.828,N,00610.244,E,162615,A,A*51
$IIHDG,028,,,01,E*19
$IIMTW,+21.5,C*3E
$IIMWV,271,R,05.2,N,A*10
$IIMWV,272,T,05.4,N,A*13
$IIRMC,162615,A,4612.828,N,00610.244,E,00.0,000,240614,01,E,A*09
$IIVHW,,,028,M,00.0,N,,*6E
$IIVLW,00861,N,000.0,N*5C
$IIVWR,089,L,05.2,N,,,,*79
$IIDPT,002.5,+0.7,*47
$IIGLL,4612.828,N,00610.244,E,162616,A,A*52
$IIHDG,028,,,01,E*19
$IIMTW,+21.5,C*3E
$IIMWV,272,R,05.0,N,A*11
$IIMWV,271,T,05.2,N,A*16
$IIRMC,162616,A,4612.828,N,00610.244,E,00.0,000,240614,01,E,A*0A
$IIVHW,,,028,M,00.0,N,,*6E
$IIVLW,00861,N,000.0,N*5C
$IIVWR,090,L,04.9,N,,,,*7B
$IIDPT,002.5,+0.7,*47
$IIGLL,4612.828,N,00610.244,E,162617,A,A*53
$IIHDG,028,,,01,E*19
$IIMTW,+21.5,C*3E
$IIMWV,270,R,04.9,N,A*1B
$IIMWV,272,T,05.0,N,A*17
$IIRMC,162617,A,4612.828,N,00610.244,E,00.0,000,240614,01,E,A*0B
$IIVHW,,,028,M,00.0,N,,*6E
$IIVLW,00861,N,000.0,N*5C
$IIVWR,088,L,04.8,N,,,,*73
$IIDPT,002.5,+0.7,*47
$IIGLL,4612.828,N,00610.244,E,162618,A,A*5C
$IIHDG,028,,,01,E*19
$IIMTW,+21.5,C*3E
$IIMWV,272,R,04.8,N,A*18
$IIMWV,270,T,04.9,N,A*1D
$IIRMC,162618,A,4612.828,N,00610.244,E,00.0,000,240614,01,E,A*04
$IIVHW,,,028,M,00.0,N,,*6E
$IIVLW,00861,N,000.0,N*5C
$IIVWR,090,L,04.6,N,,,,*74
$IIDPT,002.5,+0.7,*47
$IIGLL,4612.828,N,00610.244,E,162619,A,A*5D
$IIHDG,028,,,01,E*19
$IIMTW,+21.5,C*3E
$IIMWV,270,R,04.6,N,A*14
$IIMWV,272,T,04.8,N,A*1E
$IIRMC,162620,A,4612.828,N,00610.244,E,00.0,000,240614,01,E,A*0F
$IIVHW,,,028,M,00.0,N,,*6E
$IIVLW,00861,N,000.0,N*5C
$IIVWR,088,L,04.5,N,,,,*7E
$IIDPT,002.5,+0.7,*47
$IIGLL,4612.828,N,00610.244,E,162620,A,A*57
$IIHDG,028,,,01,E*19
$IIMTW,+21.5,C*3E
$IIMWV,272,R,04.5,N,A*15
$IIMWV,272,T,04.5,N,A*13
$IIRMC,162621,A,4612.828,N,00610.244,E,00.0,000,240614,01,E,A*0E
$IIVHW,,,029,M,00.0,N,,*6F
$IIVLW,00861,N,000.0,N*5C
$IIVWR,087,L,04.5,N,,,,*71
$IIDPT,002.5,+0.7,*47
$IIGLL,4612.828,N,00610.244,E,162621,A,A*56
$IIHDG,029,,,01,E*18
$IIMTW,+21.5,C*3E
$IIMWV,274,R,04.9,N,A*1F
$IIMWV,273,T,04.5,N,A*12
$IIRMC,162622,A,4612.828,N,00610.244,E,00.0,000,240614,01,E,A*0D
$IIVHW,,,028,M,00.0,N,,*6E
$IIVLW,00861,N,000.0,N*5C
$IIVWR,086,L,04.9,N,,,,*7C
$IIDPT,002.5,+0.7,*47
$IIGLL,4612.828,N,00610.244,E,162622,A,A*55
$IIHDG,028,,,01,E*19
$IIMTW,+21.5,C*3E
$IIMWV,275,R,05.2,N,A*14
$IIMWV,274,T,04.9,N,A*19
$IIRMC,162623,A,4612.828,N,00610.244,E,00.0,000,240614,01,E,A*0C
$IIVHW,,,028,M,00.0,N,,*6E
$IIVLW,00861,N,000.0,N*5C
$IIVWR,085,L,05.2,N,,,,*75
$IIDPT,002.5,+0.7,*47
$IIGLL,4612.828,N,00610.244,E,162623,A,A*54
$IIHDG,028,,,01,E*19
$IIMTW,+21.5,C*3E
$IIMWV,277,R,05.3,N,A*17
$IIMWV,275,T,05.2,N,A*12
$IIRMC,162624,A,4612.828,N,00610.244,E,00.0,000,240614,01,E,A*0B
$IIVHW,,,028,M,00.0,N,,*6E
$IIVLW,00861,N,000.0,N*5C
$IIVWR,083,L,05.3,N,,,,*72
$IIDPT,002.5,+0.7,*47
$IIGLL,4612.828,N,00610.244,E,162625,A,A*52
$IIHDG,028,,,01,E*19
$IIMTW,+21.5,C*3E
$IIMWV,277,R,05.4,N,A*10
$IIMWV,277,T,05.3,N,A*11
$IIRMC,162625,A,4612.828,N,00610.244,E,00.0,000,240614,01,E,A*0A
$IIVHW,,,028,M,00.0,N,,*6E
$IIVLW,00861,N,000.0,N*5C
$IIVWR,083,L,05.4,N,,,,*75
$IIDPT,002.5,+0.7,*47
$IIGLL,4612.828,N,00610.244,E,162626,A,A*51
$IIHDG,028,,,01,E*19
$IIMTW,+21.5,C*3E
$IIMWV,275,R,05.3,N,A*15
$IIMWV,277,T,05.4,N,A*16
$IIRMC,162626,A,4612.828,N,00610.244,E,00.0,000,240614,01,E,A*09
$IIVHW,,,028,M,00.0,N,,*6E
$IIVLW,00861,N,000.0,N*5C
$IIVWR,086,L,05.4,N,,,,*70
$IIDPT,002.5,+0.7,*47
$IIGLL,4612.828,N,00610.244,E,162627,A,A*50
$IIHDG,028,,,01,E*19
$IIMTW,+21.5,C*3E
$IIMWV,274,R,05.4,N,A*13
$IIMWV,275,T,05.3,N,A*13
$IIRMC,162627,A,4612.828,N,00610.244,E,00.0,000,240614,01,E,A*08
$IIVHW,,,028,M,00.0,N,,*6E
$IIVLW,00861,N,000.0,N*5C
$IIVWR,085,L,05.2,N,,,,*75
$IIDPT,002.5,+0.7,*47
$IIGLL,4612.828,N,00610.244,E,162628,A,A*5F
$IIHDG,028,,,01,E*19
$IIMTW,+21.5,C*3E
$IIMWV,275,R,05.2,N,A*14
$IIMWV,274,T,05.4,N,A*15
$IIRMC,162628,A,4612.828,N,00610.244,E,00.0,000,240614,01,E,A*07
$IIVHW,,,028,M,00.0,N,,*6E
$IIVLW,00861,N,000.0,N*5C
$IIVWR,086,L,05.0,N,,,,*74
$IIDPT,002.5,+0.7,*47
$IIGLL,4612.828,N,00610.244,E,162629,A,A*5E
$IIHDG,028,,,01,E*19
$IIMTW,+21.5,C*3E
$IIMWV,274,R,05.0,N,A*17
$IIMWV,275,T,05.2,N,A*12
$IIRMC,162630,A,4612.828,N,00610.244,E,00.0,000,240614,01,E,A*0E
$IIVHW,,,027,M,00.0,N,,*61
$IIVLW,00861,N,000.0,N*5C
$IIVWR,086,L,05.2,N,,,,*76
$IIDPT,002.5,+0.7,*47
$IIGLL,4612.828,N,00610.244,E,162630,A,A*56
$IIHDG,027,,,01,E*16
$IIMTW,+21.5,C*3E
$IIMWV,274,R,05.2,N,A*15
$IIMWV,274,T,05.2,N,A*13
$IIRMC,162631,A,4612.828,N,00610.244,E,00.0,000,240614,01,E,A*0F
$IIVHW,,,028,M,00.0,N,,*6E
$IIVLW,00861,N,000.0,N*5C
$IIVWR,086,L,05.0,N,,,,*74
$IIDPT,002.5,+0.7,*47
$IIGLL,4612.828,N,00610.244,E,162631,A,A*57
$IIHDG,028,,,01,E*19
$IIMTW,+21.5,C*3E
$IIMWV,274,R,04.9,N,A*1F
$IIMWV,274,T,05.0,N,A*11
$IIRMC,162632,A,4612.828,N,00610.244,E,00.0,000,240614,01,E,A*0C
$IIVHW,,,028,M,00.0,N,,*6E
$IIVLW,00861,N,000.0,N*5C
$IIVWR,086,L,04.9,N,,,,*7C
$IIDPT,002.5,+0.7,*47
$IIGLL,4612.828,N,00610.244,E,162632,A,A*54
$IIHDG,028,,,01,E*19
$IIMTW,+21.5,C*3E
$IIMWV,273,R,04.8,N,A*19
$IIMWV,274,T,04.9,N,A*19
$IIRMC,162633,A,4612.828,N,00610.244,E,00.0,000,240614,01,E,A*0D
$IIVHW,,,028,M,00.0,N,,*6E
$IIVLW,00861,N,000.0,N*5C
$IIVWR,087,L,04.8,N,,,,*7C
$IIDPT,002.4,+0.7,*46
$IIGLL,4612.828,N,00610.244,E,162633,A,A*55
$IIHDG,028,,,01,E*19
$IIMTW,+21.5,C*3E
$IIMWV,274,R,04.8,N,A*1E
$IIMWV,273,T,04.8,N,A*1F
$IIRMC,162634,A,4612.828,N,00610.244,E,00.0,000,240614,01,E,A*0A
$IIVHW,,,028,M,00.0,N,,*6E
$IIVLW,00861,N,000.0,N*5C
$IIVWR,086,L,04.8,N,,,,*7D
$IIDPT,002.4,+0.7,*46
$IIGLL,4612.828,N,00610.244,E,162635,A,A*53
$IIHDG,028,,,01,E*19
$IIMTW,+21.5,C*3E
$IIMWV,277,R,04.6,N,A*13
$IIMWV,274,T,04.8,N,A*18
$IIRMC,162635,A,4612.828,N,00610.244,E,00.0,000,240614,01,E,A*0B
$IIVHW,,,028,M,00.0,N,,*6E
$IIVLW,00861,N,000.0,N*5C
$IIVWR,083,L,04.6,N,,,,*76
$IIDPT,002.4,+0.7,*46
$IIGLL,4612.828,N,00610.244,E,162636,A,A*50
$IIHDG,028,,,01,E*19
$IIMTW,+21.5,C*3E
$IIMWV,277,R,04.5,N,A*10
$IIMWV,277,T,04.6,N,A*15
$IIRMC,162636,A,4612.828,N,00610.244,E,00.0,000,240614,01,E,A*08
$IIVHW,,,028,M,00.0,N,,*6E
$IIVLW,00861,N,000.0,N*5C
$IIVWR,082,L,04.5,N,,,,*74
$IIDPT,002.4,+0.7,*46
$IIGLL,4612.828,N,00610.244,E,162637,A,A*51
$IIHDG,028,,,01,E*19
$IIMTW,+21.5,C*3E
$IIMWV,278,R,04.5,N,A*1F
$IIMWV,277,T,04.5,N,A*16
$IIRMC,162637,A,4612.828,N,00610.244,E,00.0,000,240614,01,E,A*09
$IIVHW,,,028,M,00.0,N,,*6E
$IIVLW,00861,N,000.0,N*5C
$IIVWR,084,L,04.5,N,,,,*72
$IIDPT,002.4,+0.7,*46
$IIGLL,4612.828,N,00610.244,E,162638,A,A*5E
$IIHDG,028,,,01,E*19
$IIMTW,+21.5,C*3E
$IIMWV,276,R,04.5,N,A*11
$IIMWV,278,T,04.5,N,A*19
$IIRMC,162638,A,4612.828,N,00610.244,E,00.0,000,240614,01,E,A*06
$IIVHW,,,028,M,00.0,N,,*6E
$IIVLW,00861,N,000.0,N*5C
$IIVWR,082,L,04.4,N,,,,*75
$IIDPT,002.4,+0.7,*46
$IIGLL,4612.828,N,00610.244,E,162639,A,A*5F
$IIHDG,028,,,01,E*19
$IIMTW,+21.5,C*3E
$IIMWV,278,R,04.4,N,A*1E
$IIMWV,276,T,04.5,N,A*17
$IIRMC,162640,A,4612.828,N,00610.244,E,00.0,000,240614,01,E,A*09
$IIVHW,,,028,M,00.0,N,,*6E
$IIVLW,00861,N,000.0,N*5C
$IIVWR,081,L,04.4,N,,,,*76
$IIDPT,002.4,+0.7,*46
$IIGLL,4612.828,N,00610.244,E,162640,A,A*51
$IIHDG,028,,,01,E*19
$IIMTW,+21.5,C*3E
$IIMWV,279,R,04.4,N,A*1F
$IIMWV,279,T,04.4,N,A*19
$IIRMC,162641,A,4612.828,N,00610.244,E,00.0,000,240614,01,E,A*08
$IIVHW,,,028,M,00.0,N,,*6E
$IIVLW,00861,N,000.0,N*5C
$IIVWR,079,L,04.4,N,,,,*71
$IIDPT,002.4,+0.7,*46
$IIGLL,4612.828,N,00610.244,E,162641,A,A*50
$IIHDG,028,,,01,E*19
$IIMTW,+21.5,C*3E
$IIMWV,279,R,04.4,N,A*1F
$IIMWV,281,T,04.4,N,A*1E
$IIRMC,162642,A,4612.828,N,00610.244,E,00.0,000,240614,01,E,A*0B
$IIVHW,,,029,M,00.0,N,,*6F
$IIVLW,00861,N,000.0,N*5C
$IIVWR,081,L,04.4,N,,,,*76
$IIDPT,002.4,+0.7,*46
$IIGLL,4612.828,N,00610.244,E,162642,A,A*53
$IIHDG,029,,,01,E*18
$IIMTW,+21.5,C*3E
$IIMWV,278,R,04.4,N,A*1E
$IIMWV,279,T,04.4,N,A*19
$IIRMC,162643,A,4612.828,N,00610.244,E,00.0,000,240614,01,E,A*0A
$IIVHW,,,028,M,00.0,N,,*6E
$IIVLW,00861,N,000.0,N*5C
$IIVWR,082,L,04.4,N,,,,*75
$IIDPT,002.4,+0.7,*46
$IIGLL,4612.828,N,00610.244,E,162643,A,A*52
$IIHDG,029,,,01,E*18
$IIMTW,+21.5,C*3E
$IIMWV,279,R,04.1,N,A*1A
$IIMWV,278,T,04.4,N,A*18
$IIRMC,162644,A,4612.828,N,00610.244,E,00.0,000,240614,01,E,A*0D
$IIVHW,,,029,M,00.0,N,,*6F
$IIVLW,00861,N,000.0,N*5C
$IIVWR,081,L,04.1,N,,,,*73
$IIDPT,002.4,+0.7,*46
$IIGLL,4612.828,N,00610.244,E,162645,A,A*54
$IIHDG,028,,,01,E*19
$IIMTW,+21.5,C*3E
$IIMWV,273,R,04.1,N,A*10
$IIMWV,279,T,04.1,N,A*1C
$IIRMC,162645,A,4612.828,N,00610.244,E,00.0,000,240614,01,E,A*0C
$IIVHW,,,028,M,00.0,N,,*6E
$IIVLW,00861,N,000.0,N*5C
$IIVWR,087,L,04.1,N,,,,*75
$IIDPT,002.4,+0.7,*46
$IIGLL,4612.828,N,00610.244,E,162646,A,A*57
$IIHDG,029,,,01,E*18
$IIMTW,+21.5,C*3E
$IIMWV,277,R,04.2,N,A*17
$IIMWV,273,T,04.1,N,A*16
$IIRMC,162646,A,4612.828,N,00610.244,E,00.0,000,240614,01,E,A*0F
$IIVHW,,,029,M,00.0,N,,*6F
$IIVLW,00861,N,000.0,N*5C
$IIVWR,086,L,04.0,N,,,,*75
$IIDPT,002.4,+0.7,*46
$IIGLL,4612.828,N,00610.244,E,162647,A,A*56
$IIHDG,028,,,01,E*19
$IIMTW,+21.5,C*3E
$IIMWV,274,R,04.0,N,A*16
$IIMWV,277,T,04.2,N,A*11
$IIRMC,162647,A,4612.828,N,00610.244,E,00.0,000,240614,01,E,A*0E
$IIVHW,,,028,M,00.0,N,,*6E
$IIVLW,00861,N,000.0,N*5C
$IIVWR,085,L,04.0,N,,,,*76
$IIDPT,002.4,+0.7,*46
$IIGLL,4612.828,N,00610.244,E,162648,A,A*59
$IIHDG,028,,,01,E*19
$IIMTW,+21.5,C*3E
$IIMWV,275,R,04.0,N,A*17
$IIMWV,274,T,04.0,N,A*10
$IIRMC,162648,A,4612.828,N,00610.244,E,00.0,000,240614,01,E,A*01
$IIVHW,,,028,M,00.0,N,,*6E
$IIVLW,00861,N,000.0,N*5C
$IIVWR,087,L,04.1,N,,,,*75
$IIDPT,002.4,+0.7,*46
$IIGLL,4612.828,N,00610.244,E,162649,A,A*58
$IIHDG,028,,,01,E*19
$IIMTW,+21.5,C*3E
$IIMWV,273,R,04.1,N,A*10
$IIMWV,275,T,04.0,N,A*11
$IIRMC,162650,A,4612.828,N,00610.244,E,00.0,000,240614,01,E,A*08
$IIVHW,,,028,M,00.0,N,,*6E
$IIVLW,00861,N,000.0,N*5C
$IIVWR,084,L,04.0,N,,,,*77
$IIDPT,002.4,+0.7,*46
$IIGLL,4612.828,N,00610.244,E,162650,A,A*50
$IIHDG,028,,,01,E*19
$IIMTW,+21.5,C*3E
$IIMWV,276,R,04.0,N,A*14
$IIMWV,276,T,04.0,N,A*12
$IIRMC,162651,A,4612.828,N,00610.244,E,00.0,000,240614,01,E,A*09
$IIVHW,,,028,M,00.0,N,,*6E
$IIVLW,00861,N,000.0,N*5C
$IIVWR,083,L,04.0,N,,,,*70
$IIDPT,002.4,+0.7,*46
$IIGLL,4612.828,N,00610.244,E,162651,A,A*51
$IIHDG,028,,,01,E*19
$IIMTW,+21.5,C*3E
$IIMWV,275,R,03.9,N,A*19
$IIMWV,277,T,04.0,N,A*13
$IIRMC,162652,A,4612.828,N,00610.244,E,00.0,000,240614,01,E,A*0A
$IIVHW,,,029,M,00.0,N,,*6F
$IIVLW,00861,N,000.0,N*5C
$IIVWR,085,L,03.9,N,,,,*78
$IIDPT,002.4,+0.7,*46
$IIGLL,4612.828,N,00610.244,E,162652,A,A*52
$IIHDG,029,,,01,E*18
$IIMTW,+21.5,C*3E
$IIMWV,276,R,03.9,N,A*1A
$IIMWV,275,T,03.9,N,A*1F
$IIRMC,162653,A,4612.828,N,00610.244,E,00.0,000,240614,01,E,A*0B
$IIVHW,,,028,M,00.0,N,,*6E
$IIVLW,00861,N,000.0,N*5C
$IIVWR,084,L,03.9,N,,,,*79
$IIDPT,002.4,+0.7,*46
$IIGLL,4612.828,N,00610.244,E,162653,A,A*53
$IIHDG,028,,,01,E*19
$IIMTW,+21.5,C*3E
$IIMWV,274,R,03.7,N,A*16
$IIMWV,276,T,03.9,N,A*1C
$IIRMC,162654,A,4612.828,N,00610.244,E,00.0,000,240614,01,E,A*0C
$IIVHW,,,028,M,00.0,N,,*6E
$IIVLW,00861,N,000.0,N*5C
$IIVWR,086,L,03.7,N,,,,*75
$IIDPT,002.4,+0.7,*46
$IIGLL,4612.828,N,00610.244,E,162655,A,A*55
$IIHDG,028,,,01,E*19
$IIMTW,+21.5,C*3E
$IIMWV,275,R,03.9,N,A*19
$IIMWV,274,T,03.7,N,A*10
$IIRMC,162655,A,4612.828,N,00610.244,E,00.0,000,240614,01,E,A*0D
$IIVHW,,,028,M,00.0,N,,*6E
$IIVLW,00861,N,000.0,N*5C
$IIVWR,085,L,03.9,N,,,,*78
$IIDPT,002.4,+0.7,*46
$IIGLL,4612.828,N,00610.244,E,162655,A,A*55
$IIHDG,028,,,01,E*19
$IIMTW,+21.5,C*3E
$IIMWV,275,R,03.7,N,A*17
$IIMWV,275,T,03.9,N,A*1F
$IIRMC,162655,A,4612.828,N,00610.244,E,00.0,000,240614,01,E,A*0D
$IIVHW,,,028,M,00.0,N,,*6E
$IIVLW,00861,N,000.0,N*5C
$IIVWR,083,L,03.9,N,,,,*7E
$IIDPT,002.4,+0.7,*46
$IIGLL,4612.828,N,00610.244,E,162655,A,A*55
$IIHDG,028,,,01,E*19
$IIMTW,+21.5,C*3E
$IIMWV,277,R,03.9,N,A*1B
$IIMWV,275,T,03.7,N,A*11
$IIRMC,162655,A,4612.828,N,00610.244,E,00.0,000,240614,01,E,A*0D
$IIVHW,,,028,M,00.0,N,,*6E
$IIVLW,00861,N,000.0,N*5C
$IIVWR,083,L,03.7,N,,,,*70
$IIDPT,002.4,+0.7,*46
$IIGLL,4612.828,N,00610.244,E,162658,A,A*58
$IIHDG,028,,,01,E*19
$IIMTW,+21.5,C*3E
$IIMWV,277,R,03.7,N,A*15
$IIMWV,277,T,03.9,N,A*1D
$IIRMC,162658,A,4612.828,N,00610.244,E,00.0,000,240614,01,E,A*00
$IIVHW,,,028,M,00.0,N,,*6E
$IIVLW,00861,N,000.0,N*5C
$IIVWR,082,L,03.7,N,,,,*71
$IIDPT,002.4,+0.7,*46
$IIGLL,4612.828,N,00610.244,E,162659,A,A*59
$IIHDG,028,,,01,E*19
$IIMTW,+21.5,C*3E
$IIMWV,278,R,03.7,N,A*1A
$IIMWV,277,T,03.7,N,A*13
$IIRMC,162700,A,4612.828,N,00610.244,E,00.0,000,240614,01,E,A*0C
$IIVHW,,,028,M,00.0,N,,*6E
$IIVLW,00861,N,000.0,N*5C
$IIVWR,081,L,03.9,N,,,,*7C
$IIDPT,002.4,+0.7,*46
$IIGLL,4612.828,N,00610.244,E,162700,A,A*54
$IIHDG,028,,,01,E*19
$IIMTW,+21.5,C*3E
$IIMWV,279,R,03.9,N,A*15
$IIMWV,279,T,03.9,N,A*13
$IIRMC,162701,A,4612.828,N,00610.244,E,00.0,000,240614,01,E,A*0D
$IIVHW,,,028,M,00.0,N,,*6E
$IIVLW,00861,N,000.0,N*5C
$IIVWR,079,L,04.0,N,,,,*75
$IIDPT,002.4,+0.7,*46
$IIGLL,4612.828,N,00610.244,E,162701,A,A*55
$IIHDG,028,,,01,E*19
$IIMTW,+21.5,C*3E
$IIMWV,280,R,04.1,N,A*1C
$IIMWV,281,T,04.0,N,A*1A
$IIRMC,162702,A,4612.828,N,00610.244,E,00.0,000,240614,01,E,A*0E
$IIVHW,,,028,M,00.0,N,,*6E
$IIVLW,00861,N,000.0,N*5C
$IIVWR,080,L,04.1,N,,,,*72
$IIDPT,002.4,+0.7,*46
$IIGLL,4612.828,N,00610.244,E,162702,A,A*56
$IIHDG,028,,,01,E*19
$IIMTW,+21.5,C*3E
$IIMWV,281,R,04.2,N,A*1E
$IIMWV,280,T,04.1,N,A*1A
$IIRMC,162703,A,4612.828,N,00610.244,E,00.0,000,240614,01,E,A*0F
$IIVHW,,,028,M,00.0,N,,*6E
$IIVLW,00861,N,000.0,N*5C
$IIVWR,079,L,04.2,N,,,,*77
$IIDPT,002.4,+0.7,*46
$IIGLL,4612.828,N,00610.244,E,162703,A,A*57
$IIHDG,028,,,01,E*19
$IIMTW,+21.5,C*3E
$IIMWV,282,R,04.2,N,A*1D
$IIMWV,281,T,04.2,N,A*18
$IIRMC,162704,A,4612.828,N,00610.244,E,00.0,000,240614,01,E,A*08
$IIVHW,,,028,M,00.0,N,,*6E
$IIVLW,00861,N,000.0,N*5C
$IIVWR,078,L,04.2,N,,,,*76
$IIDPT,002.4,+0.7,*46
$IIGLL,4612.828,N,00610.244,E,162705,A,A*51
$IIHDG,028,,,01,E*19
$IIMTW,+21.5,C*3E
$IIMWV,281,R,04.1,N,A*1D
$IIMWV,282,T,04.2,N,A*1B
$IIRMC,162705,A,4612.828,N,00610.244,E,00.0,000,240614,01,E,A*09
$IIVHW,,,028,M,00.0,N,,*6E
$IIVLW,00861,N,000.0,N*5C
$IIVWR,079,L,04.1,N,,,,*74
$IIDPT,002.4,+0.7,*46
$IIGLL,4612.828,N,00610.244,E,162706,A,A*52
$IIHDG,028,,,01,E*19
$IIMTW,+21.5,C*3E
$IIMWV,280,R,04.1,N,A*1C
$IIMWV,281,T,04.1,N,A*1B
$IIRMC,162706,A,4612.828,N,00610.244,E,00.0,000,240614,01,E,A*0A
$IIVHW,,,028,M,00.0,N,,*6E
$IIVLW,00861,N,000.0,N*5C
$IIVWR,081,L,04.1,N,,,,*73
$IIDPT,002.4,+0.7,*46
$IIGLL,4612.828,N,00610.244,E,162707,A,A*53
$IIHDG,028,,,01,E*19
$IIMTW,+21.5,C*3E
$IIMWV,279,R,04.1,N,A*1A
$IIMWV,280,T,04.1,N,A*1A
$IIRMC,162707,A,4612.828,N,00610.244,E,00.0,000,240614,01,E,A*0B
$IIVHW,,,028,M,00.0,N,,*6E
$IIVLW,00861,N,000.0,N*5C
$IIVWR,081,L,04.2,N,,,,*70
$IIDPT,002.4,+0.7,*46
$IIGLL,4612.828,N,00610.244,E,162708,A,A*5C
$IIHDG,028,,,01,E*19
$IIMTW,+21.5,C*3E
$IIMWV,279,R,04.2,N,A*19
$IIMWV,279,T,04.1,N,A*1C
$IIRMC,162708,A,4612.828,N,00610.244,E,00.0,000,240614,01,E,A*04
$IIVHW,,,028,M,00.0,N,,*6E
$IIVLW,00861,N,000.0,N*5C
$IIVWR,079,L,04.0,N,,,,*75
$IIDPT,002.4,+0.7,*46
$IIGLL,4612.828,N,00610.244,E,162709,A,A*5D
$IIHDG,028,,,01,E*19
$IIMTW,+21.5,C*3E
$IIMWV,281,R,04.0,N,A*1C
$IIMWV,279,T,04.2,N,A*1F
$IIRMC,162710,A,4612.828,N,00610.244,E,00.0,000,240614,01,E,A*0D
$IIVHW,,,029,M,00.0,N,,*6F
$IIVLW,00861,N,000.0,N*5C
$IIVWR,081,L,04.0,N,,,,*72
$IIDPT,002.4,+0.7,*46
$IIGLL,4612.828,N,00610.244,E,162710,A,A*55
$IIHDG,029,,,01,E*18
$IIMTW,+21.5,C*3E
$IIMWV,279,R,04.0,N,A*1B
$IIMWV,279,T,04.0,N,A*1D
$IIRMC,162711,A,4612.828,N,00610.244,E,00.0,000,240614,01,E,A*0C
$IIVHW,,,027,M,00.0,N,,*61
$IIVLW,00861,N,000.0,N*5C
$IIVWR,079,L,04.1,N,,,,*74
$IIDPT,002.4,+0.7,*46
$IIGLL,4612.828,N,00610.244,E,162711,A,A*54
$IIHDG,027,,,01,E*16
$IIMTW,+21.5,C*3E
$IIMWV,280,R,04.2,N,A*1F
$IIMWV,281,T,04.1,N,A*1B
$IIRMC,162712,A,4612.828,N,00610.244,E,00.0,000,240614,01,E,A*0F
$IIVHW,,,028,M,00.0,N,,*6E
$IIVLW,00861,N,000.0,N*5C
$IIVWR,080,L,04.2,N,,,,*71
$IIDPT,002.4,+0.7,*46
$IIGLL,4612.828,N,00610.244,E,162712,A,A*57
$IIHDG,028,,,01,E*19
$IIMTW,+21.5,C*3E
$IIMWV,281,R,04.0,N,A*1C
$IIMWV,280,T,04.2,N,A*19
$IIRMC,162713,A,4612.828,N,00610.244,E,00.0,000,240614,01,E,A*0E
$IIVHW,,,028,M,00.0,N,,*6E
$IIVLW,00861,N,000.0,N*5C
$IIVWR,079,L,04.0,N,,,,*75
$IIDPT,002.4,+0.7,*46
$IIGLL,4612.828,N,00610.244,E,162713,A,A*56
$IIHDG,028,,,01,E*19
$IIMTW,+21.5,C*3E
$IIMWV,281,R,04.0,N,A*1C
$IIMWV,281,T,04.0,N,A*1A
$IIRMC,162714,A,4612.828,N,00610.244,E,00.0,000,240614,01,E,A*09
$IIVHW,,,028,M,00.0,N,,*6E
$IIVLW,00861,N,000.0,N*5C
$IIVWR,079,L,04.0,N,,,,*75
$IIDPT,002.4,+0.7,*46
$IIGLL,4612.828,N,00610.244,E,162715,A,A*50
$IIHDG,028,,,01,E*19
$IIMTW,+21.5,C*3E
$IIMWV,281,R,04.1,N,A*1D
$IIMWV,281,T,04.0,N,A*1A
$IIRMC,162715,A,4612.828,N,00610.244,E,00.0,000,240614,01,E,A*08
$IIVHW,,,028,M,00.0,N,,*6E
$IIVLW,00861,N,000.0,N*5C
$IIVWR,079,L,04.1,N,,,,*74
$IIDPT,002.4,+0.7,*46
$IIGLL,4612.828,N,00610.244,E,162716,A,A*53
$IIHDG,028,,,01,E*19
$IIMTW,+21.5,C*3E
$IIMWV,281,R,04.0,N,A*1C
$IIMWV,281,T,04.1,N,A*1B
$IIRMC,162716,A,4612.828,N,00610.244,E,00.0,000,240614,01,E,A*0B
$IIVHW,,,028,M,00.0,N,,*6E
$IIVLW,00861,N,000.0,N*5C
$IIVWR,081,L,04.0,N,,,,*72
$IIDPT,002.4,+0.7,*46
$IIGLL,4612.828,N,00610.244,E,162717,A,A*52
$IIHDG,028,,,01,E*19
$IIMTW,+21.5,C*3E
$IIMWV,279,R,04.0,N,A*1B
$IIMWV,281,T,04.0,N,A*1A
$IIRMC,162717,A,4612.828,N,00610.244,E,00.0,000,240614,01,E,A*0A
$IIVHW,,,028,M,00.0,N,,*6E
$IIVLW,00861,N,000.0,N*5C
$IIVWR,079,L,03.9,N,,,,*7B
$IIDPT,002.4,+0.7,*46
$IIGLL,4612.828,N,00610.244,E,162718,A,A*5D
$IIHDG,028,,,01,E*19
$IIMTW,+21.5,C*3E
$IIMWV,281,R,03.9,N,A*12
$IIMWV,279,T,04.0,N,A*1D
$IIRMC,162718,A,4612.828,N,00610.244,E,00.0,000,240614,01,E,A*05
$IIVHW,,,028,M,00.0,N,,*6E
$IIVLW,00861,N,000.0,N*5C
$IIVWR,082,L,03.9,N,,,,*7F
$IIDPT,002.4,+0.7,*46
$IIGLL,4612.828,N,00610.244,E,162719,A,A*5C
$IIHDG,028,,,01,E*19
$IIMTW,+21.5,C*3E
$IIMWV,278,R,03.9,N,A*14
$IIMWV,281,T,03.9,N,A*14
$IIRMC,162720,A,4612.828,N,00610.244,E,00.0,000,240614,01,E,A*0E
$IIVHW,,,028,M,00.0,N,,*6E
$IIVLW,00861,N,000.0,N*5C
$IIVWR,084,L,03.7,N,,,,*77
$IIDPT,002.4,+0.7,*46
$IIGLL,4612.828,N,00610.244,E,162720,A,A*56
$IIHDG,028,,,01,E*19
$IIMTW,+21.5,C*3E
$IIMWV,276,R,03.7,N,A*14
$IIMWV,276,T,03.7,N,A*12
$IIRMC,162720,A,4612.828,N,00610.244,E,00.0,000,240614,01,E,A*0E
$IIVHW,,,028,M,00.0,N,,*6E
$IIVLW,00861,N,000.0,N*5C
$IIVWR,085,L,03.6,N,,,,*77
$IIDPT,002.4,+0.7,*46
$IIGLL,4612.828,N,00610.244,E,162720,A,A*56
$IIHDG,028,,,01,E*19
$IIMTW,+21.5,C*3E
$IIMWV,275,R,03.7,N,A*17
$IIMWV,275,T,03.6,N,A*10
$IIRMC,162722,A,4612.828,N,00610.244,E,00.0,000,240614,01,E,A*0C
$IIVHW,,,028,M,00.0,N,,*6E
$IIVLW,00861,N,000.0,N*5C
$IIVWR,085,L,03.7,N,,,,*76
$IIDPT,002.4,+0.7,*46
$IIGLL,4612.828,N,00610.244,E,162722,A,A*54
$IIHDG,028,,,01,E*19
$IIMTW,+21.5,C*3E
$IIMWV,274,R,03.7,N,A*16
$IIMWV,275,T,03.7,N,A*11
$IIRMC,162723,A,4612.828,N,00610.244,E,00.0,000,240614,01,E,A*0D
$IIVHW,,,029,M,00.0,N,,*6F
$IIVLW,00861,N,000.0,N*5C
$IIVWR,086,L,03.7,N,,,,*75
$IIDPT,002.4,+0.7,*46
$IIGLL,4612.828,N,00610.244,E,162723,A,A*55
$IIHDG,028,,,01,E*19
$IIMTW,+21.5,C*3E
$IIMWV,272,R,03.7,N,A*10
$IIMWV,274,T,03.7,N,A*10
$IIRMC,162724,A,4612.828,N,00610.244,E,00.0,000,240614,01,E,A*0A
$IIVHW,,,028,M,00.0,N,,*6E
$IIVLW,00861,N,000.0,N*5C
$IIVWR,088,L,03.7,N,,,,*7B
$IIDPT,002.4,+0.7,*46
$IIGLL,4612.828,N,00610.244,E,162725,A,A*53
$IIHDG,028,,,01,E*19
$IIMTW,+21.5,C*3E
$IIMWV,268,R,04.2,N,A*19
$IIMWV,272,T,03.7,N,A*16
$IIRMC,162725,A,4612.828,N,00610.244,E,00.0,000,240614,01,E,A*0B
$IIVHW,,,028,M,00.0,N,,*6E
$IIVLW,00861,N,000.0,N*5C
$IIVWR,092,L,04.2,N,,,,*72
$IIDPT,002.4,+0.7,*46
$IIGLL,4612.828,N,00610.244,E,162726,A,A*50
$IIHDG,028,,,01,E*19
$IIMTW,+21.5,C*3E
$IIMWV,266,R,04.2,N,A*17
$IIMWV,268,T,04.2,N,A*1F
$IIRMC,162726,A,4612.828,N,00610.244,E,00.0,000,240614,01,E,A*08
$IIVHW,,,028,M,00.0,N,,*6E
$IIVLW,00861,N,000.0,N*5C
$IIVWR,096,L,04.2,N,,,,*76
$IIDPT,002.4,+0.7,*46
$IIGLL,4612.828,N,00610.244,E,162727,A,A*51
$IIHDG,029,,,01,E*18
$IIMTW,+21.5,C*3E
$IIMWV,264,R,04.2,N,A*15
$IIMWV,266,T,04.2,N,A*11
$IIRMC,162727,A,4612.828,N,00610.244,E,00.0,000,240614,01,E,A*09
$IIVHW,,,029,M,00.0,N,,*6F
$IIVLW,00861,N,000.0,N*5C
$IIVWR,095,L,04.1,N,,,,*76
$IIDPT,002.4,+0.7,*46
