$IIMWV,337,T,00.2,N,A*10
$IIVHW,,,031,M,00.0,N,,*66
$IIVLW,53348,N,000.7,N*5D
$IIVWR,022,L,01.5,N,,,,*7B
$IIDPT,002.2,+0.7,*40
$IIHDG,031,,,01,E*11
$IIMTW,+22.5,C*3D
$IIMWV,338,R,01.5,N,A*1F
$IIMWV,338,T,01.5,N,A*19
$IIVHW,,,031,M,00.0,N,,*66
$IIVLW,53348,N,000.7,N*5D
$IIVWR,020,L,01.1,N,,,,*7D
$IIDPT,002.2,+0.7,*40
$IIHDG,031,,,01,E*11
$IIMTW,+22.5,C*3D
$IIMWV,340,R,01.1,N,A*14
$IIMWV,340,T,01.1,N,A*12
$IIVHW,,,031,M,00.0,N,,*66
$IIVLW,53348,N,000.7,N*5D
$IIVWR,019,L,00.3,N,,,,*74
$IIDPT,002.2,+0.7,*40
$IIHDG,031,,,01,E*11
$IIMTW,+22.5,C*3D
$IIMWV,341,R,00.3,N,A*16
$IIMWV,341,T,00.3,N,A*10
$IIVHW,,,030,M,00.0,N,,*67
$IIVLW,53348,N,000.7,N*5D
$IIVWR,016,L,00.1,N,,,,*79
$IIDPT,002.2,+0.7,*40
$IIHDG,030,,,01,E*10
$IIMTW,+22.5,C*3D
$IIMWV,344,R,00.1,N,A*11
$IIMWV,344,T,00.1,N,A*17
$IIVHW,,,030,M,00.0,N,,*67
$IIVLW,53348,N,000.7,N*5D
$IIVWR,018,L,01.4,N,,,,*73
$IIDPT,002.2,+0.7,*40
$IIHDG,030,,,01,E*10
$IIMTW,+22.5,C*3D
$IIMWV,342,R,01.4,N,A*13
$IIMWV,342,T,01.4,N,A*15
$IIVHW,,,031,M,00.0,N,,*66
$IIVLW,53348,N,000.7,N*5D
$IIVWR,019,L,00.5,N,,,,*72
$IIDPT,002.2,+0.7,*40
$IIHDG,031,,,01,E*11
$IIMTW,+22.5,C*3D
$IIMWV,341,R,00.5,N,A*10
$IIMWV,341,T,00.5,N,A*16
$IIVHW,,,030,M,00.0,N,,*67
$IIVLW,53348,N,000.7,N*5D
$IIVWR,021,L,00.7,N,,,,*7B
$IIDPT,002.2,+0.7,*40
$IIHDG,030,,,01,E*10
$IIMTW,+22.5,C*3D
$IIMWV,339,R,00.7,N,A*1D
$IIMWV,339,T,00.7,N,A*1B
$IIVHW,,,030,M,00.0,N,,*67
$IIVLW,53348,N,000.7,N*5D
$IIVWR,019,L,00.2,N,,,,*75
$IIDPT,002.2,+0.7,*40
$IIHDG,030,,,01,E*10
$IIMTW,+22.5,C*3D
$IIMWV,341,R,00.2,N,A*17
$IIMWV,341,T,00.2,N,A*11
$IIVHW,,,030,M,00.0,N,,*67
$IIVLW,53348,N,000.7,N*5D
$IIVWR,017,L,01.4,N,,,,*7C
$IIDPT,002.2,+0.7,*40
$IIHDG,030,,,01,E*10
$IIMTW,+22.5,C*3D
$IIMWV,343,R,01.4,N,A*12
$IIMWV,343,T,01.4,N,A*14
$IIVHW,,,030,M,00.0,N,,*67
$IIVLW,53348,N,000.7,N*5D
$IIVWR,022,L,00.5,N,,,,*7A
$IIDPT,002.2,+0.7,*40
$IIHDG,030,,,01,E*10
$IIMTW,+22.5,C*3D
$IIMWV,338,R,00.5,N,A*1E
$IIMWV,338,T,00.5,N,A*18
$IIVHW,,,030,M,00.0,N,,*67
$IIVLW,53348,N,000.7,N*5D
$IIVWR,025,L,00.7,N,,,,*7F
$IIDPT,002.2,+0.7,*40
$IIHDG,030,,,01,E*10
$IIMTW,+22.5,C*3D
$IIMWV,335,R,00.7,N,A*11
$IIMWV,335,T,00.7,N,A*17
$IIVHW,,,031,M,00.0,N,,*66
$IIVLW,53348,N,000.7,N*5D
$IIVWR,024,L,00.2,N,,,,*7B
$IIDPT,002.2,+0.7,*40
$IIHDG,031,,,01,E*11
$IIMTW,+22.5,C*3D
$IIMWV,336,R,00.2,N,A*17
$IIMWV,336,T,00.2,N,A*11
$IIVHW,,,030,M,00.0,N,,*67
$IIVLW,53348,N,000.7,N*5D
$IIVWR,026,L,01.3,N,,,,*79
$IIDPT,002.2,+0.7,*40
$IIHDG,030,,,01,E*10
$IIMTW,+22.5,C*3D
$IIMWV,334,R,01.3,N,A*15
$IIMWV,334,T,01.3,N,A*13
$IIVHW,,,030,M,00.0,N,,*67
$IIVLW,53348,N,000.7,N*5D
$IIVWR,026,L,01.0,N,,,,*7A
$IIDPT,002.2,+0.7,*40
$IIHDG,030,,,01,E*10
$IIMTW,+22.5,C*3D
$IIMWV,334,R,01.0,N,A*16
$IIMWV,334,T,01.0,N,A*10
$IIVHW,,,030,M,00.0,N,,*67
$IIVLW,53348,N,000.7,N*5D
$IIVWR,021,L,00.3,N,,,,*7F
$IIDPT,002.2,+0.7,*40
$IIHDG,030,,,01,E*10
$IIMTW,+22.5,C*3D
$IIMWV,339,R,00.3,N,A*19
$IIMWV,339,T,00.3,N,A*1F
$IIVHW,,,030,M,00.0,N,,*67
$IIVLW,53348,N,000.7,N*5D
$IIVWR,015,L,01.3,N,,,,*79
$IIDPT,002.2,+0.7,*40
$IIHDG,030,,,01,E*10
$IIMTW,+22.5,C*3D
$IIMWV,345,R,01.3,N,A*13
$IIMWV,345,T,01.3,N,A*15
$IIVHW,,,030,M,00.0,N,,*67
$IIVLW,53348,N,000.7,N*5D
$IIVWR,013,L,01.0,N,,,,*7C
$IIDPT,002.2,+0.7,*40
$IIHDG,030,,,01,E*10
$IIMTW,+22.5,C*3D
$IIMWV,347,R,01.0,N,A*12
$IIMWV,347,T,01.0,N,A*14
$IIVHW,,,030,M,00.0,N,,*67
$IIVLW,53348,N,000.7,N*5D
$IIVWR,012,L,00.3,N,,,,*7F
$IIDPT,002.2,+0.7,*40
$IIHDG,030,,,01,E*10
$IIMTW,+22.5,C*3D
$IIMWV,348,R,00.3,N,A*1F
$IIMWV,348,T,00.3,N,A*19
$IIVHW,,,031,M,00.0,N,,*66
$IIVLW,53348,N,000.7,N*5D
$IIVWR,013,L,01.0,N,,,,*7C
$IIDPT,002.2,+0.7,*40
$IIHDG,031,,,01,E*11
$IIMTW,+22.5,C*3D
$IIMWV,347,R,01.0,N,A*12
$IIMWV,347,T,01.0,N,A*14
$IIVHW,,,030,M,00.0,N,,*67
$IIVLW,53348,N,000.7,N*5D
$IIVWR,020,L,01.0,N,,,,*7C
$IIDPT,002.2,+0.7,*40
$IIHDG,030,,,01,E*10
$IIMTW,+22.5,C*3D
$IIMWV,340,R,01.0,N,A*15
$IIMWV,340,T,01.0,N,A*13
$IIVHW,,,031,M,00.0,N,,*66
$IIVLW,53348,N,000.7,N*5D
$IIVWR,025,L,01.5,N,,,,*7C
$IIDPT,002.2,+0.7,*40
$IIHDG,031,,,01,E*11
$IIMTW,+22.5,C*3D
$IIMWV,335,R,01.5,N,A*12
$IIMWV,335,T,01.5,N,A*14
$IIVHW,,,030,M,00.0,N,,*67
$IIVLW,53348,N,000.7,N*5D
$IIVWR,029,L,01.1,N,,,,*74
$IIDPT,002.2,+0.7,*40
$IIHDG,030,,,01,E*10
$IIMTW,+22.5,C*3D
$IIMWV,331,R,01.1,N,A*12
$IIMWV,331,T,01.1,N,A*14
$IIVHW,,,030,M,00.0,N,,*67
$IIVLW,53348,N,000.7,N*5D
$IIVWR,030,L,00.3,N,,,,*7F
$IIDPT,002.2,+0.7,*40
$IIHDG,030,,,01,E*10
$IIMTW,+22.5,C*3D
$IIMWV,330,R,00.3,N,A*10
$IIMWV,330,T,00.3,N,A*16
$IIVHW,,,031,M,00.0,N,,*66
$IIVLW,53348,N,000.7,N*5D
$IIVWR,026,L,00.9,N,,,,*72
$IIDPT,002.2,+0.7,*40
$IIHDG,031,,,01,E*11
$IIMTW,+22.5,C*3D
$IIMWV,334,R,00.9,N,A*1E
$IIMWV,333,T,00.7,N,A*11
$IIVHW,,,031,M,00.0,N,,*66
$IIVLW,53348,N,000.7,N*5D
$IIVWR,036,L,00.9,N,,,,*73
$IIDPT,002.2,+0.7,*40
$IIHDG,031,,,01,E*11
$IIMTW,+22.5,C*3D
$IIMWV,324,R,00.9,N,A*1F
$IIMWV,334,T,00.9,N,A*18
$IIVHW,,,031,M,00.0,N,,*66
$IIVLW,53348,N,000.7,N*5D
$IIVWR,042,L,02.3,N,,,,*78
$IIDPT,002.2,+0.7,*40
$IIHDG,030,,,01,E*10
$IIMTW,+22.5,C*3D
$IIMWV,318,R,02.3,N,A*18
$IIMWV,324,T,00.9,N,A*19
$IIVHW,,,030,M,00.0,N,,*67
$IIVLW,53348,N,000.7,N*5D
$IIVWR,041,L,02.0,N,,,,*78
$IIDPT,002.2,+0.7,*40
$IIHDG,030,,,01,E*10
$IIMTW,+22.5,C*3D
$IIMWV,319,R,02.0,N,A*1A
$IIMWV,318,T,02.3,N,A*1E
$IIVHW,,,030,M,00.0,N,,*67
$IIVLW,53348,N,000.7,N*5D
$IIVWR,044,L,01.6,N,,,,*78
$IIDPT,002.2,+0.7,*40
$IIHDG,030,,,01,E*10
$IIMTW,+22.5,C*3D
$IIMWV,316,R,01.6,N,A*10
$IIMWV,319,T,02.0,N,A*1C
$IIVHW,,,030,M,00.0,N,,*67
$IIVLW,53348,N,000.7,N*5D
$IIVWR,049,L,02.6,N,,,,*76
$IIDPT,002.2,+0.7,*40
$IIHDG,030,,,01,E*10
$IIMTW,+22.5,C*3D
$IIMWV,311,R,02.6,N,A*14
$IIMWV,316,T,01.6,N,A*16
$IIVHW,,,030,M,00.0,N,,*67
$IIVLW,53348,N,000.7,N*5D
$IIVWR,052,L,02.0,N,,,,*7A
$IIDPT,002.2,+0.7,*40
$IIHDG,030,,,01,E*10
$IIMTW,+22.5,C*3D
$IIMWV,308,R,02.0,N,A*1A
$IIMWV,311,T,02.6,N,A*12
$IIVHW,,,030,M,00.0,N,,*67
$IIVLW,53348,N,000.7,N*5D
$IIVWR,054,L,01.4,N,,,,*7B
$IIDPT,002.2,+0.7,*40
$IIHDG,031,,,01,E*11
$IIMTW,+22.5,C*3D
$IIMWV,306,R,01.4,N,A*13
$IIMWV,308,T,02.0,N,A*1C
$IIVHW,,,031,M,00.0,N,,*66
$IIVLW,53348,N,000.7,N*5D
$IIVWR,054,L,02.3,N,,,,*7F
$IIDPT,002.2,+0.7,*40
$IIHDG,031,,,01,E*11
$IIMTW,+22.5,C*3D
$IIMWV,306,R,02.3,N,A*17
$IIMWV,306,T,01.4,N,A*15
$IIVHW,,,031,M,00.0,N,,*66
$IIVLW,53348,N,000.7,N*5D
$IIVWR,055,L,01.4,N,,,,*7A
$IIDPT,002.2,+0.7,*40
$IIHDG,030,,,01,E*10
$IIMTW,+22.5,C*3D
$IIMWV,305,R,01.4,N,A*10
$IIMWV,306,T,02.3,N,A*11
$IIVHW,,,030,M,00.0,N,,*67
$IIVLW,53348,N,000.7,N*5D
$IIVWR,056,L,02.6,N,,,,*78
$IIDPT,002.2,+0.7,*40
$IIHDG,030,,,01,E*10
$IIMTW,+22.5,C*3D
$IIMWV,304,R,02.6,N,A*10
$IIMWV,305,T,01.4,N,A*16
$IIVHW,,,030,M,00.0,N,,*67
$IIVLW,53348,N,000.7,N*5D
$IIVWR,056,L,02.0,N,,,,*7E
$IIDPT,002.2,+0.7,*40
$IIHDG,030,,,01,E*10
$IIMTW,+22.5,C*3D
$IIMWV,304,R,02.0,N,A*16
$IIMWV,304,T,02.6,N,A*16
$IIVHW,,,030,M,00.0,N,,*67
$IIVLW,53348,N,000.7,N*5D
$IIVWR,055,L,01.3,N,,,,*7D
$IIDPT,002.2,+0.7,*40
$IIHDG,030,,,01,E*10
$IIMTW,+22.5,C*3D
$IIMWV,305,R,01.3,N,A*17
$IIMWV,304,T,02.0,N,A*10
$IIVHW,,,030,M,00.0,N,,*67
$IIVLW,53348,N,000.7,N*5D
$IIVWR,054,L,01.1,N,,,,*7E
$IIDPT,002.2,+0.7,*40
$IIHDG,030,,,01,E*10
$IIMTW,+22.5,C*3D
$IIMWV,306,R,01.1,N,A*16
$IIMWV,305,T,01.3,N,A*11
$IIVHW,,,030,M,00.0,N,,*67
$IIVLW,53348,N,000.7,N*5D
$IIVWR,051,L,02.4,N,,,,*7D
$IIDPT,002.2,+0.7,*40
$IIHDG,031,,,01,E*11
$IIMTW,+22.5,C*3D
$IIMWV,309,R,02.4,N,A*1F
$IIMWV,306,T,01.1,N,A*10
$IIVHW,,,031,M,00.0,N,,*66
$IIVLW,53348,N,000.7,N*5D
$IIVWR,045,L,02.2,N,,,,*7E
$IIDPT,002.2,+0.7,*40
$IIHDG,031,,,01,E*11
$IIMTW,+22.5,C*3D
$IIMWV,315,R,02.2,N,A*14
$IIMWV,309,T,02.4,N,A*19
$IIVHW,,,031,M,00.0,N,,*66
$IIVLW,53348,N,000.7,N*5D
$IIVWR,039,L,01.9,N,,,,*7D
$IIDPT,002.2,+0.7,*40
$IIHDG,030,,,01,E*10
$IIMTW,+22.5,C*3D
$IIMWV,321,R,01.9,N,A*1B
$IIMWV,315,T,02.2,N,A*12
$IIVHW,,,030,M,00.0,N,,*67
$IIVLW,53348,N,000.7,N*5D
$IIVWR,036,L,01.3,N,,,,*78
$IIDPT,002.2,+0.7,*40
$IIHDG,030,,,01,E*10
$IIMTW,+22.5,C*3D
$IIMWV,324,R,01.3,N,A*14
$IIMWV,321,T,01.9,N,A*1D
$IIVHW,,,030,M,00.0,N,,*67
$IIVLW,53348,N,000.7,N*5D
$IIVWR,036,L,01.1,N,,,,*7A
$IIDPT,002.2,+0.7,*40
$IIHDG,030,,,01,E*10
$IIMTW,+22.5,C*3D
$IIMWV,324,R,01.1,N,A*16
$IIMWV,324,T,01.3,N,A*12
$IIVHW,,,030,M,00.0,N,,*67
$IIVLW,53348,N,000.7,N*5D
$IIVWR,035,L,01.0,N,,,,*78
$IIDPT,002.2,+0.7,*40
$IIHDG,030,,,01,E*10
$IIMTW,+22.5,C*3D
$IIMWV,325,R,01.0,N,A*16
$IIMWV,324,T,01.1,N,A*10
$IIVHW,,,030,M,00.0,N,,*67
$IIVLW,53348,N,000.7,N*5D
$IIVWR,033,L,02.3,N,,,,*7E
$IIDPT,002.2,+0.7,*40
$IIHDG,030,,,01,E*10
$IIMTW,+22.5,C*3D
$IIMWV,327,R,02.3,N,A*14
$IIMWV,325,T,01.0,N,A*10
$IIVHW,,,030,M,00.0,N,,*67
$IIVLW,53348,N,000.7,N*5D
$IIVWR,034,L,02.0,N,,,,*7A
$IIDPT,002.2,+0.7,*40
$IIHDG,030,,,01,E*10
$IIMTW,+22.5,C*3D
$IIMWV,326,R,02.0,N,A*16
$IIMWV,327,T,02.3,N,A*12
$IIVHW,,,030,M,00.0,N,,*67
$IIVLW,53348,N,000.7,N*5D
$IIVWR,036,L,01.3,N,,,,*78
$IIDPT,002.2,+0.7,*40
$IIHDG,030,,,01,E*10
$IIMTW,+22.5,C*3D
$IIMWV,324,R,01.3,N,A*14
$IIMWV,326,T,02.0,N,A*10
$IIVHW,,,030,M,00.0,N,,*67
$IIVLW,53348,N,000.7,N*5D
$IIVWR,036,L,02.4,N,,,,*7C
$IIDPT,002.2,+0.7,*40
$IIHDG,030,,,01,E*10
$IIMTW,+22.5,C*3D
$IIMWV,324,R,02.4,N,A*10
$IIMWV,324,T,01.3,N,A*12
$IIVHW,,,030,M,00.0,N,,*67
$IIVLW,53348,N,000.7,N*5D
$IIVWR,036,L,01.8,N,,,,*73
$IIDPT,002.2,+0.7,*40
$IIHDG,030,,,01,E*10
$IIMTW,+22.5,C*3D
$IIMWV,324,R,01.8,N,A*1F
$IIMWV,324,T,02.4,N,A*16
$IIVHW,,,030,M,00.0,N,,*67
$IIVLW,53348,N,000.7,N*5D
$IIVWR,035,L,01.1,N,,,,*79
$IIDPT,002.2,+0.7,*40
$IIHDG,030,,,01,E*10
$IIMTW,+22.5,C*3D
$IIMWV,325,R,01.1,N,A*17
$IIMWV,324,T,01.8,N,A*19
$IIVHW,,,030,M,00.0,N,,*67
$IIVLW,53348,N,000.7,N*5D
$IIVWR,032,L,02.2,N,,,,*7E
$IIDPT,002.2,+0.7,*40
$IIHDG,030,,,01,E*10
$IIMTW,+22.5,C*3D
$IIMWV,328,R,02.2,N,A*1A
$IIMWV,325,T,01.1,N,A*11
$IIVHW,,,030,M,00.0,N,,*67
$IIVLW,53348,N,000.7,N*5D
$IIVWR,029,L,01.6,N,,,,*73
$IIDPT,002.2,+0.7,*40
$IIHDG,030,,,01,E*10
$IIMTW,+22.5,C*3D
$IIMWV,331,R,01.6,N,A*15
$IIMWV,328,T,02.2,N,A*1C
$IIVHW,,,030,M,00.0,N,,*67
$IIVLW,53348,N,000.7,N*5D
$IIVWR,026,L,01.1,N,,,,*7B
$IIDPT,002.2,+0.7,*40
$IIHDG,030,,,01,E*10
$IIMTW,+22.5,C*3D
$IIMWV,334,R,01.1,N,A*17
$IIMWV,331,T,01.6,N,A*13
$IIVHW,,,030,M,00.0,N,,*67
$IIVLW,53348,N,000.7,N*5D
$IIVWR,023,L,02.4,N,,,,*78
$IIDPT,002.2,+0.7,*40
$IIHDG,030,,,01,E*10
$IIMTW,+22.5,C*3D
$IIMWV,337,R,02.4,N,A*12
$IIMWV,334,T,01.1,N,A*11
$IIVHW,,,030,M,00.0,N,,*67
$IIVLW,53348,N,000.7,N*5D
$IIVWR,022,L,02.0,N,,,,*7D
$IIDPT,002.2,+0.7,*40
$IIHDG,030,,,01,E*10
$IIMTW,+22.5,C*3D
$IIMWV,338,R,02.0,N,A*19
$IIMWV,337,T,02.4,N,A*14
$IIVHW,,,030,M,00.0,N,,*67
$IIVLW,53348,N,000.7,N*5D
$IIVWR,019,L,01.3,N,,,,*75
$IIDPT,002.2,+0.7,*40
$IIHDG,030,,,01,E*10
$IIMTW,+22.5,C*3D
$IIMWV,341,R,01.3,N,A*17
$IIMWV,338,T,02.0,N,A*1F
$IIVHW,,,030,M,00.0,N,,*67
$IIVLW,53348,N,000.7,N*5D
$IIVWR,018,L,01.1,N,,,,*76
$IIDPT,002.2,+0.7,*40
$IIHDG,030,,,01,E*10
$IIMTW,+22.5,C*3D
$IIMWV,342,R,01.1,N,A*16
$IIMWV,341,T,01.3,N,A*11
$IIVHW,,,030,M,00.0,N,,*67
$IIVLW,53348,N,000.7,N*5D
$IIVWR,018,L,02.2,N,,,,*76
$IIDPT,002.2,+0.7,*40
$IIHDG,030,,,01,E*10
$IIMTW,+22.5,C*3D
$IIMWV,342,R,02.2,N,A*16
$IIMWV,342,T,01.1,N,A*10
$IIVHW,,,030,M,00.0,N,,*67
$IIVLW,53348,N,000.7,N*5D
$IIVWR,018,L,01.4,N,,,,*73
$IIDPT,002.2,+0.7,*40
$IIHDG,030,,,01,E*10
$IIMTW,+22.5,C*3D
$IIMWV,342,R,01.4,N,A*13
$IIMWV,342,T,02.2,N,A*10
$IIVHW,,,030,M,00.0,N,,*67
$IIVLW,53348,N,000.7,N*5D
$IIVWR,019,L,02.6,N,,,,*73
$IIDPT,002.2,+0.7,*40
$IIHDG,030,,,01,E*10
$IIMTW,+22.5,C*3D
$IIMWV,341,R,02.6,N,A*11
$IIMWV,342,T,01.4,N,A*15
$IIVHW,,,030,M,00.0,N,,*67
$IIVLW,53348,N,000.7,N*5D
$IIVWR,019,L,01.8,N,,,,*7E
$IIDPT,002.2,+0.7,*40
$IIHDG,030,,,01,E*10
$IIMTW,+22.5,C*3D
$IIMWV,341,R,01.8,N,A*1C
$IIMWV,341,T,02.6,N,A*17
$IIVHW,,,030,M,00.0,N,,*67
$IIVLW,53348,N,000.7,N*5D
$IIVWR,017,L,02.6,N,,,,*7D
$IIDPT,002.2,+0.7,*40
$IIHDG,030,,,01,E*10
$IIMTW,+22.5,C*3D
$IIMWV,343,R,02.6,N,A*13
$IIMWV,341,T,01.8,N,A*1A
$IIVHW,,,030,M,00.0,N,,*67
$IIVLW,53348,N,000.7,N*5D
$IIVWR,018,L,01.5,N,,,,*72
$IIDPT,002.2,+0.7,*40
$IIHDG,030,,,01,E*10
$IIMTW,+22.5,C*3D
$IIMWV,342,R,01.5,N,A*12
$IIMWV,343,T,02.6,N,A*15
$IIVHW,,,030,M,00.0,N,,*67
$IIVLW,53348,N,000.7,N*5D
$IIVWR,018,L,02.3,N,,,,*77
$IIDPT,002.2,+0.7,*40
$IIHDG,030,,,01,E*10
$IIMTW,+22.5,C*3D
$IIMWV,342,R,02.3,N,A*17
$IIMWV,342,T,01.5,N,A*14
$IIVHW,,,030,M,00.0,N,,*67
$IIVLW,53348,N,000.7,N*5D
$IIVWR,016,L,02.9,N,,,,*73
$IIDPT,002.2,+0.7,*40
$IIHDG,031,,,01,E*11
$IIMTW,+22.5,C*3D
$IIMWV,332,R,02.2,N,A*11
$IIMWV,344,T,02.9,N,A*1D
$IIVHW,,,030,M,00.0,N,,*67
$IIVLW,53348,N,000.7,N*5D
$IIVWR,028,L,02.2,N,,,,*75
$IIDPT,002.2,+0.7,*40
$IIHDG,030,,,01,E*10
$IIMTW,+22.5,C*3D
$IIMWV,348,R,02.7,N,A*19
$IIMWV,332,T,02.2,N,A*17
$IIVHW,,,029,M,00.0,N,,*6F
$IIVLW,53348,N,000.7,N*5D
$IIVWR,012,L,02.7,N,,,,*79
$IIDPT,002.2,+0.7,*40
$IIHDG,029,,,01,E*18
$IIMTW,+22.5,C*3D
$IIMWV,358,R,02.2,N,A*1D
$IIMWV,348,T,02.7,N,A*1F
$IIVHW,,,030,M,00.0,N,,*67
$IIVLW,53348,N,000.7,N*5D
$IIVWR,002,L,02.2,N,,,,*7D
$IIDPT,002.2,+0.7,*40
$IIHDG,030,,,01,E*10
$IIMTW,+22.5,C*3D
$IIMWV,347,R,02.8,N,A*19
$IIMWV,358,T,02.2,N,A*1B
$IIVHW,,,030,M,00.0,N,,*67
$IIVLW,53348,N,000.7,N*5D
$IIVWR,013,L,02.8,N,,,,*77
$IIDPT,002.2,+0.7,*40
$IIHDG,030,,,01,E*10
$IIMTW,+22.5,C*3D
$IIMWV,342,R,03.3,N,A*16
$IIMWV,347,T,02.8,N,A*1F
$IIVHW,,,030,M,00.0,N,,*67
$IIVLW,53348,N,000.7,N*5D
$IIVWR,018,L,03.3,N,,,,*76
$IIDPT,002.2,+0.7,*40
$IIHDG,030,,,01,E*10
$IIMTW,+22.5,C*3D
$IIMWV,352,R,02.0,N,A*15
$IIMWV,342,T,03.3,N,A*10
$IIVHW,,,031,M,00.0,N,,*66
$IIVLW,53348,N,000.7,N*5D
$IIVWR,008,L,02.0,N,,,,*75
$IIDPT,002.2,+0.7,*40
$IIHDG,031,,,01,E*11
$IIMTW,+22.5,C*3D
$IIMWV,358,R,02.6,N,A*19
$IIMWV,352,T,02.0,N,A*13
$IIVHW,,,030,M,00.0,N,,*67
$IIVLW,53348,N,000.7,N*5D
$IIVWR,002,L,02.6,N,,,,*79
$IIDPT,002.2,+0.7,*40
$IIHDG,030,,,01,E*10
$IIMTW,+22.5,C*3D
$IIMWV,355,R,02.7,N,A*15
$IIMWV,358,T,02.6,N,A*1F
$IIVHW,,,030,M,00.0,N,,*67
$IIVLW,53348,N,000.7,N*5D
$IIVWR,005,L,02.7,N,,,,*7F
$IIDPT,002.2,+0.7,*40
$IIHDG,030,,,01,E*10
$IIMTW,+22.5,C*3D
$IIMWV,351,R,02.8,N,A*1E
$IIMWV,355,T,02.7,N,A*13
$IIVHW,,,029,M,00.0,N,,*6F
$IIVLW,53348,N,000.7,N*5D
$IIVWR,009,L,02.8,N,,,,*7C
$IIDPT,002.2,+0.7,*40
$IIHDG,029,,,01,E*18
$IIMTW,+22.5,C*3D
$IIMWV,355,R,02.9,N,A*1B
$IIMWV,351,T,02.8,N,A*18
$IIVHW,,,030,M,00.0,N,,*67
$IIVLW,53348,N,000.7,N*5D
$IIVWR,005,L,02.9,N,,,,*71
$IIDPT,002.2,+0.7,*40
$IIHDG,030,,,01,E*10
$IIMTW,+22.5,C*3D
$IIMWV,001,R,03.3,N,A*12
$IIMWV,355,T,02.9,N,A*1D
$IIVHW,,,031,M,00.0,N,,*66
$IIVLW,53348,N,000.7,N*5D
$IIVWR,001,R,03.3,N,,,,*60
$IIDPT,002.2,+0.7,*40
$IIHDG,031,,,01,E*11
$IIMTW,+22.5,C*3D
$IIMWV,359,R,03.5,N,A*1A
$IIMWV,001,T,03.3,N,A*14
$IIVHW,,,031,M,00.0,N,,*66
$IIVLW,53348,N,000.7,N*5D
$IIVWR,001,L,03.5,N,,,,*78
$IIDPT,002.2,+0.7,*40
$IIHDG,031,,,01,E*11
$IIMTW,+22.5,C*3D
$IIMWV,357,R,02.2,N,A*12
$IIMWV,359,T,03.5,N,A*1C
$IIVHW,,,031,M,00.0,N,,*66
$IIVLW,53348,N,000.7,N*5D
$IIVWR,003,L,02.2,N,,,,*7C
$IIDPT,002.2,+0.7,*40
$IIHDG,031,,,01,E*11
$IIMTW,+22.5,C*3D
$IIMWV,359,R,02.3,N,A*1D
$IIMWV,357,T,02.2,N,A*14
$IIVHW,,,031,M,00.0,N,,*66
$IIVLW,53348,N,000.7,N*5D
$IIVWR,001,L,02.3,N,,,,*7F
$IIDPT,002.2,+0.7,*40
$IIHDG,031,,,01,E*11
$IIMTW,+22.5,C*3D
$IIMWV,001,R,02.6,N,A*16
$IIMWV,359,T,02.3,N,A*1B
$IIVHW,,,031,M,00.0,N,,*66
$IIVLW,53348,N,000.7,N*5D
$IIVWR,001,R,02.6,N,,,,*64
$IIDPT,002.2,+0.7,*40
$IIHDG,031,,,01,E*11
$IIMTW,+22.5,C*3D
$IIMWV,001,R,02.7,N,A*17
$IIMWV,001,T,02.6,N,A*10
$IIVHW,,,031,M,00.0,N,,*66
$IIVLW,53348,N,000.7,N*5D
$IIVWR,001,R,02.7,N,,,,*65
$IIDPT,002.2,+0.7,*40
$IIHDG,031,,,01,E*11
$IIMTW,+22.5,C*3D
$IIMWV,355,R,03.1,N,A*12
$IIMWV,001,T,02.7,N,A*11
$IIVHW,,,031,M,00.0,N,,*66
$IIVLW,53348,N,000.7,N*5D
$IIVWR,005,L,03.1,N,,,,*78
$IIDPT,002.2,+0.7,*40
$IIHDG,031,,,01,E*11
$IIMTW,+22.5,C*3D
$IIMWV,351,R,03.2,N,A*15
$IIMWV,355,T,03.1,N,A*14
$IIVHW,,,030,M,00.0,N,,*67
$IIVLW,53348,N,000.7,N*5D
$IIVWR,009,L,03.2,N,,,,*77
$IIDPT,002.2,+0.7,*40
$IIHDG,030,,,01,E*10
$IIMTW,+22.5,C*3D
$IIMWV,354,R,03.2,N,A*10
$IIMWV,351,T,03.2,N,A*13
$IIVHW,,,030,M,00.0,N,,*67
$IIVLW,53348,N,000.7,N*5D
$IIVWR,006,L,03.2,N,,,,*78
$IIDPT,002.2,+0.7,*40
$IIHDG,030,,,01,E*10
$IIMTW,+22.5,C*3D
$IIMWV,357,R,03.2,N,A*13
$IIMWV,354,T,03.2,N,A*16
$IIVHW,,,030,M,00.0,N,,*67
$IIVLW,53348,N,000.7,N*5D
$IIVWR,003,L,03.2,N,,,,*7D
$IIDPT,002.2,+0.7,*40
$IIHDG,030,,,01,E*10
$IIMTW,+22.5,C*3D
$IIMWV,348,R,03.5,N,A*1A
$IIMWV,357,T,03.2,N,A*15
$IIVHW,,,030,M,00.0,N,,*67
$IIVLW,53348,N,000.7,N*5D
$IIVWR,012,L,03.5,N,,,,*7A
$IIDPT,002.2,+0.7,*40
$IIHDG,030,,,01,E*10
$IIMTW,+22.5,C*3D
$IIMWV,340,R,03.3,N,A*14
$IIMWV,348,T,03.5,N,A*1C
$IIVHW,,,030,M,00.0,N,,*67
$IIVLW,53348,N,000.7,N*5D
$IIVWR,020,L,03.3,N,,,,*7D
$IIDPT,002.2,+0.7,*40
$IIHDG,030,,,01,E*10
$IIMTW,+22.5,C*3D
$IIMWV,344,R,03.3,N,A*10
$IIMWV,340,T,03.3,N,A*12
$IIVHW,,,031,M,00.0,N,,*66
$IIVLW,53348,N,000.7,N*5D
$IIVWR,016,L,03.3,N,,,,*78
$IIDPT,002.2,+0.7,*40
$IIHDG,031,,,01,E*11
$IIMTW,+22.5,C*3D
$IIMWV,343,R,02.0,N,A*15
$IIMWV,344,T,03.3,N,A*16
$IIVHW,,,031,M,00.0,N,,*66
$IIVLW,53348,N,000.7,N*5D
$IIVWR,017,L,02.0,N,,,,*7B
$IIDPT,002.2,+0.7,*40
$IIHDG,031,,,01,E*11
$IIMTW,+22.5,C*3D
$IIMWV,338,R,02.3,N,A*1A
$IIMWV,343,T,02.0,N,A*13
$IIVHW,,,030,M,00.0,N,,*67
$IIVLW,53348,N,000.7,N*5D
$IIVWR,022,L,02.3,N,,,,*7E
$IIDPT,002.2,+0.7,*40
$IIHDG,030,,,01,E*10
$IIMTW,+22.5,C*3D
$IIMWV,336,R,02.6,N,A*11
$IIMWV,338,T,02.3,N,A*1C
$IIVHW,,,031,M,00.0,N,,*66
$IIVLW,53348,N,000.7,N*5D
$IIVWR,024,L,02.6,N,,,,*7D
$IIDPT,002.2,+0.7,*40
$IIHDG,031,,,01,E*11
$IIMTW,+22.5,C*3D
$IIMWV,335,R,02.8,N,A*1C
$IIMWV,336,T,02.6,N,A*17
$IIVHW,,,031,M,00.0,N,,*66
$IIVLW,53348,N,000.7,N*5D
$IIVWR,025,L,02.8,N,,,,*72
$IIDPT,002.2,+0.7,*40
$IIHDG,031,,,01,E*11
$IIMTW,+22.5,C*3D
$IIMWV,337,R,02.2,N,A*14
$IIMWV,335,T,02.8,N,A*1A
$IIVHW,,,030,M,00.0,N,,*67
$IIVLW,53348,N,000.7,N*5D
$IIVWR,023,L,02.2,N,,,,*7E
$IIDPT,002.2,+0.7,*40
$IIHDG,030,,,01,E*10
$IIMTW,+22.5,C*3D
$IIMWV,338,R,01.5,N,A*1F
$IIMWV,337,T,02.2,N,A*12
$IIVHW,,,030,M,00.0,N,,*67
$IIVLW,53348,N,000.7,N*5D
$IIVWR,022,L,01.5,N,,,,*7B
$IIDPT,002.2,+0.7,*40
$IIHDG,030,,,01,E*10
$IIMTW,+22.5,C*3D
$IIMWV,338,R,02.3,N,A*1A
$IIMWV,338,T,01.5,N,A*19
$IIVHW,,,030,M,00.0,N,,*67
$IIVLW,53348,N,000.7,N*5D
$IIVWR,022,L,02.3,N,,,,*7E
$IIDPT,002.2,+0.7,*40
$IIHDG,030,,,01,E*10
$IIMTW,+22.5,C*3D
$IIMWV,339,R,02.8,N,A*10
$IIMWV,338,T,02.3,N,A*1C
$IIVHW,,,031,M,00.0,N,,*66
$IIVLW,53348,N,000.7,N*5D
$IIVWR,021,L,02.8,N,,,,*76
$IIDPT,002.2,+0.7,*40
$IIHDG,031,,,01,E*11
$IIMTW,+22.5,C*3D
$IIMWV,340,R,01.9,N,A*1C
$IIMWV,339,T,02.8,N,A*16
$IIVHW,,,030,M,00.0,N,,*67
$IIVLW,53348,N,000.7,N*5D
$IIVWR,020,L,01.9,N,,,,*75
$IIDPT,002.2,+0.7,*40
$IIHDG,030,,,01,E*10
$IIMTW,+22.5,C*3D
$IIMWV,335,R,02.6,N,A*12
$IIMWV,340,T,01.9,N,A*1A
$IIVHW,,,030,M,00.0,N,,*67
$IIVLW,53348,N,000.7,N*5D
$IIVWR,025,L,02.6,N,,,,*7C
$IIDPT,002.2,+0.7,*40
$IIHDG,030,,,01,E*10
$IIMTW,+22.5,C*3D
$IIMWV,325,R,03.1,N,A*15
$IIMWV,335,T,02.6,N,A*14
$IIVHW,,,030,M,00.0,N,,*67
$IIVLW,53348,N,000.7,N*5D
$IIVWR,035,L,03.1,N,,,,*7B
$IIDPT,002.2,+0.7,*40
$IIHDG,030,,,01,E*10
$IIMTW,+22.5,C*3D
$IIMWV,320,R,03.2,N,A*13
$IIMWV,325,T,03.1,N,A*13
$IIVHW,,,030,M,00.0,N,,*67
$IIVLW,53348,N,000.7,N*5D
$IIVWR,040,L,03.2,N,,,,*7A
$IIDPT,002.2,+0.7,*40
$IIHDG,030,,,01,E*10
$IIMTW,+22.5,C*3D
$IIMWV,320,R,03.2,N,A*13
$IIMWV,320,T,03.2,N,A*15
$IIVHW,,,030,M,00.0,N,,*67
$IIVLW,53348,N,000.7,N*5D
$IIVWR,040,L,03.2,N,,,,*7A
$IIDPT,002.2,+0.7,*40
$IIHDG,030,,,01,E*10
$IIMTW,+22.5,C*3D
$IIMWV,316,R,03.2,N,A*16
$IIMWV,320,T,03.2,N,A*15
$IIVHW,,,030,M,00.0,N,,*67
$IIVLW,53348,N,000.7,N*5D
$IIVWR,044,L,03.2,N,,,,*7E
$IIDPT,002.2,+0.7,*40
$IIHDG,030,,,01,E*10
$IIMTW,+22.5,C*3D
$IIMWV,320,R,03.1,N,A*10
$IIMWV,316,T,03.2,N,A*10
$IIVHW,,,030,M,00.0,N,,*67
$IIVLW,53348,N,000.7,N*5D
$IIVWR,040,L,03.1,N,,,,*79
$IIDPT,002.2,+0.7,*40
$IIHDG,030,,,01,E*10
$IIMTW,+22.5,C*3D
$IIMWV,326,R,03.1,N,A*16
$IIMWV,320,T,03.1,N,A*16
$IIVHW,,,030,M,00.0,N,,*67
$IIVLW,53348,N,000.7,N*5D
$IIVWR,034,L,03.1,N,,,,*7A
$IIDPT,002.2,+0.7,*40
$IIHDG,030,,,01,E*10
$IIMTW,+22.5,C*3D
$IIMWV,322,R,02.9,N,A*1B
$IIMWV,326,T,03.1,N,A*10
$IIVHW,,,030,M,00.0,N,,*67
$IIVLW,53348,N,000.7,N*5D
$IIVWR,038,L,02.9,N,,,,*7F
$IIDPT,002.2,+0.7,*40
$IIHDG,030,,,01,E*10
$IIMTW,+22.5,C*3D
$IIMWV,321,R,02.8,N,A*19
$IIMWV,322,T,02.9,N,A*1D
$IIVHW,,,030,M,00.0,N,,*67
$IIVLW,53348,N,000.7,N*5D
$IIVWR,039,L,02.8,N,,,,*7F
$IIDPT,002.2,+0.7,*40
$IIHDG,030,,,01,E*10
$IIMTW,+22.5,C*3D
$IIMWV,325,R,02.7,N,A*12
$IIMWV,321,T,02.8,N,A*1F
$IIVHW,,,030,M,00.0,N,,*67
$IIVLW,53348,N,000.7,N*5D
$IIVWR,035,L,02.7,N,,,,*7C
$IIDPT,002.2,+0.7,*40
$IIHDG,030,,,01,E*10
$IIMTW,+22.5,C*3D
$IIMWV,324,R,02.7,N,A*13
$IIMWV,325,T,02.7,N,A*14
$IIVHW,,,031,M,00.0,N,,*66
$IIVLW,53348,N,000.7,N*5D
$IIVWR,036,L,02.7,N,,,,*7F
$IIDPT,002.2,+0.7,*40
$IIHDG,031,,,01,E*11
$IIMTW,+22.5,C*3D
$IIMWV,320,R,03.9,N,A*18
$IIMWV,324,T,02.7,N,A*15
$IIVHW,,,030,M,00.0,N,,*67
$IIVLW,53348,N,000.7,N*5D
$IIVWR,040,L,03.9,N,,,,*71
$IIDPT,002.2,+0.7,*40
$IIHDG,030,,,01,E*10
$IIMTW,+22.5,C*3D
$IIMWV,320,R,03.7,N,A*16
$IIMWV,320,T,03.9,N,A*1E
$IIVHW,,,030,M,00.0,N,,*67
$IIVLW,53348,N,000.7,N*5D
$IIVWR,040,L,03.7,N,,,,*7F
$IIDPT,002.2,+0.7,*40
$IIHDG,030,,,01,E*10
$IIMTW,+22.5,C*3D
$IIMWV,322,R,03.1,N,A*12
$IIMWV,320,T,03.7,N,A*10
$IIVHW,,,030,M,00.0,N,,*67
$IIVLW,53348,N,000.7,N*5D
$IIVWR,038,L,03.1,N,,,,*76
$IIDPT,002.2,+0.7,*40
$IIHDG,030,,,01,E*10
$IIMTW,+22.5,C*3D
$IIMWV,321,R,02.8,N,A*19
$IIMWV,322,T,03.1,N,A*14
$IIVHW,,,030,M,00.0,N,,*67
$IIVLW,53348,N,000.7,N*5D
$IIVWR,039,L,02.8,N,,,,*7F
$IIDPT,002.2,+0.7,*40
$IIHDG,030,,,01,E*10
$IIMTW,+22.5,C*3D
$IIMWV,320,R,02.6,N,A*16
$IIMWV,321,T,02.8,N,A*1F
$IIRMC,151021,A,4612.731,N,00610.248,E,00.0,000,260614,01,E,A*01
$IIVHW,,,030,M,00.0,N,,*67
$IIVLW,53348,N,000.7,N*5D
$IIVWR,040,L,02.6,N,,,,*7F
$IIDPT,002.2,+0.7,*40
$IIGLL,4612.731,N,00610.248,E,151021,A,A*5B
$IIHDG,030,,,01,E*10
$IIMTW,+22.5,C*3D
$IIMWV,326,R,03.9,N,A*1E
$IIMWV,320,T,02.6,N,A*10
$IIRMC,151022,A,4612.759,N,00610.247,E,00.0,000,260614,01,E,A*03
$IIVHW,,,030,M,00.0,N,,*67
$IIVLW,53348,N,000.7,N*5D
$IIVWR,034,L,03.9,N,,,,*72
$IIDPT,002.2,+0.7,*40
$IIGLL,4612.759,N,00610.247,E,151022,A,A*59
$IIHDG,030,,,01,E*10
$IIMTW,+22.5,C*3D
$IIMWV,325,R,03.5,N,A*11
$IIMWV,326,T,03.9,N,A*18
$IIRMC,151023,A,4612.797,N,00610.246,E,00.0,000,260614,01,E,A*01
$IIVHW,,,030,M,00.0,N,,*67
$IIVLW,53348,N,000.7,N*5D
$IIVWR,035,L,03.5,N,,,,*7F
$IIDPT,002.2,+0.7,*40
$IIGLL,4612.799,N,00610.246,E,151024,A,A*52
$IIHDG,031,,,01,E*11
$IIMTW,+22.5,C*3D
$IIMWV,325,R,03.3,N,A*17
$IIMWV,325,T,03.5,N,A*17
$IIRMC,151024,A,4612.799,N,00610.246,E,00.0,000,260614,01,E,A*08
$IIVHW,,,031,M,00.0,N,,*66
$IIVLW,53348,N,000.7,N*5D
$IIVWR,035,L,03.3,N,,,,*79
$IIDPT,002.2,+0.7,*40
$IIGLL,4612.800,N,00610.245,E,151025,A,A*5F
$IIHDG,030,,,01,E*10
$IIMTW,+22.5,C*3D
$IIMWV,336,R,03.3,N,A*15
$IIMWV,325,T,03.3,N,A*11
$IIRMC,151025,A,4612.800,N,00610.245,E,00.0,000,260614,01,E,A*05
$IIVHW,,,030,M,00.0,N,,*67
$IIVLW,53348,N,000.7,N*5D
$IIVWR,015,L,03.3,N,,,,*7B
$IIDPT,002.2,+0.7,*40
$IIGLL,4612.805,N,00610.245,E,151026,A,A*59
$IIHDG,030,,,01,E*10
$IIMTW,+22.5,C*3D
$IIMWV,345,R,03.3,N,A*11
$IIMWV,336,T,03.3,N,A*13
$IIRMC,151026,A,4612.805,N,00610.245,E,00.0,000,260614,01,E,A*03
$IIVHW,,,030,M,00.0,N,,*67
$IIVLW,53348,N,000.7,N*5D
$IIVWR,018,L,03.3,N,,,,*76
$IIDPT,002.2,+0.7,*40
$IIGLL,4612.805,N,00610.245,E,151026,A,A*59
$IIHDG,030,,,01,E*10
$IIMTW,+22.5,C*3D
$IIMWV,342,R,03.3,N,A*16
$IIMWV,345,T,03.3,N,A*17
$IIRMC,151026,A,4612.805,N,00610.245,E,00.0,000,260614,01,E,A*03
$IIVHW,,,030,M,00.0,N,,*67
$IIVLW,53348,N,000.7,N*5D
$IIVWR,021,L,03.1,N,,,,*7E
$IIDPT,002.2,+0.7,*40
$IIGLL,4612.809,N,00610.246,E,151028,A,A*58
$IIHDG,030,,,01,E*10
$IIMTW,+22.5,C*3D
$IIMWV,339,R,03.1,N,A*18
$IIMWV,342,T,03.3,N,A*10
$IIRMC,151029,A,4612.815,N,00610.246,E,00.0,000,260614,01,E,A*0E
$IIVHW,,,030,M,00.0,N,,*67
$IIVLW,53348,N,000.7,N*5D
$IIVWR,016,L,03.1,N,,,,*7A
$IIDPT,002.2,+0.7,*40
$IIGLL,4612.815,N,00610.246,E,151029,A,A*54
$IIHDG,030,,,01,E*10
$IIMTW,+22.5,C*3D
$IIMWV,344,R,03.1,N,A*12
$IIMWV,344,T,03.1,N,A*14
$IIRMC,151030,A,4612.815,N,00610.246,E,00.0,000,260614,01,E,A*06
$IIVHW,,,031,M,00.0,N,,*66
$IIVLW,53348,N,000.7,N*5D
$IIVWR,008,L,02.9,N,,,,*7C
$IIDPT,002.2,+0.7,*40
$IIGLL,4612.815,N,00610.246,E,151030,A,A*5C
$IIHDG,031,,,01,E*11
$IIMTW,+22.5,C*3D
$IIMWV,344,R,02.8,N,A*1A
$IIMWV,352,T,02.9,N,A*1A
$IIRMC,151031,A,4612.819,N,00610.246,E,00.0,000,260614,01,E,A*0B
$IIVHW,,,031,M,00.0,N,,*66
$IIVLW,53348,N,000.7,N*5D
$IIVWR,016,L,02.8,N,,,,*72
$IIDPT,002.2,+0.7,*40
$IIGLL,4612.819,N,00610.246,E,151031,A,A*51
$IIHDG,031,,,01,E*11
$IIMTW,+22.5,C*3D
$IIMWV,344,R,02.6,N,A*14
$IIMWV,344,T,02.8,N,A*1C
$IIRMC,151032,A,4612.820,N,00610.246,E,00.0,000,260614,01,E,A*02
$IIVHW,,,029,M,00.0,N,,*6F
$IIVLW,53348,N,000.7,N*5D
$IIVWR,016,L,02.6,N,,,,*7C
$IIDPT,002.2,+0.7,*40
$IIGLL,4612.820,N,00610.246,E,151032,A,A*58
$IIHDG,030,,,01,E*10
$IIMTW,+22.5,C*3D
$IIMWV,357,R,02.4,N,A*14
$IIMWV,344,T,02.6,N,A*12
$IIRMC,151032,A,4612.820,N,00610.246,E,00.0,000,260614,01,E,A*02
$IIVHW,,,030,M,00.0,N,,*67
$IIVLW,53348,N,000.7,N*5D
$IIVWR,003,L,02.4,N,,,,*7A
$IIDPT,002.2,+0.7,*40
$IIGLL,4612.824,N,00610.246,E,151034,A,A*5A
$IIHDG,030,,,01,E*10
$IIMTW,+22.5,C*3D
$IIMWV,002,R,02.4,N,A*17
$IIMWV,357,T,02.4,N,A*12
$IIRMC,151034,A,4612.824,N,00610.246,E,00.0,000,260614,01,E,A*00
$IIVHW,,,030,M,00.0,N,,*67
$IIVLW,53348,N,000.7,N*5D
$IIVWR,002,R,02.4,N,,,,*65
$IIDPT,002.2,+0.7,*40
$IIGLL,4612.826,N,00610.246,E,151035,A,A*59
$IIHDG,030,,,01,E*10
$IIMTW,+22.5,C*3D
$IIMWV,354,R,02.3,N,A*10
$IIMWV,002,T,02.4,N,A*11
$IIRMC,151035,A,4612.826,N,00610.246,E,00.0,000,260614,01,E,A*03
$IIVHW,,,030,M,00.0,N,,*67
$IIVLW,53348,N,000.7,N*5D
$IIVWR,002,L,02.6,N,,,,*79
$IIDPT,002.2,+0.7,*40
$IIGLL,4612.826,N,00610.246,E,151035,A,A*59
$IIHDG,030,,,01,E*10
$IIMTW,+22.5,C*3D
$IIMWV,358,R,02.6,N,A*19
$IIMWV,354,T,02.3,N,A*16
$IIRMC,151035,A,4612.826,N,00610.246,E,00.0,000,260614,01,E,A*03
$IIVHW,,,030,M,00.0,N,,*67
$IIVLW,53348,N,000.7,N*5D
$IIVWR,009,R,02.7,N,,,,*6D
$IIDPT,002.2,+0.7,*40
$IIGLL,4612.825,N,00610.246,E,151037,A,A*58
$IIHDG,030,,,01,E*10
$IIMTW,+22.5,C*3D
$IIMWV,009,R,02.7,N,A*1F
$IIMWV,358,T,02.6,N,A*1F
$IIRMC,151037,A,4612.825,N,00610.246,E,00.0,000,260614,01,E,A*02
$IIVHW,,,030,M,00.0,N,,*67
$IIVLW,53348,N,000.7,N*5D
$IIVWR,004,R,03.1,N,,,,*67
$IIDPT,002.2,+0.7,*40
$IIGLL,4612.825,N,00610.246,E,151038,A,A*57
$IIHDG,030,,,01,E*10
$IIMTW,+22.5,C*3D
$IIMWV,004,R,03.1,N,A*15
$IIMWV,009,T,02.7,N,A*19
$IIRMC,151039,A,4612.825,N,00610.246,E,00.0,000,260614,01,E,A*0C
$IIVHW,,,030,M,00.0,N,,*67
$IIVLW,53348,N,000.7,N*5D
$IIVWR,003,L,03.2,N,,,,*7D
$IIDPT,002.2,+0.7,*40
$IIGLL,4612.825,N,00610.246,E,151039,A,A*56
$IIHDG,030,,,01,E*10
$IIMTW,+22.5,C*3D
$IIMWV,357,R,03.2,N,A*13
$IIMWV,357,T,03.2,N,A*15
$IIRMC,151040,A,4612.825,N,00610.247,E,00.0,000,260614,01,E,A*03
$IIVHW,,,030,M,00.0,N,,*67
$IIVLW,53348,N,000.7,N*5D
$IIVWR,005,R,02.0,N,,,,*66
$IIDPT,002.2,+0.7,*40
$IIGLL,4612.825,N,00610.247,E,151040,A,A*59
$IIHDG,030,,,01,E*10
$IIMTW,+22.5,C*3D
$IIMWV,007,R,02.4,N,A*12
$IIMWV,005,T,02.0,N,A*12
$IIRMC,151041,A,4612.825,N,00610.247,E,00.0,000,260614,01,E,A*02
$IIVHW,,,030,M,00.0,N,,*67
$IIVLW,53348,N,000.7,N*5D
$IIVWR,007,R,02.4,N,,,,*60
$IIDPT,002.2,+0.7,*40
$IIGLL,4612.825,N,00610.247,E,151041,A,A*58
$IIHDG,030,,,01,E*10
$IIMTW,+22.5,C*3D
$IIMWV,357,R,02.7,N,A*17
$IIMWV,007,T,02.4,N,A*14
$IIRMC,151042,A,4612.827,N,00610.246,E,00.0,000,260614,01,E,A*02
$IIVHW,,,030,M,00.0,N,,*67
$IIVLW,53348,N,000.7,N*5D
$IIVWR,003,L,02.7,N,,,,*79
$IIDPT,002.2,+0.7,*40
$IIGLL,4612.827,N,00610.246,E,151042,A,A*58
$IIHDG,030,,,01,E*10
$IIMTW,+22.5,C*3D
$IIMWV,002,R,02.8,N,A*1B
$IIMWV,357,T,02.7,N,A*11
$IIRMC,151043,A,4612.827,N,00610.246,E,00.0,000,260614,01,E,A*03
$IIVHW,,,030,M,00.0,N,,*67
$IIVLW,53348,N,000.7,N*5D
$IIVWR,002,R,02.8,N,,,,*69
$IIDPT,002.2,+0.7,*40
$IIGLL,4612.827,N,00610.246,E,151043,A,A*59
$IIHDG,030,,,01,E*10
$IIMTW,+22.5,C*3D
$IIMWV,006,R,02.9,N,A*1E
$IIMWV,002,T,02.8,N,A*1D
$IIRMC,151043,A,4612.827,N,00610.246,E,00.0,000,260614,01,E,A*03
$IIVHW,,,030,M,00.0,N,,*67
$IIVLW,53348,N,000.7,N*5D
$IIVWR,006,R,02.9,N,,,,*6C
$IIGLL,4612.827,N,00610.246,E,151045,A,A*5F
$IIMWV,000,R,02.0,N,A*11
$IIMWV,006,T,02.9,N,A*18
$IIRMC,151045,A,4612.827,N,00610.246,E,00.0,000,260614,01,E,A*05
$IIVLW,53348,N,000.7,N*5D
$IIVWR,000,R,02.0,N,,,,*63
$IIDPT,002.2,+0.7,*40
$IIGLL,4612.827,N,00610.246,E,151046,A,A*5C
$IIHDG,030,,,01,E*10
$IIMTW,+22.5,C*3D
$IIMWV,352,R,02.4,N,A*11
$IIMWV,000,T,02.0,N,A*17
$IIRMC,151046,A,4612.827,N,00610.246,E,00.0,000,260614,01,E,A*06
$IIVHW,,,030,M,00.0,N,,*67
$IIVLW,53348,N,000.7,N*5D
$IIVWR,002,L,01.5,N,,,,*79
$IIDPT,002.2,+0.7,*40
$IIGLL,4612.827,N,00610.246,E,151047,A,A*5D
$IIHDG,031,,,01,E*11
$IIMTW,+22.5,C*3D
$IIMWV,358,R,01.5,N,A*19
$IIMWV,352,T,02.4,N,A*17
$IIRMC,151047,A,4612.827,N,00610.246,E,00.0,000,260614,01,E,A*07
$IIVHW,,,031,M,00.0,N,,*66
$IIVLW,53348,N,000.7,N*5D
$IIVWR,001,R,02.3,N,,,,*61
$IIDPT,002.2,+0.7,*40
$IIGLL,4612.827,N,00610.246,E,151047,A,A*5D
$IIHDG,031,,,01,E*11
$IIMTW,+22.5,C*3D
$IIMWV,001,R,02.3,N,A*13
$IIMWV,358,T,01.5,N,A*1F
$IIRMC,151047,A,4612.827,N,00610.246,E,00.0,000,260614,01,E,A*07
$IIVHW,,,031,M,00.0,N,,*66
$IIVLW,53348,N,000.7,N*5D
$IIVWR,006,L,01.4,N,,,,*7C
$IIDPT,002.2,+0.7,*40
$IIGLL,4612.828,N,00610.246,E,151049,A,A*5C
$IIHDG,031,,,01,E*11
$IIMTW,+22.5,C*3D
$IIMWV,354,R,01.4,N,A*14
$IIMWV,001,T,02.3,N,A*15
$IIRMC,151050,A,4612.828,N,00610.246,E,00.0,000,260614,01,E,A*0E
$IIVHW,,,030,M,00.0,N,,*67
$IIVLW,53348,N,000.7,N*5D
$IIVWR,000,R,02.4,N,,,,*67
$IIDPT,002.2,+0.7,*40
$IIGLL,4612.828,N,00610.246,E,151050,A,A*54
$IIHDG,030,,,01,E*10
$IIMTW,+22.5,C*3D
$IIMWV,000,R,02.4,N,A*15
$IIMWV,000,T,02.4,N,A*13
$IIRMC,151051,A,4612.828,N,00610.246,E,00.0,000,260614,01,E,A*0F
$IIVHW,,,030,M,00.0,N,,*67
$IIVLW,53348,N,000.7,N*5D
$IIVWR,002,R,01.8,N,,,,*6A
$IIDPT,002.2,+0.7,*40
$IIGLL,4612.828,N,00610.246,E,151051,A,A*55
$IIHDG,030,,,01,E*10
$IIMTW,+22.5,C*3D
$IIMWV,353,R,02.4,N,A*10
$IIMWV,002,T,01.8,N,A*1E
$IIRMC,151051,A,4612.828,N,00610.246,E,00.0,000,260614,01,E,A*0F
$IIVHW,,,030,M,00.0,N,,*67
$IIVLW,53348,N,000.7,N*5D
$IIVWR,007,L,02.4,N,,,,*7E
$IIDPT,002.2,+0.7,*40
$IIGLL,4612.828,N,00610.246,E,151051,A,A*55
$IIHDG,030,,,01,E*10
$IIMTW,+22.5,C*3D
$IIMWV,350,R,02.6,N,A*11
$IIMWV,353,T,02.4,N,A*16
$IIRMC,151053,A,4612.828,N,00610.246,E,00.0,000,260614,01,E,A*0D
$IIVHW,,,030,M,00.0,N,,*67
$IIVLW,53348,N,000.7,N*5D
$IIVWR,010,L,02.6,N,,,,*7A
$IIDPT,002.2,+0.7,*40
$IIGLL,4612.828,N,00610.246,E,151053,A,A*57
$IIHDG,030,,,01,E*10
$IIMTW,+22.5,C*3D
$IIMWV,355,R,01.5,N,A*14
$IIMWV,350,T,02.6,N,A*17
$IIRMC,151054,A,4612.828,N,00610.246,E,00.0,000,260614,01,E,A*0A
$IIVHW,,,030,M,00.0,N,,*67
$IIVLW,53348,N,000.7,N*5D
$IIVWR,005,L,01.5,N,,,,*7E
$IIDPT,002.2,+0.7,*40
$IIGLL,4612.828,N,00610.246,E,151055,A,A*51
$IIHDG,031,,,01,E*11
$IIMTW,+22.5,C*3D
$IIMWV,353,R,02.3,N,A*17
$IIMWV,355,T,01.5,N,A*12
$IIRMC,151055,A,4612.828,N,00610.246,E,00.0,000,260614,01,E,A*0B
$IIVHW,,,031,M,00.0,N,,*66
$IIVLW,53348,N,000.7,N*5D
$IIVWR,007,L,02.3,N,,,,*79
$IIDPT,002.2,+0.7,*40
$IIGLL,4612.828,N,00610.246,E,151056,A,A*52
$IIHDG,031,,,01,E*11
$IIMTW,+22.5,C*3D
$IIMWV,345,R,02.9,N,A*1A
$IIMWV,353,T,02.3,N,A*11
$IIRMC,151056,A,4612.828,N,00610.246,E,00.0,000,260614,01,E,A*08
$IIVHW,,,031,M,00.0,N,,*66
$IIVLW,53348,N,000.7,N*5D
$IIVWR,020,L,01.9,N,,,,*75
$IIDPT,002.2,+0.7,*40
$IIGLL,4612.828,N,00610.246,E,151057,A,A*53
$IIHDG,030,,,01,E*10
$IIMTW,+22.5,C*3D
$IIMWV,340,R,01.9,N,A*1C
$IIMWV,345,T,02.9,N,A*1C
$IIRMC,151057,A,4612.828,N,00610.246,E,00.0,000,260614,01,E,A*09
$IIVHW,,,030,M,00.0,N,,*67
$IIVLW,53348,N,000.7,N*5D
$IIVWR,019,L,02.4,N,,,,*71
$IIDPT,002.2,+0.7,*40
$IIGLL,4612.828,N,00610.246,E,151058,A,A*5C
$IIHDG,031,,,01,E*11
$IIMTW,+22.5,C*3D
$IIMWV,341,R,02.4,N,A*13
$IIMWV,340,T,01.9,N,A*1A
$IIRMC,151058,A,4612.828,N,00610.246,E,00.0,000,260614,01,E,A*06
$IIVHW,,,030,M,00.0,N,,*67
$IIVLW,53348,N,000.7,N*5D
$IIVWR,022,L,02.8,N,,,,*75
$IIDPT,002.2,+0.7,*40
$IIGLL,4612.828,N,00610.246,E,151059,A,A*5D
$IIHDG,030,,,01,E*10
$IIMTW,+22.5,C*3D
$IIMWV,338,R,02.8,N,A*11
$IIMWV,341,T,02.4,N,A*15
$IIRMC,151059,A,4612.828,N,00610.246,E,00.0,000,260614,01,E,A*07
$IIVHW,,,030,M,00.0,N,,*67
$IIVLW,53348,N,000.7,N*5D
$IIVWR,032,L,01.5,N,,,,*7A
$IIDPT,002.2,+0.7,*40
$IIGLL,4612.828,N,00610.246,E,151059,A,A*5D
$IIHDG,030,,,01,E*10
$IIMTW,+22.5,C*3D
$IIMWV,328,R,01.5,N,A*1E
$IIMWV,328,T,01.5,N,A*18
$IIRMC,151101,A,4612.828,N,00610.246,E,00.0,000,260614,01,E,A*0B
$IIVHW,,,030,M,00.0,N,,*67
$IIVLW,53348,N,000.7,N*5D
$IIVWR,039,L,02.0,N,,,,*77
$IIDPT,002.2,+0.7,*40
$IIGLL,4612.828,N,00610.246,E,151101,A,A*51
$IIHDG,030,,,01,E*10
$IIMTW,+22.5,C*3D
$IIMWV,317,R,02.6,N,A*12
$IIMWV,321,T,02.0,N,A*17
$IIRMC,151101,A,4612.828,N,00610.246,E,00.0,000,260614,01,E,A*0B
$IIVHW,,,031,M,00.0,N,,*66
$IIVLW,53348,N,000.7,N*5D
$IIVWR,043,L,02.6,N,,,,*7C
$IIDPT,002.2,+0.7,*40
$IIGLL,4612.828,N,00610.246,E,151101,A,A*51
$IIHDG,031,,,01,E*11
$IIMTW,+22.5,C*3D
$IIMWV,311,R,02.8,N,A*1A
$IIMWV,317,T,02.6,N,A*14
$IIRMC,151103,A,4612.828,N,00610.246,E,00.0,000,260614,01,E,A*09
$IIVHW,,,031,M,00.0,N,,*66
$IIVLW,53348,N,000.7,N*5D
$IIVWR,049,L,02.8,N,,,,*78
$IIDPT,002.2,+0.7,*40
$IIGLL,4612.828,N,00610.246,E,151103,A,A*53
$IIHDG,030,,,01,E*10
$IIMTW,+22.5,C*3D
$IIMWV,305,R,03.1,N,A*17
$IIMWV,311,T,02.8,N,A*1C
$IIRMC,151104,A,4612.828,N,00610.246,E,00.0,000,260614,01,E,A*0E
$IIVHW,,,030,M,00.0,N,,*67
$IIVLW,53348,N,000.7,N*5D
$IIVWR,055,L,03.1,N,,,,*7D
$IIDPT,002.2,+0.7,*40
$IIGLL,4612.828,N,00610.246,E,151105,A,A*55
$IIHDG,030,,,01,E*10
$IIMTW,+22.5,C*3D
$IIMWV,303,R,02.0,N,A*11
$IIMWV,305,T,03.1,N,A*11
$IIRMC,151105,A,4612.828,N,00610.246,E,00.0,000,260614,01,E,A*0F
$IIVHW,,,030,M,00.0,N,,*67
$IIVLW,53348,N,000.7,N*5D
$IIVWR,057,L,02.0,N,,,,*7F
$IIDPT,002.2,+0.7,*40
$IIGLL,4612.828,N,00610.246,E,151106,A,A*56
$IIHDG,030,,,01,E*10
$IIMTW,+22.5,C*3D
$IIMWV,301,R,02.3,N,A*10
$IIMWV,303,T,02.0,N,A*17
$IIRMC,151106,A,4612.828,N,00610.246,E,00.0,000,260614,01,E,A*0C
$IIVHW,,,030,M,00.0,N,,*67
$IIVLW,53348,N,000.7,N*5D
$IIVWR,061,L,02.6,N,,,,*7C
$IIDPT,002.2,+0.7,*40
$IIGLL,4612.828,N,00610.246,E,151107,A,A*57
$IIHDG,030,,,01,E*10
$IIMTW,+22.5,C*3D
$IIMWV,299,R,02.6,N,A*15
$IIMWV,301,T,02.3,N,A*16
$IIRMC,151107,A,4612.828,N,00610.246,E,00.0,000,260614,01,E,A*0D
$IIVHW,,,030,M,00.0,N,,*67
$IIVLW,53348,N,000.7,N*5D
$IIVWR,064,L,02.8,N,,,,*77
$IIDPT,002.2,+0.7,*40
$IIGLL,4612.828,N,00610.246,E,151108,A,A*58
$IIHDG,030,,,01,E*10
$IIMTW,+22.5,C*3D
$IIMWV,296,R,02.8,N,A*14
$IIMWV,299,T,02.6,N,A*13
$IIRMC,151108,A,4612.828,N,00610.246,E,00.0,000,260614,01,E,A*02
$IIVHW,,,030,M,00.0,N,,*67
$IIVLW,53348,N,000.7,N*5D
$IIVWR,067,L,01.5,N,,,,*7A
$IIDPT,002.2,+0.7,*40
$IIGLL,4612.828,N,00610.246,E,151108,A,A*58
$IIHDG,030,,,01,E*10
$IIMTW,+22.5,C*3D
$IIMWV,293,R,01.5,N,A*1F
$IIMWV,296,T,02.8,N,A*12
$IIRMC,151110,A,4612.828,N,00610.246,E,00.0,000,260614,01,E,A*0B
$IIVHW,,,031,M,00.0,N,,*66
$IIVLW,53348,N,000.7,N*5D
$IIVWR,069,L,02.7,N,,,,*75
$IIDPT,002.2,+0.7,*40
$IIGLL,4612.828,N,00610.246,E,151110,A,A*51
$IIHDG,031,,,01,E*11
$IIMTW,+22.5,C*3D
$IIMWV,291,R,02.7,N,A*1C
$IIMWV,291,T,02.7,N,A*1A
$IIRMC,151111,A,4612.828,N,00610.246,E,00.0,000,260614,01,E,A*0A
$IIVHW,,,030,M,00.0,N,,*67
$IIVLW,53348,N,000.7,N*5D
$IIVWR,070,L,02.2,N,,,,*78
$IIDPT,002.2,+0.7,*40
$IIGLL,4612.828,N,00610.246,E,151111,A,A*50
$IIHDG,030,,,01,E*10
$IIMTW,+22.5,C*3D
$IIMWV,289,R,01.3,N,A*12
$IIMWV,290,T,02.2,N,A*1E
$IIRMC,151112,A,4612.828,N,00610.246,E,00.0,000,260614,01,E,A*09
$IIVHW,,,030,M,00.0,N,,*67
$IIVLW,53348,N,000.7,N*5D
$IIVWR,071,L,01.3,N,,,,*7B
$IIDPT,002.2,+0.7,*40
$IIGLL,4612.828,N,00610.246,E,151112,A,A*53
$IIHDG,030,,,01,E*10
$IIMTW,+22.5,C*3D
$IIMWV,288,R,02.3,N,A*10
$IIMWV,289,T,01.3,N,A*14
$IIRMC,151113,A,4612.828,N,00610.246,E,00.0,000,260614,01,E,A*08
$IIVHW,,,030,M,00.0,N,,*67
$IIVLW,53348,N,000.7,N*5D
$IIVWR,072,L,02.3,N,,,,*7B
$IIDPT,002.2,+0.7,*40
$IIGLL,4612.828,N,00610.246,E,151113,A,A*52
$IIHDG,030,,,01,E*10
$IIMTW,+22.5,C*3D
$IIMWV,288,R,02.9,N,A*1A
$IIMWV,288,T,02.3,N,A*16
$IIRMC,151114,A,4612.828,N,00610.246,E,00.0,000,260614,01,E,A*0F
$IIVHW,,,030,M,00.0,N,,*67
$IIVLW,53348,N,000.7,N*5D
$IIVWR,072,L,02.9,N,,,,*71
$IIDPT,002.2,+0.7,*40
$IIGLL,4612.828,N,00610.246,E,151115,A,A*54
$IIHDG,030,,,01,E*10
$IIMTW,+22.5,C*3D
$IIMWV,289,R,02.2,N,A*10
$IIMWV,288,T,02.9,N,A*1C
$IIRMC,151115,A,4612.828,N,00610.246,E,00.0,000,260614,01,E,A*0E
$IIVHW,,,030,M,00.0,N,,*67
$IIVLW,53348,N,000.7,N*5D
$IIVWR,071,L,02.2,N,,,,*79
$IIDPT,002.2,+0.7,*40
$IIGLL,4612.828,N,00610.246,E,151116,A,A*57
$IIHDG,030,,,01,E*10
$IIMTW,+22.5,C*3D
$IIMWV,291,R,02.7,N,A*1C
$IIMWV,289,T,02.2,N,A*16
$IIRMC,151116,A,4612.828,N,00610.246,E,00.0,000,260614,01,E,A*0D
$IIVHW,,,030,M,00.0,N,,*67
$IIVLW,53348,N,000.7,N*5D
$IIVWR,067,L,02.9,N,,,,*75
$IIDPT,002.2,+0.7,*40
$IIGLL,4612.828,N,00610.246,E,151117,A,A*56
$IIHDG,030,,,01,E*10
$IIMTW,+22.5,C*3D
$IIMWV,293,R,02.9,N,A*10
$IIMWV,291,T,02.7,N,A*1A
$IIRMC,151117,A,4612.828,N,00610.246,E,00.0,000,260614,01,E,A*0C
$IIVHW,,,030,M,00.0,N,,*67
$IIVLW,53348,N,000.7,N*5D
$IIVWR,065,L,02.0,N,,,,*7E
$IIDPT,002.2,+0.7,*40
$IIGLL,4612.828,N,00610.246,E,151118,A,A*59
$IIHDG,030,,,01,E*10
$IIMTW,+22.5,C*3D
$IIMWV,295,R,02.0,N,A*1F
$IIMWV,293,T,02.9,N,A*16
$IIRMC,151118,A,4612.828,N,00610.246,E,00.0,000,260614,01,E,A*03
$IIVHW,,,030,M,00.0,N,,*67
$IIVLW,53348,N,000.7,N*5D
$IIVWR,062,L,02.4,N,,,,*7D
$IIDPT,002.2,+0.7,*40
$IIGLL,4612.828,N,00610.246,E,151119,A,A*58
$IIHDG,030,,,01,E*10
$IIMTW,+22.5,C*3D
$IIMWV,298,R,02.4,N,A*16
$IIMWV,295,T,02.0,N,A*19
$IIRMC,151120,A,4612.828,N,00610.246,E,00.0,000,260614,01,E,A*08
$IIVHW,,,030,M,00.0,N,,*67
$IIVLW,53348,N,000.7,N*5D
$IIVWR,061,L,02.7,N,,,,*7D
$IIDPT,002.2,+0.7,*40
$IIGLL,4612.828,N,00610.246,E,151120,A,A*52
$IIHDG,030,,,01,E*10
$IIMTW,+22.5,C*3D
$IIMWV,299,R,02.7,N,A*14
$IIMWV,299,T,02.7,N,A*12
$IIRMC,151121,A,4612.828,N,00610.246,E,00.0,000,260614,01,E,A*09
$IIVHW,,,030,M,00.0,N,,*67
$IIVLW,53348,N,000.7,N*5D
$IIVWR,060,L,01.6,N,,,,*7E
$IIDPT,002.2,+0.7,*40
$IIGLL,4612.828,N,00610.246,E,151121,A,A*53
$IIHDG,030,,,01,E*10
$IIMTW,+22.5,C*3D
$IIMWV,302,R,02.3,N,A*13
$IIMWV,300,T,01.6,N,A*11
$IIRMC,151122,A,4612.828,N,00610.246,E,00.0,000,260614,01,E,A*0A
$IIVHW,,,030,M,00.0,N,,*67
$IIVLW,53348,N,000.7,N*5D
$IIVWR,058,L,02.3,N,,,,*73
$IIDPT,002.2,+0.7,*40
$IIGLL,4612.828,N,00610.246,E,151122,A,A*50
$IIHDG,030,,,01,E*10
$IIMTW,+22.5,C*3D
$IIMWV,309,R,01.4,N,A*1C
$IIMWV,302,T,02.3,N,A*15
$IIRMC,151123,A,4612.828,N,00610.246,E,00.0,000,260614,01,E,A*0B
$IIVHW,,,031,M,00.0,N,,*66
$IIVLW,53348,N,000.7,N*5D
$IIVWR,051,L,01.4,N,,,,*7E
$IIDPT,002.2,+0.7,*40
$IIGLL,4612.828,N,00610.246,E,151123,A,A*51
$IIHDG,030,,,01,E*10
$IIMTW,+22.5,C*3D
$IIMWV,321,R,01.6,N,A*14
$IIMWV,316,T,02.3,N,A*10
$IIRMC,151125,A,4612.828,N,00610.246,E,00.0,000,260614,01,E,A*0D
$IIVHW,,,030,M,00.0,N,,*67
$IIVLW,53348,N,000.7,N*5D
$IIVWR,039,L,01.6,N,,,,*72
$IIDPT,002.2,+0.7,*40
$IIGLL,4612.828,N,00610.246,E,151125,A,A*57
$IIHDG,030,,,01,E*10
$IIMTW,+22.5,C*3D
$IIMWV,325,R,02.4,N,A*11
$IIMWV,321,T,01.6,N,A*12
$IIRMC,151125,A,4612.828,N,00610.246,E,00.0,000,260614,01,E,A*0D
$IIVHW,,,030,M,00.0,N,,*67
$IIVLW,53348,N,000.7,N*5D
$IIVWR,035,L,02.4,N,,,,*7F
$IIDPT,002.2,+0.7,*40
$IIGLL,4612.828,N,00610.246,E,151125,A,A*57
$IIHDG,030,,,01,E*10
$IIMTW,+22.5,C*3D
$IIMWV,331,R,02.8,N,A*18
$IIMWV,325,T,02.4,N,A*17
$IIRMC,151125,A,4612.828,N,00610.246,E,00.0,000,260614,01,E,A*0D
$IIVHW,,,030,M,00.0,N,,*67
$IIVLW,53348,N,000.7,N*5D
$IIVWR,026,L,02.2,N,,,,*7B
$IIDPT,002.2,+0.7,*40
$IIGLL,4612.828,N,00610.246,E,151128,A,A*5A
$IIHDG,031,,,01,E*11
$IIMTW,+22.5,C*3D
$IIMWV,334,R,02.2,N,A*17
$IIMWV,331,T,02.8,N,A*1E
$IIRMC,151128,A,4612.828,N,00610.246,E,00.0,000,260614,01,E,A*00
$IIVHW,,,031,M,00.0,N,,*66
$IIVLW,53348,N,000.7,N*5D
$IIVWR,023,L,02.7,N,,,,*7B
$IIDPT,002.2,+0.7,*40
$IIGLL,4612.828,N,00610.246,E,151129,A,A*5B
$IIHDG,030,,,01,E*10
$IIMTW,+22.5,C*3D
$IIMWV,337,R,02.7,N,A*11
$IIMWV,334,T,02.2,N,A*11
$IIRMC,151129,A,4612.828,N,00610.246,E,00.0,000,260614,01,E,A*01
$IIVHW,,,030,M,00.0,N,,*67
$IIVLW,53348,N,000.7,N*5D
$IIVWR,019,L,03.1,N,,,,*75
$IIDPT,002.2,+0.7,*40
$IIGLL,4612.828,N,00610.246,E,151130,A,A*53
$IIHDG,030,,,01,E*10
$IIMTW,+22.5,C*3D
$IIMWV,341,R,03.1,N,A*17
$IIMWV,337,T,02.7,N,A*17
$IIRMC,151131,A,4612.828,N,00610.246,E,00.0,000,260614,01,E,A*08
$IIVHW,,,030,M,00.0,N,,*67
$IIVLW,53348,N,000.7,N*5D
$IIVWR,018,L,03.1,N,,,,*74
$IIDPT,002.2,+0.7,*40
$IIGLL,4612.828,N,00610.246,E,151131,A,A*52
$IIHDG,030,,,01,E*10
$IIMTW,+22.5,C*3D
$IIMWV,342,R,03.1,N,A*14
$IIMWV,342,T,03.1,N,A*12
$IIRMC,151132,A,4612.828,N,00610.246,E,00.0,000,260614,01,E,A*0B
$IIVHW,,,031,M,00.0,N,,*66
$IIVLW,53348,N,000.7,N*5D
$IIVWR,018,L,04.0,N,,,,*72
$IIDPT,002.2,+0.7,*40
$IIGLL,4612.828,N,00610.246,E,151132,A,A*51
$IIHDG,031,,,01,E*11
$IIMTW,+22.5,C*3D
$IIMWV,337,R,03.3,N,A*14
$IIMWV,342,T,04.0,N,A*14
$IIRMC,151133,A,4612.828,N,00610.246,E,00.0,000,260614,01,E,A*0A
$IIVHW,,,030,M,00.0,N,,*67
$IIVLW,53348,N,000.7,N*5D
$IIVWR,023,L,03.3,N,,,,*7E
$IIDPT,002.2,+0.7,*40
$IIGLL,4612.828,N,00610.246,E,151133,A,A*50
$IIHDG,030,,,01,E*10
$IIMTW,+22.5,C*3D
$IIMWV,334,R,04.1,N,A*12
$IIMWV,337,T,03.3,N,A*12
$IIRMC,151134,A,4612.828,N,00610.246,E,00.0,000,260614,01,E,A*0D
$IIVHW,,,031,M,00.0,N,,*66
$IIVLW,53348,N,000.7,N*5D
$IIVWR,026,L,04.1,N,,,,*7E
$IIDPT,002.2,+0.7,*40
$IIGLL,4612.828,N,00610.246,E,151134,A,A*57
$IIHDG,030,,,01,E*10
$IIMTW,+22.5,C*3D
$IIMWV,329,R,03.3,N,A*1B
$IIMWV,334,T,04.1,N,A*14
$IIRMC,151135,A,4612.828,N,00610.246,E,00.0,000,260614,01,E,A*0C
$IIVHW,,,030,M,00.0,N,,*67
$IIVLW,53348,N,000.7,N*5D
$IIVWR,031,L,03.3,N,,,,*7D
$IIDPT,002.2,+0.7,*40
$IIGLL,4612.828,N,00610.246,E,151136,A,A*55
$IIHDG,030,,,01,E*10
$IIMTW,+22.5,C*3D
$IIMWV,325,R,04.1,N,A*12
$IIMWV,329,T,03.3,N,A*1D
$IIRMC,151136,A,4612.828,N,00610.246,E,00.0,000,260614,01,E,A*0F
$IIVHW,,,030,M,00.0,N,,*67
$IIVLW,53348,N,000.7,N*5D
$IIVWR,035,L,04.1,N,,,,*7C
$IIDPT,002.2,+0.7,*40
$IIGLL,4612.828,N,00610.246,E,151137,A,A*54
$IIHDG,030,,,01,E*10
$IIMTW,+22.5,C*3D
$IIMWV,325,R,03.2,N,A*16
$IIMWV,325,T,04.1,N,A*14
$IIRMC,151137,A,4612.828,N,00610.246,E,00.0,000,260614,01,E,A*0E
$IIVHW,,,030,M,00.0,N,,*67
$IIVLW,53348,N,000.7,N*5D
$IIVWR,033,L,04.0,N,,,,*7B
$IIDPT,002.2,+0.7,*40
$IIGLL,4612.828,N,00610.246,E,151138,A,A*5B
$IIHDG,031,,,01,E*11
$IIMTW,+22.5,C*3D
$IIMWV,327,R,04.0,N,A*11
$IIMWV,325,T,03.2,N,A*10
$IIRMC,151138,A,4612.828,N,00610.246,E,00.0,000,260614,01,E,A*01
$IIVHW,,,031,M,00.0,N,,*66
$IIVLW,53348,N,000.7,N*5D
$IIVWR,034,L,03.3,N,,,,*78
$IIDPT,002.2,+0.7,*40
$IIGLL,4612.828,N,00610.246,E,151139,A,A*5A
$IIHDG,030,,,01,E*10
$IIMTW,+22.5,C*3D
$IIMWV,326,R,03.3,N,A*14
$IIMWV,327,T,04.0,N,A*17
$IIRMC,151139,A,4612.828,N,00610.246,E,00.0,000,260614,01,E,A*00
$IIVHW,,,031,M,00.0,N,,*66
$IIVLW,53348,N,000.7,N*5D
$IIVWR,035,L,03.1,N,,,,*7B
$IIDPT,002.2,+0.7,*40
$IIGLL,4612.828,N,00610.246,E,151140,A,A*54
$IIHDG,031,,,01,E*11
$IIMTW,+22.5,C*3D
$IIMWV,325,R,03.1,N,A*15
$IIMWV,326,T,03.3,N,A*12
$IIRMC,151141,A,4612.828,N,00610.246,E,00.0,000,260614,01,E,A*0F
$IIVHW,,,030,M,00.0,N,,*67
$IIVLW,53348,N,000.7,N*5D
$IIVWR,036,L,04.0,N,,,,*7E
$IIDPT,002.2,+0.7,*40
$IIGLL,4612.828,N,00610.246,E,151141,A,A*55
$IIHDG,030,,,01,E*10
$IIMTW,+22.5,C*3D
$IIMWV,324,R,04.0,N,A*12
$IIMWV,324,T,04.0,N,A*14
$IIRMC,151142,A,4612.828,N,00610.246,E,00.0,000,260614,01,E,A*0C
$IIVHW,,,030,M,00.0,N,,*67
$IIVLW,53348,N,000.7,N*5D
$IIVWR,039,L,03.7,N,,,,*71
$IIDPT,002.2,+0.7,*40
$IIGLL,4612.828,N,00610.246,E,151142,A,A*56
$IIHDG,030,,,01,E*10
$IIMTW,+22.5,C*3D
$IIMWV,318,R,03.1,N,A*1B
$IIMWV,321,T,03.7,N,A*11
$IIRMC,151143,A,4612.828,N,00610.246,E,00.0,000,260614,01,E,A*0D
$IIVHW,,,030,M,00.0,N,,*67
$IIVLW,53348,N,000.7,N*5D
$IIVWR,042,L,03.1,N,,,,*7B
$IIDPT,002.2,+0.7,*40
$IIGLL,4612.828,N,00610.246,E,151143,A,A*57
$IIHDG,030,,,01,E*10
$IIMTW,+22.5,C*3D
$IIMWV,316,R,04.0,N,A*13
$IIMWV,318,T,03.1,N,A*1D
$IIRMC,151144,A,4612.828,N,00610.246,E,00.0,000,260614,01,E,A*0A
$IIVHW,,,030,M,00.0,N,,*67
$IIVLW,53348,N,000.7,N*5D
$IIVWR,044,L,04.0,N,,,,*7B
$IIDPT,002.2,+0.7,*40
$IIGLL,4612.828,N,00610.246,E,151144,A,A*50
$IIHDG,030,,,01,E*10
$IIMTW,+22.5,C*3D
$IIMWV,320,R,03.3,N,A*12
$IIMWV,316,T,04.0,N,A*15
$IIRMC,151144,A,4612.828,N,00610.246,E,00.0,000,260614,01,E,A*0A
$IIVHW,,,030,M,00.0,N,,*67
$IIVLW,53348,N,000.7,N*5D
$IIVWR,040,L,03.3,N,,,,*7B
$IIDPT,002.2,+0.7,*40
$IIGLL,4612.828,N,00610.246,E,151146,A,A*52
$IIHDG,031,,,01,E*11
$IIMTW,+22.5,C*3D
$IIMWV,319,R,02.9,N,A*13
$IIMWV,320,T,03.3,N,A*14
$IIRMC,151146,A,4612.828,N,00610.246,E,00.0,000,260614,01,E,A*08
$IIVHW,,,031,M,00.0,N,,*66
$IIVLW,53348,N,000.7,N*5D
$IIVWR,041,L,02.9,N,,,,*71
$IIDPT,002.2,+0.7,*40
$IIGLL,4612.828,N,00610.246,E,151147,A,A*53
$IIHDG,030,,,01,E*10
$IIMTW,+22.5,C*3D
$IIMWV,320,R,04.0,N,A*16
$IIMWV,319,T,02.9,N,A*15
$IIRMC,151147,A,4612.828,N,00610.246,E,00.0,000,260614,01,E,A*09
$IIVHW,,,030,M,00.0,N,,*67
$IIVLW,53348,N,000.7,N*5D
$IIVWR,039,L,03.1,N,,,,*77
$IIDPT,002.2,+0.7,*40
$IIGLL,4612.828,N,00610.246,E,151148,A,A*5C
$IIHDG,031,,,01,E*11
$IIMTW,+22.5,C*3D
$IIMWV,321,R,03.1,N,A*11
$IIMWV,320,T,04.0,N,A*10
$IIRMC,151148,A,4612.828,N,00610.246,E,00.0,000,260614,01,E,A*06
$IIVHW,,,031,M,00.0,N,,*66
$IIVLW,53348,N,000.7,N*5D
$IIVWR,036,L,02.8,N,,,,*70
$IIDPT,002.2,+0.7,*40
$IIGLL,4612.828,N,00610.246,E,151149,A,A*5D
$IIHDG,030,,,01,E*10
$IIMTW,+22.5,C*3D
$IIMWV,324,R,02.8,N,A*1C
$IIMWV,321,T,03.1,N,A*17
$IIRMC,151149,A,4612.828,N,00610.246,E,00.0,000,260614,01,E,A*07
$IIVHW,,,030,M,00.0,N,,*67
$IIVLW,53348,N,000.7,N*5D
$IIVWR,036,L,02.6,N,,,,*7E
$IIDPT,002.2,+0.7,*40
$IIGLL,4612.828,N,00610.246,E,151150,A,A*55
$IIHDG,030,,,01,E*10
$IIMTW,+22.5,C*3D
$IIMWV,324,R,02.6,N,A*12
$IIMWV,324,T,02.8,N,A*1A
$IIRMC,151151,A,4612.828,N,00610.246,E,00.0,000,260614,01,E,A*0E
$IIVHW,,,030,M,00.0,N,,*67
$IIVLW,53348,N,000.7,N*5D
$IIVWR,033,L,03.9,N,,,,*75
$IIDPT,002.2,+0.7,*40
$IIGLL,4612.828,N,00610.246,E,151151,A,A*54
$IIHDG,030,,,01,E*10
$IIMTW,+22.5,C*3D
$IIMWV,327,R,03.9,N,A*1F
$IIMWV,327,T,03.9,N,A*19
$IIRMC,151152,A,4612.828,N,00610.246,E,00.0,000,260614,01,E,A*0D
$IIVHW,,,030,M,00.0,N,,*67
$IIVLW,53348,N,000.7,N*5D
$IIVWR,031,L,03.6,N,,,,*78
$IIDPT,002.2,+0.7,*40
$IIGLL,4612.828,N,00610.246,E,151152,A,A*57
$IIHDG,030,,,01,E*10
$IIMTW,+22.5,C*3D
$IIMWV,330,R,03.3,N,A*13
$IIMWV,329,T,03.6,N,A*18
$IIRMC,151153,A,4612.828,N,00610.246,E,00.0,000,260614,01,E,A*0C
$IIVHW,,,030,M,00.0,N,,*67
$IIVLW,53348,N,000.7,N*5D
$IIVWR,030,L,03.3,N,,,,*7C
$IIDPT,002.2,+0.7,*40
$IIGLL,4612.828,N,00610.246,E,151153,A,A*56
$IIHDG,030,,,01,E*10
$IIMTW,+22.5,C*3D
$IIMWV,327,R,03.3,N,A*15
$IIMWV,330,T,03.3,N,A*15
$IIRMC,151154,A,4612.828,N,00610.246,E,00.0,000,260614,01,E,A*0B
$IIVHW,,,030,M,00.0,N,,*67
$IIVLW,53348,N,000.7,N*5D
$IIVWR,033,L,03.3,N,,,,*7F
$IIDPT,002.2,+0.7,*40
$IIGLL,4612.828,N,00610.246,E,151154,A,A*51
$IIHDG,030,,,01,E*10
$IIMTW,+22.5,C*3D
$IIMWV,328,R,03.3,N,A*1A
$IIMWV,327,T,03.3,N,A*13
$IIRMC,151155,A,4612.828,N,00610.246,E,00.0,000,260614,01,E,A*0A
$IIVHW,,,030,M,00.0,N,,*67
$IIVLW,53348,N,000.7,N*5D
$IIVWR,032,L,03.3,N,,,,*7E
$IIDPT,002.2,+0.7,*40
$IIGLL,4612.828,N,00610.246,E,151156,A,A*53
$IIHDG,030,,,01,E*10
$IIMTW,+22.5,C*3D
$IIMWV,354,R,03.3,N,A*11
$IIMWV,328,T,03.3,N,A*1C
$IIRMC,151156,A,4612.828,N,00610.246,E,00.0,000,260614,01,E,A*09
$IIVHW,,,030,M,00.0,N,,*67
$IIVLW,53348,N,000.7,N*5D
$IIVWR,006,L,03.3,N,,,,*79
$IIDPT,002.2,+0.7,*40
$IIGLL,4612.828,N,00610.246,E,151156,A,A*53
$IIHDG,030,,,01,E*10
$IIMTW,+22.5,C*3D
$IIMWV,354,R,03.3,N,A*11
$IIMWV,354,T,03.3,N,A*17
$IIRMC,151156,A,4612.828,N,00610.246,E,00.0,000,260614,01,E,A*09
$IIVHW,,,030,M,00.0,N,,*67
$IIVLW,53348,N,000.7,N*5D
$IIVWR,022,L,03.5,N,,,,*79
$IIDPT,002.2,+0.7,*40
$IIGLL,4612.828,N,00610.246,E,151156,A,A*53
$IIHDG,030,,,01,E*10
$IIMTW,+22.5,C*3D
$IIMWV,338,R,03.5,N,A*1D
$IIMWV,354,T,03.3,N,A*17
$IIRMC,151156,A,4612.828,N,00610.246,E,00.0,000,260614,01,E,A*09
$IIVHW,,,030,M,00.0,N,,*67
$IIVLW,53348,N,000.7,N*5D
$IIVWR,028,L,03.6,N,,,,*70
$IIDPT,002.2,+0.7,*40
$IIGLL,4612.828,N,00610.246,E,151158,A,A*5D
$IIHDG,030,,,01,E*10
$IIMTW,+22.5,C*3D
$IIMWV,332,R,03.6,N,A*14
$IIMWV,338,T,03.5,N,A*1B
$IIRMC,151158,A,4612.828,N,00610.246,E,00.0,000,260614,01,E,A*07
$IIVHW,,,030,M,00.0,N,,*67
$IIVLW,53348,N,000.7,N*5D
$IIVWR,026,L,03.3,N,,,,*7B
$IIDPT,002.2,+0.7,*40
$IIGLL,4612.828,N,00610.246,E,151200,A,A*53
$IIHDG,030,,,01,E*10
$IIMTW,+22.5,C*3D
$IIMWV,334,R,03.3,N,A*17
$IIMWV,332,T,03.6,N,A*12
$IIRMC,151201,A,4612.828,N,00610.246,E,00.0,000,260614,01,E,A*08
$IIVHW,,,031,M,00.0,N,,*66
$IIVLW,53348,N,000.7,N*5D
$IIVWR,023,L,03.3,N,,,,*7E
$IIDPT,002.2,+0.7,*40
$IIGLL,4612.828,N,00610.246,E,151201,A,A*52
$IIHDG,031,,,01,E*11
$IIMTW,+22.5,C*3D
$IIMWV,337,R,03.3,N,A*14
$IIMWV,337,T,03.3,N,A*12
$IIRMC,151201,A,4612.828,N,00610.246,E,00.0,000,260614,01,E,A*08
$IIVHW,,,031,M,00.0,N,,*66
$IIVLW,53348,N,000.7,N*5D
$IIVWR,031,L,03.3,N,,,,*7D
$IIDPT,002.2,+0.7,*40
$IIGLL,4612.828,N,00610.246,E,151201,A,A*52
$IIHDG,031,,,01,E*11
$IIMTW,+22.5,C*3D
$IIMWV,327,R,03.3,N,A*15
$IIMWV,329,T,03.3,N,A*1D
$IIRMC,151203,A,4612.828,N,00610.245,E,00.0,000,260614,01,E,A*09
$IIVHW,,,029,M,00.0,N,,*6F
$IIVLW,53348,N,000.7,N*5D
$IIVWR,033,L,03.3,N,,,,*7F
$IIDPT,002.2,+0.7,*40
$IIGLL,4612.828,N,00610.245,E,151203,A,A*53
$IIHDG,029,,,01,E*18
$IIMTW,+22.5,C*3D
$IIMWV,336,R,03.3,N,A*15
$IIMWV,327,T,03.3,N,A*13
$IIRMC,151204,A,4612.828,N,00610.245,E,00.0,000,260614,01,E,A*0E
$IIVHW,,,030,M,00.0,N,,*67
$IIVLW,53348,N,000.7,N*5D
$IIVWR,024,L,03.3,N,,,,*79
$IIDPT,002.2,+0.7,*40
$IIGLL,4612.828,N,00610.245,E,151204,A,A*54
$IIHDG,030,,,01,E*10
$IIMTW,+22.5,C*3D
$IIMWV,333,R,03.1,N,A*12
$IIMWV,336,T,03.3,N,A*13
$IIRMC,151205,A,4612.828,N,00610.245,E,00.0,000,260614,01,E,A*0F
$IIVHW,,,030,M,00.0,N,,*67
$IIVLW,53348,N,000.7,N*5D
$IIVWR,027,L,03.1,N,,,,*78
$IIDPT,002.2,+0.7,*40
$IIGLL,4612.828,N,00610.245,E,151205,A,A*55
$IIHDG,030,,,01,E*10
$IIMTW,+22.5,C*3D
$IIMWV,327,R,03.1,N,A*17
$IIMWV,333,T,03.1,N,A*14
$IIRMC,151205,A,4612.828,N,00610.245,E,00.0,000,260614,01,E,A*0F
$IIVHW,,,030,M,00.0,N,,*67
$IIVLW,53348,N,000.7,N*5D
$IIVWR,033,L,03.1,N,,,,*7D
$IIDPT,002.2,+0.7,*40
$IIGLL,4612.828,N,00610.245,E,151206,A,A*56
$IIHDG,030,,,01,E*10
$IIMTW,+22.5,C*3D
$IIMWV,328,R,04.0,N,A*1E
$IIMWV,327,T,03.1,N,A*11
$IIRMC,151206,A,4612.828,N,00610.245,E,00.0,000,260614,01,E,A*0C
$IIVHW,,,030,M,00.0,N,,*67
$IIVLW,53348,N,000.7,N*5D
$IIVWR,029,L,03.5,N,,,,*72
$IIDPT,002.2,+0.7,*40
$IIGLL,4612.829,N,00610.246,E,151208,A,A*5A
$IIHDG,031,,,01,E*11
$IIMTW,+22.5,C*3D
$IIMWV,331,R,03.5,N,A*14
$IIMWV,328,T,04.0,N,A*18
$IIRMC,151208,A,4612.829,N,00610.246,E,00.0,000,260614,01,E,A*00
$IIVHW,,,031,M,00.0,N,,*66
$IIVLW,53348,N,000.7,N*5D
$IIVWR,033,L,03.1,N,,,,*7D
$IIDPT,002.2,+0.7,*40
$IIGLL,4612.829,N,00610.246,E,151208,A,A*5A
$IIHDG,030,,,01,E*10
$IIMTW,+22.5,C*3D
$IIMWV,327,R,03.1,N,A*17
$IIMWV,331,T,03.5,N,A*12
$IIRMC,151208,A,4612.829,N,00610.246,E,00.0,000,260614,01,E,A*00
$IIVHW,,,030,M,00.0,N,,*67
$IIVLW,53348,N,000.7,N*5D
$IIVWR,035,L,04.0,N,,,,*7D
$IIDPT,002.2,+0.7,*40
$IIGLL,4612.828,N,00610.246,E,151210,A,A*52
$IIHDG,030,,,01,E*10
$IIMTW,+22.5,C*3D
$IIMWV,325,R,04.0,N,A*13
$IIMWV,327,T,03.1,N,A*11
$IIRMC,151210,A,4612.828,N,00610.246,E,00.0,000,260614,01,E,A*08
$IIVHW,,,029,M,00.0,N,,*6F
$IIVLW,53348,N,000.7,N*5D
$IIVWR,036,L,03.5,N,,,,*7C
$IIDPT,002.2,+0.7,*40
$IIGLL,4612.828,N,00610.246,E,151210,A,A*52
$IIHDG,029,,,01,E*18
$IIMTW,+22.5,C*3D
$IIMWV,324,R,03.5,N,A*10
$IIMWV,324,T,03.5,N,A*16
$IIRMC,151212,A,4612.828,N,00610.246,E,00.0,000,260614,01,E,A*0A
$IIVHW,,,031,M,00.0,N,,*66
$IIVLW,53348,N,000.7,N*5D
$IIVWR,033,L,03.2,N,,,,*7E
$IIDPT,002.2,+0.7,*40
$IIGLL,4612.828,N,00610.246,E,151212,A,A*50
$IIHDG,031,,,01,E*11
$IIMTW,+22.5,C*3D
$IIMWV,324,R,04.0,N,A*12
$IIMWV,327,T,03.2,N,A*12
$IIRMC,151213,A,4612.828,N,00610.246,E,00.0,000,260614,01,E,A*0B
$IIVHW,,,031,M,00.0,N,,*66
$IIVLW,53348,N,000.7,N*5D
$IIVWR,036,L,04.0,N,,,,*7E
$IIDPT,002.2,+0.7,*40
$IIGLL,4612.828,N,00610.246,E,151213,A,A*51
$IIHDG,031,,,01,E*11
$IIMTW,+22.5,C*3D
$IIMWV,326,R,03.7,N,A*10
$IIMWV,324,T,04.0,N,A*14
$IIRMC,151214,A,4612.828,N,00610.246,E,00.0,000,260614,01,E,A*0C
$IIVHW,,,030,M,00.0,N,,*67
$IIVLW,53348,N,000.7,N*5D
$IIVWR,034,L,03.7,N,,,,*7C
$IIDPT,002.2,+0.7,*40
$IIGLL,4612.828,N,00610.246,E,151214,A,A*56
$IIHDG,030,,,01,E*10
$IIMTW,+22.5,C*3D
$IIMWV,328,R,02.8,N,A*10
$IIMWV,327,T,03.1,N,A*11
$IIRMC,151216,A,4612.828,N,00610.246,E,00.0,000,260614,01,E,A*0E
$IIVHW,,,030,M,00.0,N,,*67
$IIVLW,53348,N,000.7,N*5D
$IIVWR,032,L,02.8,N,,,,*74
$IIDPT,002.2,+0.7,*40
$IIGLL,4612.828,N,00610.246,E,151216,A,A*54
$IIHDG,030,,,01,E*10
$IIMTW,+22.5,C*3D
$IIMWV,324,R,02.7,N,A*13
$IIMWV,328,T,02.8,N,A*16
$IIRMC,151216,A,4612.828,N,00610.246,E,00.0,000,260614,01,E,A*0E
$IIVHW,,,030,M,00.0,N,,*67
$IIVLW,53348,N,000.7,N*5D
$IIVWR,036,L,02.7,N,,,,*7F
$IIDPT,002.2,+0.7,*40
$IIGLL,4612.828,N,00610.246,E,151216,A,A*54
$IIHDG,031,,,01,E*11
$IIMTW,+22.5,C*3D
$IIMWV,324,R,02.6,N,A*12
$IIMWV,324,T,02.7,N,A*15
$IIRMC,151216,A,4612.828,N,00610.246,E,00.0,000,260614,01,E,A*0E
$IIVHW,,,031,M,00.0,N,,*66
$IIVLW,53348,N,000.7,N*5D
$IIVWR,033,L,03.9,N,,,,*75
$IIDPT,002.2,+0.7,*40
$IIGLL,4612.828,N,00610.246,E,151216,A,A*54
$IIHDG,030,,,01,E*10
$IIMTW,+22.5,C*3D
$IIMWV,327,R,03.9,N,A*1F
$IIMWV,324,T,02.6,N,A*14
$IIRMC,151216,A,4612.828,N,00610.246,E,00.0,000,260614,01,E,A*0E
$IIVHW,,,030,M,00.0,N,,*67
$IIVLW,53348,N,000.7,N*5D
$IIVWR,034,L,03.6,N,,,,*7D
$IIDPT,002.2,+0.7,*40
$IIGLL,4612.828,N,00610.246,E,151216,A,A*54
$IIHDG,030,,,01,E*10
$IIMTW,+22.5,C*3D
$IIMWV,326,R,03.6,N,A*11
$IIMWV,327,T,03.9,N,A*19
$IIRMC,151216,A,4612.828,N,00610.246,E,00.0,000,260614,01,E,A*0E
$IIVHW,,,030,M,00.0,N,,*67
$IIVLW,53348,N,000.7,N*5D
$IIVWR,036,L,03.2,N,,,,*7B
$IIDPT,002.2,+0.7,*40
$IIGLL,4612.828,N,00610.246,E,151216,A,A*54
$IIHDG,030,,,01,E*10
$IIMTW,+22.5,C*3D
$IIMWV,324,R,03.2,N,A*17
$IIMWV,326,T,03.6,N,A*17
$IIRMC,151216,A,4612.828,N,00610.246,E,00.0,000,260614,01,E,A*0E
$IIVHW,,,030,M,00.0,N,,*67
$IIVLW,53348,N,000.7,N*5D
$IIVWR,037,L,02.9,N,,,,*70
$IIDPT,002.2,+0.7,*40
$IIGLL,4612.828,N,00610.246,E,151216,A,A*54
$IIHDG,030,,,01,E*10
$IIMTW,+22.5,C*3D
$IIMWV,323,R,02.9,N,A*1A
$IIMWV,323,T,02.9,N,A*1C
$IIRMC,151216,A,4612.828,N,00610.246,E,00.0,000,260614,01,E,A*0E
$IIVHW,,,030,M,00.0,N,,*67
$IIVLW,53348,N,000.7,N*5D
$IIVWR,035,L,03.9,N,,,,*73
$IIDPT,002.2,+0.7,*40
$IIGLL,4612.828,N,00610.246,E,151216,A,A*54
$IIHDG,030,,,01,E*10
$IIMTW,+22.5,C*3D
$IIMWV,324,R,03.1,N,A*14
$IIMWV,325,T,03.9,N,A*1B
$IIRMC,151216,A,4612.828,N,00610.246,E,00.0,000,260614,01,E,A*0E
$IIVHW,,,030,M,00.0,N,,*67
$IIVLW,53348,N,000.7,N*5D
$IIVWR,036,L,03.1,N,,,,*78
$IIDPT,002.2,+0.7,*40
$IIGLL,4612.828,N,00610.246,E,151216,A,A*54
$IIHDG,030,,,01,E*10
$IIMTW,+22.5,C*3D
$IIMWV,324,R,04.0,N,A*12
$IIMWV,324,T,03.1,N,A*12
$IIRMC,151216,A,4612.828,N,00610.246,E,00.0,000,260614,01,E,A*0E
$IIVHW,,,030,M,00.0,N,,*67
$IIVLW,53348,N,000.7,N*5D
$IIVWR,036,L,04.0,N,,,,*7E
$IIDPT,002.2,+0.7,*40
$IIGLL,4612.828,N,00610.246,E,151216,A,A*54
$IIHDG,031,,,01,E*11
$IIMTW,+22.5,C*3D
$IIMWV,322,R,03.3,N,A*10
$IIMWV,324,T,04.0,N,A*14
$IIRMC,151216,A,4612.828,N,00610.246,E,00.0,000,260614,01,E,A*0E
$IIVHW,,,031,M,00.0,N,,*66
$IIVLW,53348,N,000.7,N*5D
$IIVWR,038,L,03.3,N,,,,*74
$IIDPT,002.2,+0.7,*40
$IIGLL,4612.828,N,00610.246,E,151216,A,A*54
$IIHDG,030,,,01,E*10
$IIMTW,+22.5,C*3D
$IIMWV,323,R,04.1,N,A*14
$IIMWV,322,T,03.3,N,A*16
$IIRMC,151216,A,4612.828,N,00610.246,E,00.0,000,260614,01,E,A*0E
$IIVHW,,,030,M,00.0,N,,*67
$IIVLW,53348,N,000.7,N*5D
$IIVWR,037,L,04.1,N,,,,*7E
$IIDPT,002.2,+0.7,*40
$IIGLL,4612.828,N,00610.246,E,151216,A,A*54
$IIHDG,031,,,01,E*11
$IIMTW,+22.5,C*3D
$IIMWV,322,R,03.3,N,A*10
$IIMWV,323,T,04.1,N,A*12
$IIRMC,151216,A,4612.828,N,00610.246,E,00.0,000,260614,01,E,A*0E
$IIVHW,,,031,M,00.0,N,,*66
$IIVLW,53348,N,000.7,N*5D
$IIVWR,039,L,02.7,N,,,,*70
$IIDPT,002.2,+0.7,*40
$IIGLL,4612.828,N,00610.246,E,151216,A,A*54
$IIHDG,030,,,01,E*10
$IIMTW,+22.5,C*3D
$IIMWV,321,R,02.7,N,A*16
$IIMWV,322,T,03.3,N,A*16
$IIRMC,151216,A,4612.828,N,00610.246,E,00.0,000,260614,01,E,A*0E
$IIVHW,,,030,M,00.0,N,,*67
$IIVLW,53348,N,000.7,N*5D
$IIVWR,037,L,03.9,N,,,,*71
$IIDPT,002.2,+0.7,*40
$IIGLL,4612.828,N,00610.246,E,151216,A,A*54
$IIHDG,031,,,01,E*11
$IIMTW,+22.5,C*3D
$IIMWV,323,R,03.9,N,A*1B
$IIMWV,321,T,02.7,N,A*10
$IIRMC,151216,A,4612.828,N,00610.246,E,00.0,000,260614,01,E,A*0E
$IIVHW,,,031,M,00.0,N,,*66
$IIVLW,53348,N,000.7,N*5D
$IIVWR,038,L,03.3,N,,,,*74
$IIDPT,002.2,+0.7,*40
$IIGLL,4612.828,N,00610.246,E,151216,A,A*54
$IIHDG,031,,,01,E*11
$IIMTW,+22.5,C*3D
$IIMWV,322,R,03.3,N,A*10
$IIMWV,323,T,03.9,N,A*1D
$IIRMC,151216,A,4612.828,N,00610.246,E,00.0,000,260614,01,E,A*0E
$IIVHW,,,030,M,00.0,N,,*67
$IIVLW,53348,N,000.7,N*5D
$IIVWR,006,L,04.1,N,,,,*7C
$IIDPT,002.2,+0.7,*40
$IIGLL,4612.828,N,00610.246,E,151216,A,A*54
$IIHDG,030,,,01,E*10
$IIMTW,+22.5,C*3D
$IIMWV,354,R,04.1,N,A*14
$IIMWV,354,T,04.1,N,A*12
$IIRMC,151216,A,4612.828,N,00610.246,E,00.0,000,260614,01,E,A*0E
$IIVHW,,,031,M,00.0,N,,*66
$IIVLW,53348,N,000.7,N*5D
$IIVWR,041,L,03.3,N,,,,*7A
$IIDPT,002.2,+0.7,*40
$IIGLL,4612.828,N,00610.246,E,151216,A,A*54
$IIHDG,031,,,01,E*11
$IIMTW,+22.5,C*3D
$IIMWV,319,R,02.9,N,A*13
$IIMWV,319,T,03.3,N,A*1E
$IIRMC,151216,A,4612.828,N,00610.246,E,00.0,000,260614,01,E,A*0E
$IIVHW,,,031,M,00.0,N,,*66
$IIVLW,53348,N,000.7,N*5D
$IIVWR,041,L,02.9,N,,,,*71
$IIDPT,002.2,+0.7,*40
$IIGLL,4612.828,N,00610.246,E,151216,A,A*54
$IIHDG,031,,,01,E*11
$IIMTW,+22.5,C*3D
$IIMWV,317,R,04.0,N,A*12
$IIMWV,319,T,02.9,N,A*15
$IIRMC,151216,A,4612.828,N,00610.246,E,00.0,000,260614,01,E,A*0E
$IIVHW,,,031,M,00.0,N,,*66
$IIVLW,53348,N,000.7,N*5D
$IIVWR,043,L,04.0,N,,,,*7C
$IIDPT,002.2,+0.7,*40
$IIGLL,4612.828,N,00610.246,E,151216,A,A*54
$IIHDG,030,,,01,E*10
$IIMTW,+22.5,C*3D
$IIMWV,315,R,03.2,N,A*15
$IIMWV,316,T,03.7,N,A*15
$IIRMC,151216,A,4612.828,N,00610.246,E,00.0,000,260614,01,E,A*0E
$IIVHW,,,030,M,00.0,N,,*67
$IIVLW,53348,N,000.7,N*5D
$IIVWR,045,L,03.2,N,,,,*7F
$IIDPT,002.2,+0.7,*40
$IIGLL,4612.828,N,00610.246,E,151216,A,A*54
$IIHDG,031,,,01,E*11
$IIMTW,+22.5,C*3D
$IIMWV,314,R,03.1,N,A*17
$IIMWV,315,T,03.2,N,A*13
$IIRMC,151216,A,4612.828,N,00610.246,E,00.0,000,260614,01,E,A*0E
$IIVHW,,,031,M,00.0,N,,*66
$IIVLW,53348,N,000.7,N*5D
$IIVWR,046,L,03.1,N,,,,*7F
$IIDPT,002.2,+0.7,*40
$IIGLL,4612.828,N,00610.246,E,151216,A,A*54
$IIHDG,031,,,01,E*11
$IIMTW,+22.5,C*3D
$IIMWV,314,R,02.6,N,A*11
$IIMWV,314,T,03.1,N,A*11
$IIRMC,151216,A,4612.828,N,00610.246,E,00.0,000,260614,01,E,A*0E
$IIVHW,,,031,M,00.0,N,,*66
$IIVLW,53348,N,000.7,N*5D
$IIVWR,046,L,03.9,N,,,,*77
$IIDPT,002.2,+0.7,*40
$IIGLL,4612.828,N,00610.246,E,151216,A,A*54
$IIHDG,030,,,01,E*10
$IIMTW,+22.5,C*3D
$IIMWV,314,R,03.9,N,A*1F
$IIMWV,314,T,02.6,N,A*17
$IIRMC,151216,A,4612.828,N,00610.246,E,00.0,000,260614,01,E,A*0E
$IIVHW,,,030,M,00.0,N,,*67
$IIVLW,53348,N,000.7,N*5D
$IIVWR,044,L,03.1,N,,,,*7D
$IIDPT,002.2,+0.7,*40
$IIGLL,4612.828,N,00610.246,E,151216,A,A*54
$IIHDG,030,,,01,E*10
$IIMTW,+22.5,C*3D
$IIMWV,316,R,03.1,N,A*15
$IIMWV,314,T,03.9,N,A*19
$IIRMC,151216,A,4612.828,N,00610.246,E,00.0,000,260614,01,E,A*0E
$IIVHW,,,031,M,00.0,N,,*66
$IIVLW,53348,N,000.7,N*5D
$IIVWR,045,L,02.8,N,,,,*74
$IIDPT,002.2,+0.7,*40
$IIGLL,4612.828,N,00610.246,E,151216,A,A*54
$IIHDG,031,,,01,E*11
$IIMTW,+22.5,C*3D
$IIMWV,315,R,02.8,N,A*1E
$IIMWV,316,T,03.1,N,A*13
$IIRMC,151216,A,4612.828,N,00610.246,E,00.0,000,260614,01,E,A*0E
$IIVHW,,,030,M,00.0,N,,*67
$IIVLW,53348,N,000.7,N*5D
$IIVWR,046,L,02.6,N,,,,*79
$IIDPT,002.2,+0.7,*40
$IIGLL,4612.828,N,00610.246,E,151216,A,A*54
$IIHDG,030,,,01,E*10
$IIMTW,+22.5,C*3D
$IIMWV,314,R,02.6,N,A*11
$IIMWV,314,T,02.6,N,A*17
$IIRMC,151216,A,4612.828,N,00610.246,E,00.0,000,260614,01,E,A*0E
$IIVHW,,,030,M,00.0,N,,*67
$IIVLW,53348,N,000.7,N*5D
$IIVWR,045,L,03.9,N,,,,*74
$IIDPT,002.2,+0.7,*40
$IIGLL,4612.828,N,00610.246,E,151216,A,A*54
$IIHDG,030,,,01,E*10
$IIMTW,+22.5,C*3D
$IIMWV,315,R,03.5,N,A*12
$IIMWV,315,T,03.9,N,A*18
$IIRMC,151216,A,4612.828,N,00610.246,E,00.0,000,260614,01,E,A*0E
$IIVHW,,,030,M,00.0,N,,*67
$IIVLW,53348,N,000.7,N*5D
$IIVWR,045,L,03.5,N,,,,*78
$IIDPT,002.2,+0.7,*40
$IIGLL,4612.828,N,00610.246,E,151216,A,A*54
$IIHDG,030,,,01,E*10
$IIMTW,+22.5,C*3D
$IIMWV,314,R,03.3,N,A*15
$IIMWV,315,T,03.5,N,A*14
$IIRMC,151216,A,4612.828,N,00610.246,E,00.0,000,260614,01,E,A*0E
$IIVHW,,,030,M,00.0,N,,*67
$IIVLW,53348,N,000.7,N*5D
$IIVWR,046,L,03.3,N,,,,*7D
$IIDPT,002.2,+0.7,*40
$IIGLL,4612.828,N,00610.246,E,151216,A,A*54
$IIHDG,030,,,01,E*10
$IIMTW,+22.5,C*3D
$IIMWV,316,R,03.3,N,A*17
$IIMWV,316,T,03.3,N,A*11
$IIRMC,151216,A,4612.828,N,00610.246,E,00.0,000,260614,01,E,A*0E
$IIVHW,,,030,M,00.0,N,,*67
$IIVLW,53348,N,000.7,N*5D
$IIVWR,044,L,03.3,N,,,,*7F
