$IIGLL,4614.530,N,00610.621,E,103144,A,A*50
$IIHDG,110,,,,*57
$IIMTW,+17.5,C*3B
$IIMWV,058,R,12.7,N,A*1A
$IIMWV,084,T,10.5,N,A*1D
$IIRMB,A,0.00,L,,OUC ,,,,,024.25,049,03.2,V,A*1D
$IIRMC,103144,A,4614.530,N,00610.621,E,06.0,107,110708,,,A*46
$IIVHW,,,110,M,05.7,N,,*66
$IIVWR,057,R,12.4,N,,,,*64
$IIDPT,038.4,-1.0,*4F
$IIGLL,4614.530,N,00610.621,E,103144,A,A*50
$IIHDG,111,,,,*56
$IIMTW,+17.5,C*3B
$IIMWV,057,R,12.4,N,A*16
$IIMWV,085,T,10.7,N,A*1E
$IIRMC,103144,A,4614.530,N,00610.621,E,06.0,107,110708,,,A*46
$IIVHW,,,111,M,05.7,N,,*67
$IIVWR,058,R,12.3,N,,,,*6C
$IIDPT,036.7,-1.0,*42
$IIGLL,4614.528,N,00610.626,E,103146,A,A*5C
$IIHDG,111,,,,*56
$IIMTW,+17.5,C*3B
$IIMWV,058,R,12.3,N,A*1E
$IIMWV,085,T,10.4,N,A*1D
$IIRMB,A,0.00,L,,OUC ,,,,,024.25,049,03.2,V,A*1D
$IIRMC,103146,A,4614.528,N,00610.626,E,06.1,109,110708,,,A*45
$IIVHW,,,111,M,05.7,N,,*67
$IIVWR,059,R,12.6,N,,,,*68
$IIDPT,036.7,-1.0,*42
$IIGLL,4614.528,N,00610.626,E,103146,A,A*5C
$IIHDG,111,,,,*56
$IIMTW,+17.5,C*3B
$IIMWV,059,R,12.6,N,A*1A
$IIMWV,086,T,10.8,N,A*12
$IIRMB,A,0.00,L,,OUC ,,,,,024.24,049,03.1,V,A*1F
$IIRMC,103148,A,4614.527,N,00610.631,E,06.0,109,110708,,,A*43
$IIVHW,,,112,M,05.7,N,,*64
$IIVWR,057,R,12.9,N,,,,*69
$IIDPT,036.7,-1.0,*42
$IIGLL,4614.527,N,00610.631,E,103148,A,A*5B
$IIHDG,113,,,,*54
$IIMTW,+17.5,C*3B
$IIMWV,055,R,13.0,N,A*11
$IIMWV,084,T,10.8,N,A*10
$IIRMC,103148,A,4614.527,N,00610.631,E,06.0,109,110708,,,A*43
$IIVHW,,,113,M,05.7,N,,*65
$IIVWR,055,R,13.0,N,,,,*63
$IIDPT,010.6,-1.0,*47
$IIGLL,4614.526,N,00610.635,E,103150,A,A*57
$IIHDG,113,,,,*54
$IIMTW,+17.5,C*3B
$IIMWV,055,R,12.6,N,A*16
$IIMWV,081,T,10.7,N,A*1A
$IIRMB,A,0.01,L,,OUC ,,,,,024.24,049,02.8,V,A*16
$IIRMC,103150,A,4614.526,N,00610.635,E,06.1,113,110708,,,A*45
$IIVHW,,,113,M,05.7,N,,*65
$IIVWR,057,R,13.0,N,,,,*61
$IIDPT,010.6,-1.0,*47
$IIGLL,4614.526,N,00610.635,E,103150,A,A*57
$IIHDG,113,,,,*54
$IIMTW,+17.5,C*3B
$IIMWV,057,R,13.0,N,A*13
$IIMWV,082,T,10.3,N,A*1D
$IIRMC,103150,A,4614.526,N,00610.635,E,06.1,113,110708,,,A*45
$IIVHW,,,112,M,05.7,N,,*64
$IIVWR,056,R,12.6,N,,,,*67
$IIDPT,010.6,-1.0,*47
$IIGLL,4614.525,N,00610.640,E,103152,A,A*54
$IIHDG,112,,,,*55
$IIMTW,+17.5,C*3B
$IIMWV,056,R,12.6,N,A*15
$IIMWV,083,T,10.9,N,A*16
$IIRMB,A,0.01,L,,OUC ,,,,,024.24,049,03.0,V,A*1F
$IIRMC,103152,A,4614.525,N,00610.640,E,06.1,109,110708,,,A*4D
$IIVHW,,,112,M,05.7,N,,*64
$IIVWR,053,R,12.4,N,,,,*60
$IIDPT,010.6,-1.0,*47
$IIGLL,4614.525,N,00610.640,E,103152,A,A*54
$IIHDG,112,,,,*55
$IIMTW,+17.5,C*3B
$IIMWV,053,R,12.4,N,A*12
$IIMWV,080,T,10.0,N,A*1C
$IIRMB,A,0.01,L,,OUC ,,,,,024.24,049,03.0,V,A*1F
$IIRMC,103154,A,4614.523,N,00610.645,E,06.0,106,110708,,,A*46
$IIVHW,,,112,M,05.7,N,,*64
$IIVWR,056,R,12.3,N,,,,*62
$IIDPT,024.6,-1.0,*40
$IIGLL,4614.523,N,00610.645,E,103154,A,A*51
$IIHDG,112,,,,*55
$IIMTW,+17.5,C*3B
$IIMWV,057,R,12.2,N,A*10
$IIMWV,084,T,10.2,N,A*1A
$IIRMC,103154,A,4614.523,N,00610.645,E,06.0,106,110708,,,A*46
$IIVHW,,,112,M,05.7,N,,*64
$IIVWR,057,R,12.2,N,,,,*62
$IIDPT,033.1,-1.0,*41
$IIGLL,4614.522,N,00610.649,E,103156,A,A*5E
$IIHDG,111,,,,*56
$IIMTW,+17.5,C*3B
$IIMWV,055,R,11.8,N,A*1B
$IIMWV,085,T,10.2,N,A*1B
$IIRMB,A,0.02,L,,OUC ,,,,,024.24,049,03.0,V,A*1C
$IIRMC,103156,A,4614.522,N,00610.649,E,06.1,110,110708,,,A*4F
$IIVHW,,,111,M,05.6,N,,*66
$IIVWR,056,R,11.5,N,,,,*67
$IIDPT,033.1,-1.0,*41
$IIGLL,4614.522,N,00610.649,E,103156,A,A*5E
$IIHDG,110,,,,*57
$IIMTW,+17.5,C*3B
$IIMWV,056,R,11.5,N,A*15
$IIMWV,084,T,09.6,N,A*16
$IIRMC,103156,A,4614.522,N,00610.649,E,06.1,110,110708,,,A*4F
$IIVHW,,,109,M,05.6,N,,*6F
$IIVWR,057,R,12.3,N,,,,*63
$IIDPT,037.3,-1.0,*47
$IIGLL,4614.521,N,00610.654,E,103158,A,A*5F
$IIHDG,109,,,,*5F
$IIMTW,+17.5,C*3B
$IIMWV,057,R,12.3,N,A*11
$IIMWV,086,T,09.5,N,A*17
$IIRMB,A,0.02,L,,OUC ,,,,,024.24,049,03.2,V,A*1E
$IIRMC,103158,A,4614.521,N,00610.654,E,05.9,104,110708,,,A*40
$IIVHW,,,108,M,05.6,N,,*6E
$IIVWR,059,R,11.8,N,,,,*65
$IIDPT,037.7,-1.0,*43
$IIGLL,4614.521,N,00610.654,E,103158,A,A*5F
$IIHDG,108,,,,*5E
$IIMTW,+17.0,C*3E
$IIMWV,059,R,11.8,N,A*17
$IIMWV,088,T,10.1,N,A*15
$IIRMB,A,0.02,L,,OUC ,,,,,024.23,049,03.4,V,A*1F
$IIRMC,103200,A,4614.520,N,00610.659,E,06.1,106,110708,,,A*4B
$IIVHW,,,108,M,05.6,N,,*6E
$IIVWR,060,R,12.0,N,,,,*64
$IIDPT,037.7,-1.0,*43
$IIGLL,4614.520,N,00610.659,E,103200,A,A*5D
$IIHDG,106,,,,*50
$IIMTW,+17.0,C*3E
$IIMWV,061,R,12.1,N,A*16
$IIMWV,088,T,10.4,N,A*10
$IIRMC,103200,A,4614.520,N,00610.659,E,06.1,106,110708,,,A*4B
$IIVHW,,,106,M,05.7,N,,*61
$IIVWR,061,R,12.1,N,,,,*64
$IIDPT,037.8,-1.0,*4C
$IIGLL,4614.519,N,00610.664,E,103202,A,A*5B
$IIHDG,101,,,,*57
$IIMTW,+17.0,C*3E
$IIMWV,000,R,00.0,N,A*13
$IIMWV,090,T,10.5,N,A*18
$IIRMB,A,0.03,L,,OUC ,,,,,024.23,049,03.4,V,A*1E
$IIRMC,103202,A,4614.519,N,00610.664,E,06.0,101,110708,,,A*4B
$IIVHW,,,101,M,05.6,N,,*67
$IIVWR,069,R,11.7,N,,,,*69
$IIDPT,037.9,-1.0,*4D
$IIGLL,4614.519,N,00610.664,E,103202,A,A*5B
$IIHDG,095,,,,*5B
$IIMTW,+17.0,C*3E
$IIMWV,069,R,11.7,N,A*1B
$IIMWV,000,T,05.7,N,A*17
$IIRMC,103202,A,4614.519,N,00610.664,E,06.0,101,110708,,,A*4B
$IIVHW,,,089,M,05.6,N,,*66
$IIVWR,076,R,11.9,N,,,,*69
$IIDPT,037.6,-1.0,*42
$IIGLL,4614.518,N,00610.669,E,103204,A,A*51
$IIHDG,089,,,,*56
$IIMTW,+17.0,C*3E
$IIMWV,076,R,11.9,N,A*1B
$IIMWV,098,T,10.9,N,A*1C
$IIRMB,A,0.03,L,,OUC ,,,,,024.23,049,03.7,V,A*1D
$IIRMC,103204,A,4614.518,N,00610.669,E,06.0,099,110708,,,A*41
$IIVHW,,,079,M,05.7,N,,*68
$IIVWR,082,R,11.6,N,,,,*6D
$IIDPT,037.6,-1.0,*42
$IIGLL,4614.518,N,00610.669,E,103204,A,A*51
$IIHDG,079,,,,*59
$IIMTW,+17.0,C*3E
$IIMWV,082,R,11.6,N,A*1F
$IIMWV,110,T,12.1,N,A*17
$IIRMB,A,0.03,L,,OUC ,,,,,024.23,049,04.0,V,A*1D
$IIRMC,103206,A,4614.518,N,00610.674,E,05.8,092,110708,,,A*4F
$IIVHW,,,070,M,05.7,N,,*61
$IIVWR,088,R,11.4,N,,,,*65
$IIDPT,038.2,-1.0,*49
$IIGLL,4614.518,N,00610.674,E,103206,A,A*5F
$IIHDG,060,,,,*51
$IIMTW,+17.0,C*3E
$IIMWV,103,R,10.4,N,A*14
$IIMWV,115,T,12.6,N,A*15
$IIRMC,103206,A,4614.518,N,00610.674,E,05.8,092,110708,,,A*4F
$IIVHW,,,060,M,05.7,N,,*60
$IIVWR,103,R,10.4,N,,,,*66
$IIDPT,038.2,-1.0,*49
$IIGLL,4614.518,N,00610.678,E,103208,A,A*5D
$IIHDG,050,,,,*52
$IIMTW,+17.0,C*3E
$IIMWV,124,R,09.5,N,A*18
$IIMWV,128,T,12.7,N,A*1A
$IIRMB,A,0.03,L,,OUC ,,,,,024.22,049,04.6,V,A*1A
$IIRMC,103208,A,4614.518,N,00610.678,E,05.6,080,110708,,,A*40
$IIVHW,,,050,M,05.7,N,,*63
$IIVWR,140,R,09.0,N,,,,*6D
$IIDPT,038.3,-1.0,*48
$IIGLL,4614.518,N,00610.678,E,103208,A,A*5D
$IIHDG,041,,,,*52
$IIMTW,+17.0,C*3E
$IIMWV,140,R,09.0,N,A*1F
$IIMWV,145,T,13.4,N,A*13
$IIRMC,103208,A,4614.518,N,00610.678,E,05.6,080,110708,,,A*40
$IIVHW,,,031,M,05.6,N,,*65
$IIVWR,158,R,08.8,N,,,,*6D
$IIDPT,038.3,-1.0,*48
$IIGLL,4614.519,N,00610.683,E,103210,A,A*51
$IIHDG,031,,,,*55
$IIMTW,+17.0,C*3E
$IIMWV,158,R,08.8,N,A*1F
$IIMWV,156,T,13.8,N,A*1D
$IIRMB,A,0.03,L,,OUC ,,,,,024.22,049,05.0,V,A*1D
$IIRMC,103210,A,4614.519,N,00610.683,E,05.5,071,110708,,,A*41
$IIVHW,,,025,M,05.5,N,,*63
$IIVWR,162,R,08.7,N,,,,*6B
$IIDPT,038.3,-1.0,*48
$IIGLL,4614.519,N,00610.683,E,103210,A,A*51
$IIHDG,025,,,,*50
$IIMTW,+17.0,C*3E
$IIMWV,162,R,08.7,N,A*19
$IIMWV,169,T,13.9,N,A*10
$IIRMB,A,0.04,L,,OUC ,,,,,024.22,049,05.1,V,A*1B
$IIRMC,103212,A,4614.520,N,00610.686,E,04.8,017,110708,,,A*40
$IIVHW,,,016,M,05.4,N,,*62
$IIVWR,171,R,08.0,N,,,,*6E
$IIDPT,038.3,-1.0,*48
$IIGLL,4614.520,N,00610.686,E,103212,A,A*5C
$IIHDG,006,,,,*51
$IIMTW,+17.5,C*3B
$IIMWV,196,R,07.2,N,A*18
$IIMWV,175,T,13.4,N,A*10
$IIRMC,103212,A,4614.520,N,00610.686,E,04.8,017,110708,,,A*40
$IIVHW,,,006,M,05.4,N,,*63
$IIVWR,164,L,07.2,N,,,,*79
$IIDPT,010.6,-1.0,*47
$IIGLL,4614.523,N,00610.686,E,103214,A,A*59
$IIHDG,351,,,,*50
$IIMTW,+17.5,C*3B
$IIMWV,211,R,07.9,N,A*1F
$IIMWV,189,T,12.4,N,A*12
$IIRMB,A,0.03,L,,OUC ,,,,,024.22,049,03.9,V,A*12
$IIRMC,103214,A,4614.523,N,00610.686,E,04.8,356,110708,,,A*43
$IIVHW,,,351,M,05.3,N,,*65
$IIVWR,136,L,08.7,N,,,,*74
$IIDPT,010.6,-1.0,*47
$IIGLL,4614.523,N,00610.686,E,103214,A,A*59
$IIHDG,348,,,,*58
$IIMTW,+17.5,C*3B
$IIMWV,224,R,08.7,N,A*18
$IIMWV,199,T,12.7,N,A*10
$IIRMC,103214,A,4614.523,N,00610.686,E,04.8,356,110708,,,A*43
$IIVHW,,,340,M,05.1,N,,*67
$IIVWR,126,L,09.3,N,,,,*70
$IIDPT,010.4,-1.0,*45
$IIGLL,4614.526,N,00610.686,E,103216,A,A*5E
$IIHDG,340,,,,*50
$IIMTW,+20.5,C*3F
$IIMWV,234,R,09.3,N,A*1C
$IIMWV,207,T,12.9,N,A*1A
$IIRMB,A,0.03,L,,OUC ,,,,,024.21,049,02.7,V,A*1E
$IIRMC,103216,A,4614.526,N,00610.686,E,05.3,344,110708,,,A*4D
$IIVHW,,,336,M,05.1,N,,*66
$IIVWR,120,L,09.5,N,,,,*70
$IIDPT,010.4,-1.0,*45
$IIGLL,4614.526,N,00610.686,E,103216,A,A*5E
$IIHDG,336,,,,*51
$IIMTW,+18.0,C*31
$IIMWV,240,R,09.5,N,A*19
$IIMWV,220,T,12.7,N,A*11
$IIRMB,A,0.03,L,,OUC ,,,,,024.21,049,02.1,V,A*18
$IIRMC,103218,A,4614.529,N,00610.684,E,05.2,340,110708,,,A*4B
$IIVHW,,,330,M,05.1,N,,*60
$IIVWR,113,L,10.1,N,,,,*7C
$IIDPT,010.4,-1.0,*45
$IIGLL,4614.529,N,00610.684,E,103218,A,A*5D
$IIHDG,326,,,,*50
$IIMTW,+20.5,C*3F
$IIMWV,248,R,09.8,N,A*1C
$IIMWV,226,T,12.8,N,A*18
$IIRMC,103218,A,4614.529,N,00610.684,E,05.2,340,110708,,,A*4B
$IIVHW,,,326,M,05.0,N,,*66
$IIVWR,112,L,09.8,N,,,,*7C
$IIDPT,010.4,-1.0,*45
$IIGLL,4614.532,N,00610.683,E,103220,A,A*5B
$IIHDG,324,,,,*52
$IIMTW,+20.5,C*3F
$IIMWV,252,R,10.1,N,A*16
$IIMWV,226,T,12.5,N,A*15
$IIRMB,A,0.02,L,,OUC ,,,,,024.21,049,01.4,V,A*1F
$IIRMC,103220,A,4614.532,N,00610.683,E,05.2,333,110708,,,A*49
$IIVHW,,,324,M,05.0,N,,*64
$IIVWR,106,L,10.2,N,,,,*7B
$IIDPT,038.4,-1.0,*4F
$IIGLL,4614.532,N,00610.683,E,103220,A,A*5B
$IIHDG,326,,,,*50
$IIMTW,+20.5,C*3F
$IIMWV,254,R,10.2,N,A*13
$IIMWV,229,T,12.5,N,A*1A
$IIRMC,103220,A,4614.532,N,00610.683,E,05.2,333,110708,,,A*49
$IIVHW,,,326,M,05.0,N,,*66
$IIVWR,100,L,10.1,N,,,,*7E
$IIDPT,038.4,-1.0,*4F
$IIGLL,4614.534,N,00610.681,E,103222,A,A*5D
$IIHDG,326,,,,*50
$IIMTW,+17.5,C*3B
$IIMWV,260,R,10.1,N,A*17
$IIMWV,231,T,12.4,N,A*12
$IIRMB,A,0.02,L,,OUC ,,,,,024.21,049,01.0,V,A*1B
$IIRMC,103222,A,4614.534,N,00610.681,E,05.1,329,110708,,,A*47
$IIVHW,,,323,M,05.0,N,,*63
$IIVWR,100,L,09.5,N,,,,*72
$IIDPT,038.4,-1.0,*4F
$IIGLL,4614.534,N,00610.681,E,103222,A,A*5D
$IIHDG,323,,,,*55
$IIMTW,+17.5,C*3B
$IIMWV,260,R,09.5,N,A*1B
$IIMWV,235,T,11.4,N,A*15
$IIRMB,A,0.02,L,,OUC ,,,,,024.21,049,00.8,V,A*12
$IIRMC,103224,A,4614.537,N,00610.679,E,05.1,327,110708,,,A*4B
$IIVHW,,,321,M,05.0,N,,*61
$IIVWR,095,L,09.0,N,,,,*7A
$IIDPT,012.7,-1.0,*44
$IIGLL,4614.537,N,00610.679,E,103224,A,A*5F
$IIHDG,322,,,,*54
$IIMTW,+17.5,C*3B
$IIMWV,264,R,09.1,N,A*1B
$IIMWV,237,T,10.7,N,A*15
$IIRMC,103224,A,4614.537,N,00610.679,E,05.1,327,110708,,,A*4B
$IIVHW,,,322,M,05.0,N,,*62
$IIVWR,096,L,09.1,N,,,,*78
$IIDPT,010.6,-1.0,*47
$IIGLL,4614.539,N,00610.676,E,103226,A,A*5C
$IIHDG,317,,,,*52
$IIMTW,+17.5,C*3B
$IIMWV,264,R,09.2,N,A*18
$IIMWV,236,T,10.8,N,A*1B
$IIRMB,A,0.02,L,,OUC ,,,,,024.21,049,00.3,V,A*19
$IIRMC,103226,A,4614.539,N,00610.676,E,05.3,320,110708,,,A*4D
$IIVHW,,,317,M,05.0,N,,*64
$IIVWR,097,L,09.7,N,,,,*7F
$IIDPT,010.4,-1.0,*45
$IIGLL,4614.539,N,00610.676,E,103226,A,A*5C
$IIHDG,315,,,,*50
$IIMTW,+17.5,C*3B
$IIMWV,263,R,09.7,N,A*1A
$IIMWV,237,T,10.9,N,A*1B
$IIRMC,103226,A,4614.539,N,00610.676,E,05.3,320,110708,,,A*4D
$IIVHW,,,314,M,05.0,N,,*67
$IIVWR,096,L,10.1,N,,,,*70
$IIDPT,010.4,-1.0,*45
$IIGLL,4614.541,N,00610.674,E,103228,A,A*5F
$IIHDG,314,,,,*51
$IIMTW,+17.5,C*3B
$IIMWV,264,R,10.1,N,A*13
$IIMWV,237,T,11.3,N,A*10
$IIRMB,A,0.01,L,,OUC ,,,,,024.21,049,00.0,V,A*19
$IIRMC,103228,A,4614.541,N,00610.674,E,05.2,319,110708,,,A*45
$IIVHW,,,312,M,05.0,N,,*61
$IIVWR,094,L,10.5,N,,,,*76
$IIDPT,010.4,-1.0,*45
$IIGLL,4614.541,N,00610.674,E,103228,A,A*5F
$IIHDG,312,,,,*57
$IIMTW,+17.5,C*3B
$IIMWV,266,R,10.5,N,A*15
$IIMWV,241,T,11.9,N,A*1B
$IIRMB,A,0.01,L,,OUC ,,,,,024.21,049,-00.4,V,A*30
$IIRMC,103230,A,4614.543,N,00610.671,E,05.0,316,110708,,,A*46
$IIVHW,,,311,M,05.0,N,,*62
$IIVWR,092,L,10.6,N,,,,*73
$IIDPT,010.4,-1.0,*45
$IIGLL,4614.543,N,00610.671,E,103230,A,A*51
$IIHDG,306,,,,*52
$IIMTW,+17.5,C*3B
$IIMWV,271,R,11.2,N,A*15
$IIMWV,243,T,11.8,N,A*18
$IIRMC,103230,A,4614.543,N,00610.671,E,05.0,316,110708,,,A*46
$IIVHW,,,306,M,05.0,N,,*64
$IIVWR,089,L,11.2,N,,,,*7C
$IIDPT,037.6,-1.0,*42
$IIGLL,4614.545,N,00610.668,E,103232,A,A*5D
$IIHDG,302,,,,*56
$IIMTW,+17.5,C*3B
$IIMWV,275,R,11.6,N,A*15
$IIMWV,247,T,12.1,N,A*16
$IIRMB,A,0.01,L,,OUC ,,,,,024.21,049,-00.2,V,A*36
$IIRMC,103232,A,4614.545,N,00610.668,E,05.0,316,110708,,,A*4A
$IIVHW,,,302,M,05.0,N,,*60
$IIVWR,080,L,11.8,N,,,,*7F
$IIDPT,038.4,-1.0,*4F
$IIGLL,4614.545,N,00610.668,E,103232,A,A*5D
$IIHDG,298,,,,*54
$IIMTW,+17.5,C*3B
$IIMWV,280,R,11.8,N,A*11
$IIMWV,251,T,12.2,N,A*12
$IIRMC,103232,A,4614.545,N,00610.668,E,05.0,316,110708,,,A*4A
$IIVHW,,,295,M,05.0,N,,*6F
$IIVWR,076,L,12.8,N,,,,*75
$IIDPT,038.2,-1.0,*49
$IIGLL,4614.547,N,00610.665,E,103234,A,A*54
$IIHDG,295,,,,*59
$IIMTW,+17.5,C*3B
$IIMWV,284,R,12.8,N,A*16
$IIMWV,255,T,11.8,N,A*1F
$IIRMB,A,0.00,L,,OUC ,,,,,024.21,049,-00.5,V,A*30
$IIRMC,103234,A,4614.547,N,00610.665,E,04.6,309,110708,,,A*4A
$IIVHW,,,293,M,05.0,N,,*69
$IIVWR,074,L,12.9,N,,,,*76
$IIDPT,038.2,-1.0,*49
$IIGLL,4614.547,N,00610.665,E,103234,A,A*54
$IIHDG,293,,,,*5F
$IIMTW,+20.0,C*3A
$IIMWV,286,R,12.9,N,A*15
$IIMWV,263,T,12.3,N,A*12
$IIRMB,A,0.00,L,,OUC ,,,,,024.21,049,-00.9,V,A*3C
$IIRMC,103236,A,4614.549,N,00610.662,E,04.7,305,110708,,,A*4C
$IIVHW,,,294,M,05.0,N,,*6E
$IIVWR,071,L,12.6,N,,,,*7C
$IIDPT,039.7,-1.0,*4D
$IIGLL,4614.549,N,00610.662,E,103236,A,A*5F
$IIHDG,295,,,,*59
$IIMTW,+20.5,C*3F
$IIMWV,288,R,12.0,N,A*12
$IIMWV,265,T,11.9,N,A*1D
$IIRMC,103236,A,4614.549,N,00610.662,E,04.7,305,110708,,,A*4C
$IIVHW,,,295,M,05.0,N,,*6F
$IIVWR,072,L,12.0,N,,,,*79
$IIDPT,039.7,-1.0,*4D
$IIGLL,4614.551,N,00610.659,E,103238,A,A*50
$IIHDG,293,,,,*5F
$IIMTW,+20.5,C*3F
$IIMWV,286,R,12.4,N,A*18
$IIMWV,263,T,11.4,N,A*16
$IIRMB,A,0.00,L,,OUC ,,,,,024.21,049,-01.2,V,A*36
$IIRMC,103238,A,4614.551,N,00610.659,E,04.7,305,110708,,,A*43
$IIVHW,,,293,M,05.1,N,,*68
$IIVWR,072,L,12.7,N,,,,*7E
$IIDPT,046.1,-1.0,*43
$IIGLL,4614.551,N,00610.659,E,103238,A,A*50
$IIHDG,291,,,,*5D
$IIMTW,+17.5,C*3B
$IIMWV,288,R,12.7,N,A*15
$IIMWV,262,T,12.0,N,A*10
$IIRMC,103238,A,4614.551,N,00610.659,E,04.7,305,110708,,,A*43
$IIVHW,,,288,M,05.1,N,,*62
$IIVWR,067,L,12.8,N,,,,*75
$IIDPT,046.1,-1.0,*43
$IIGLL,4614.552,N,00610.656,E,103240,A,A*53
$IIHDG,288,,,,*55
$IIMTW,+17.5,C*3B
$IIMWV,293,R,12.8,N,A*10
$IIMWV,264,T,12.0,N,A*16
$IIRMB,A,0.00,L,,OUC ,,,,,024.21,049,-01.2,V,A*36
$IIRMC,103240,A,4614.552,N,00610.656,E,04.8,304,110708,,,A*4E
$IIVHW,,,287,M,05.1,N,,*6D
$IIVWR,063,L,12.6,N,,,,*7F
$IIDPT,047.2,-1.0,*41
$IIGLL,4614.552,N,00610.656,E,103240,A,A*53
$IIHDG,287,,,,*5A
$IIMTW,+17.5,C*3B
$IIMWV,297,R,12.6,N,A*1A
$IIMWV,272,T,11.2,N,A*10
$IIRMB,A,0.01,R,,OUC ,,,,,024.21,049,-01.5,V,A*2E
$IIRMC,103242,A,4614.554,N,00610.653,E,04.9,298,110708,,,A*4A
$IIVHW,,,284,M,05.2,N,,*6D
$IIVWR,062,L,12.8,N,,,,*70
$IIDPT,047.2,-1.0,*41
$IIGLL,4614.554,N,00610.653,E,103242,A,A*52
$IIHDG,281,,,,*5C
$IIMTW,+17.0,C*3E
$IIMWV,299,R,13.0,N,A*13
$IIMWV,274,T,11.2,N,A*16
$IIRMC,103242,A,4614.554,N,00610.653,E,04.9,298,110708,,,A*4A
$IIVHW,,,281,M,05.2,N,,*68
$IIVWR,061,L,13.0,N,,,,*7A
$IIDPT,017.9,-1.0,*4F
$IIGLL,4614.555,N,00610.650,E,103244,A,A*56
$IIHDG,280,,,,*5D
$IIMTW,+17.0,C*3E
$IIMWV,302,R,13.1,N,A*11
$IIMWV,275,T,11.3,N,A*16
$IIRMB,A,0.01,R,,OUC ,,,,,024.22,049,-01.9,V,A*21
$IIRMC,103244,A,4614.555,N,00610.650,E,05.0,295,110708,,,A*4B
$IIVHW,,,280,M,05.2,N,,*69
$IIVWR,057,L,12.7,N,,,,*79
$IIDPT,017.7,-1.0,*41
$IIGLL,4614.555,N,00610.650,E,103244,A,A*56
$IIHDG,279,,,,*5B
$IIMTW,+17.0,C*3E
$IIMWV,303,R,12.7,N,A*17
$IIMWV,278,T,11.2,N,A*1A
$IIRMC,103244,A,4614.555,N,00610.650,E,05.0,295,110708,,,A*4B
$IIVHW,,,281,M,05.3,N,,*69
$IIVWR,000,R,00.0,N,,,,*61
$IIDPT,017.7,-1.0,*41
$IIGLL,4614.556,N,00610.646,E,103246,A,A*50
$IIHDG,281,,,,*5C
$IIMTW,+17.0,C*3E
$IIMWV,000,R,00.0,N,A*13
$IIMWV,278,T,10.7,N,A*1E
$IIRMB,A,0.01,R,,OUC ,,,,,024.22,049,-02.4,V,A*2F
$IIRMC,103246,A,4614.556,N,00610.646,E,05.2,291,110708,,,A*4B
$IIVHW,,,282,M,05.3,N,,*6A
$IIVWR,060,L,12.8,N,,,,*72
$IIDPT,017.7,-1.0,*41
$IIGLL,4614.556,N,00610.646,E,103246,A,A*50
$IIHDG,282,,,,*5F
$IIMTW,+17.0,C*3E
$IIMWV,300,R,12.8,N,A*1B
$IIMWV,275,T,11.1,N,A*14
$IIRMB,A,0.01,R,,OUC ,,,,,024.22,049,-02.5,V,A*2E
$IIRMC,103248,A,4614.557,N,00610.642,E,05.3,292,110708,,,A*42
$IIVHW,,,287,M,05.3,N,,*6F
$IIVWR,063,L,12.5,N,,,,*7C
$IIDPT,017.7,-1.0,*41
$IIGLL,4614.557,N,00610.642,E,103248,A,A*5B
$IIHDG,287,,,,*5A
$IIMTW,+17.0,C*3E
$IIMWV,295,R,12.7,N,A*19
$IIMWV,271,T,11.1,N,A*10
$IIRMC,103248,A,4614.557,N,00610.642,E,05.3,292,110708,,,A*42
$IIVHW,,,287,M,05.3,N,,*6F
$IIVWR,065,L,12.7,N,,,,*78
$IIDPT,017.7,-1.0,*41
$IIGLL,4614.558,N,00610.638,E,103250,A,A*50
$IIHDG,289,,,,*54
$IIMTW,+17.0,C*3E
$IIMWV,292,R,12.5,N,A*1C
$IIMWV,270,T,11.5,N,A*15
$IIRMB,A,0.02,R,,OUC ,,,,,024.22,049,-02.4,V,A*2C
$IIRMC,103250,A,4614.558,N,00610.638,E,05.3,294,110708,,,A*4F
$IIVHW,,,289,M,05.4,N,,*66
$IIVWR,068,L,12.8,N,,,,*7A
$IIDPT,017.7,-1.0,*41
$IIGLL,4614.558,N,00610.638,E,103250,A,A*50
$IIHDG,291,,,,*5D
$IIMTW,+17.0,C*3E
$IIMWV,292,R,12.8,N,A*11
$IIMWV,266,T,11.6,N,A*11
$IIRMC,103250,A,4614.558,N,00610.638,E,05.3,294,110708,,,A*4F
$IIVHW,,,289,M,05.4,N,,*66
$IIVWR,066,L,13.0,N,,,,*7D
$IIDPT,017.7,-1.0,*41
$IIGLL,4614.559,N,00610.634,E,103252,A,A*5F
$IIHDG,289,,,,*54
$IIMTW,+17.0,C*3E
$IIMWV,294,R,13.0,N,A*1E
$IIMWV,266,T,11.9,N,A*1E
$IIRMB,A,0.02,R,,OUC ,,,,,024.22,049,-02.4,V,A*2C
$IIRMC,103252,A,4614.559,N,00610.634,E,05.4,293,110708,,,A*40
$IIVHW,,,290,M,05.5,N,,*6F
$IIVWR,066,L,13.5,N,,,,*78
$IIDPT,017.7,-1.0,*41
$IIGLL,4614.559,N,00610.634,E,103252,A,A*5F
$IIHDG,290,,,,*5C
$IIMTW,+17.0,C*3E
$IIMWV,294,R,13.5,N,A*1B
$IIMWV,270,T,12.2,N,A*11
$IIRMB,A,0.02,R,,OUC ,,,,,024.22,049,-02.3,V,A*2B
$IIRMC,103254,A,4614.560,N,00610.630,E,05.5,292,110708,,,A*48
$IIVHW,,,290,M,05.5,N,,*6F
$IIVWR,069,L,13.8,N,,,,*7A
$IIDPT,047.9,-1.0,*4A
$IIGLL,4614.560,N,00610.630,E,103254,A,A*57
$IIHDG,289,,,,*54
$IIMTW,+17.0,C*3E
$IIMWV,290,R,14.3,N,A*1E
$IIMWV,267,T,12.8,N,A*1D
$IIRMC,103254,A,4614.560,N,00610.630,E,05.5,292,110708,,,A*48
$IIVHW,,,289,M,05.5,N,,*67
$IIVWR,070,L,14.3,N,,,,*7E
$IIDPT,050.9,-1.0,*4C
$IIGLL,4614.561,N,00610.626,E,103256,A,A*53
$IIHDG,290,,,,*5C
$IIMTW,+17.0,C*3E
$IIMWV,291,R,13.8,N,A*13
$IIMWV,266,T,13.4,N,A*11
$IIRMB,A,0.02,R,,OUC ,,,,,024.22,049,-02.4,V,A*2C
$IIRMC,103256,A,4614.561,N,00610.626,E,05.6,294,110708,,,A*49
$IIVHW,,,290,M,05.5,N,,*6F
$IIVWR,068,L,13.9,N,,,,*7A
$IIDPT,050.9,-1.0,*4C
$IIGLL,4614.561,N,00610.626,E,103256,A,A*53
$IIHDG,290,,,,*5C
$IIMTW,+17.0,C*3E
$IIMWV,292,R,13.9,N,A*11
$IIMWV,267,T,12.8,N,A*1D
$IIRMC,103256,A,4614.561,N,00610.626,E,05.6,294,110708,,,A*49
$IIVHW,,,291,M,05.6,N,,*6D
$IIVWR,069,L,13.6,N,,,,*74
$IIDPT,057.4,-1.0,*46
$IIGLL,4614.563,N,00610.621,E,103258,A,A*58
$IIHDG,291,,,,*5D
$IIMTW,+17.0,C*3E
$IIMWV,291,R,13.6,N,A*1D
$IIMWV,268,T,12.9,N,A*13
$IIRMB,A,0.03,R,,OUC ,,,,,024.23,049,-02.3,V,A*2B
$IIRMC,103258,A,4614.563,N,00610.621,E,05.6,294,110708,,,A*42
$IIVHW,,,293,M,05.6,N,,*6F
$IIVWR,071,L,13.7,N,,,,*7C
$IIDPT,046.7,-1.0,*45
$IIGLL,4614.563,N,00610.621,E,103258,A,A*58
$IIHDG,293,,,,*5F
$IIMTW,+17.0,C*3E
$IIMWV,289,R,13.7,N,A*15
$IIMWV,265,T,13.0,N,A*16
$IIRMB,A,0.03,R,,OUC ,,,,,024.23,049,-02.4,V,A*2C
$IIRMC,103300,A,4614.564,N,00610.617,E,05.6,296,110708,,,A*4E
$IIVHW,,,293,M,05.7,N,,*6E
$IIVWR,072,L,13.8,N,,,,*70
$IIDPT,046.7,-1.0,*45
$IIGLL,4614.564,N,00610.617,E,103300,A,A*56
$IIHDG,296,,,,*5A
$IIMTW,+17.0,C*3E
$IIMWV,289,R,13.5,N,A*17
$IIMWV,263,T,13.1,N,A*11
$IIRMC,103300,A,4614.564,N,00610.617,E,05.6,296,110708,,,A*4E
$IIVHW,,,296,M,05.7,N,,*6B
$IIVWR,071,L,13.5,N,,,,*7E
$IIDPT,048.0,-1.0,*4C
$IIGLL,4614.565,N,00610.613,E,103302,A,A*51
$IIHDG,297,,,,*5B
$IIMTW,+17.0,C*3E
$IIMWV,284,R,13.3,N,A*1C
$IIMWV,263,T,12.7,N,A*16
$IIRMB,A,0.03,R,,OUC ,,,,,024.23,049,-02.0,V,A*28
$IIRMC,103302,A,4614.565,N,00610.613,E,05.7,297,110708,,,A*49
$IIVHW,,,297,M,05.7,N,,*6A
$IIVWR,077,L,13.3,N,,,,*7E
$IIDPT,048.1,-1.0,*4D
$IIGLL,4614.567,N,00610.609,E,103304,A,A*5E
$IIHDG,299,,,,*55
$IIMTW,+17.0,C*3E
$IIMWV,283,R,13.3,N,A*1B
$IIMWV,258,T,13.1,N,A*19
$IIRMB,A,0.04,R,,OUC ,,,,,024.23,049,-02.2,V,A*2D
$IIRMC,103304,A,4614.567,N,00610.609,E,05.8,298,110708,,,A*46
$IIVHW,,,300,M,05.7,N,,*65
$IIVWR,077,L,13.1,N,,,,*7C
$IIDPT,048.0,-1.0,*4C
$IIGLL,4614.567,N,00610.609,E,103304,A,A*5E
$IIHDG,300,,,,*54
$IIMTW,+17.0,C*3E
$IIMWV,283,R,13.1,N,A*19
$IIMWV,257,T,13.0,N,A*17
$IIRMB,A,0.04,R,,OUC ,,,,,024.23,049,-02.0,V,A*2F
$IIRMC,103306,A,4614.568,N,00610.605,E,05.8,299,110708,,,A*46
$IIVHW,,,302,M,05.8,N,,*68
$IIVWR,077,L,13.1,N,,,,*7C
$IIDPT,039.2,-1.0,*48
$IIGLL,4614.568,N,00610.605,E,103306,A,A*5F
$IIHDG,301,,,,*55
$IIMTW,+17.0,C*3E
$IIMWV,283,R,13.2,N,A*1A
$IIMWV,257,T,13.0,N,A*17
$IIRMC,103306,A,4614.568,N,00610.605,E,05.8,299,110708,,,A*46
$IIVHW,,,301,M,05.8,N,,*6B
$IIVWR,077,L,13.2,N,,,,*7F
$IIDPT,039.2,-1.0,*48
$IIGLL,4614.570,N,00610.601,E,103308,A,A*5C
$IIHDG,301,,,,*55
$IIMTW,+17.0,C*3E
$IIMWV,282,R,13.2,N,A*1B
$IIMWV,257,T,13.1,N,A*16
$IIRMB,A,0.04,R,,OUC ,,,,,024.23,049,-01.8,V,A*24
$IIRMC,103308,A,4614.570,N,00610.601,E,06.0,302,110708,,,A*4D
$IIVHW,,,301,M,05.8,N,,*6B
$IIVWR,081,L,13.2,N,,,,*76
$IIDPT,021.7,-1.0,*44
$IIGLL,4614.570,N,00610.601,E,103308,A,A*5C
$IIHDG,304,,,,*50
$IIMTW,+17.0,C*3E
$IIMWV,279,R,13.2,N,A*1F
$IIMWV,256,T,13.2,N,A*14
$IIRMC,103308,A,4614.570,N,00610.601,E,06.0,302,110708,,,A*4D
$IIVHW,,,304,M,05.9,N,,*6F
$IIVWR,085,L,13.1,N,,,,*71
$IIDPT,021.7,-1.0,*44
$IIGLL,4614.572,N,00610.597,E,103310,A,A*5B
$IIHDG,304,,,,*50
$IIMTW,+17.0,C*3E
$IIMWV,275,R,13.1,N,A*10
$IIMWV,254,T,13.5,N,A*11
$IIRMB,A,0.04,R,,OUC ,,,,,024.23,049,-01.6,V,A*2A
$IIRMC,103310,A,4614.572,N,00610.597,E,06.0,304,110708,,,A*4C
$IIVHW,,,305,M,05.9,N,,*6E
$IIVWR,084,L,12.7,N,,,,*77
$IIDPT,021.7,-1.0,*44
$IIGLL,4614.572,N,00610.597,E,103310,A,A*5B
$IIHDG,305,,,,*51
$IIMTW,+17.0,C*3E
$IIMWV,276,R,12.7,N,A*14
$IIMWV,249,T,13.3,N,A*1B
$IIRMB,A,0.05,R,,OUC ,,,,,024.23,049,-01.6,V,A*2B
$IIRMC,103312,A,4614.574,N,00610.593,E,06.1,306,110708,,,A*4F
$IIVHW,,,308,M,06.0,N,,*69
$IIVWR,083,L,12.5,N,,,,*72
$IIDPT,021.7,-1.0,*44
$IIGLL,4614.574,N,00610.593,E,103312,A,A*5B
$IIHDG,308,,,,*5C
$IIMTW,+17.0,C*3E
$IIMWV,275,R,12.8,N,A*18
$IIMWV,250,T,13.0,N,A*10
$IIRMC,103312,A,4614.574,N,00610.593,E,06.1,306,110708,,,A*4F
$IIVHW,,,308,M,06.0,N,,*69
$IIVWR,085,L,12.8,N,,,,*79
$IIDPT,049.3,-1.0,*4E
$IIGLL,4614.576,N,00610.589,E,103314,A,A*54
$IIHDG,311,,,,*54
$IIMTW,+17.0,C*3E
$IIMWV,271,R,12.5,N,A*11
$IIMWV,249,T,13.7,N,A*1F
$IIRMB,A,0.05,R,,OUC ,,,,,024.23,049,-01.4,V,A*29
$IIRMC,103314,A,4614.576,N,00610.589,E,06.1,306,110708,,,A*40
$IIVHW,,,311,M,06.0,N,,*61
$IIVWR,092,L,12.8,N,,,,*7F
$IIDPT,049.3,-1.0,*4E
$IIGLL,4614.576,N,00610.589,E,103314,A,A*54
$IIHDG,312,,,,*57
$IIMTW,+17.0,C*3E
$IIMWV,268,R,12.8,N,A*14
$IIMWV,245,T,13.8,N,A*1C
$IIRMC,103314,A,4614.576,N,00610.589,E,06.1,306,110708,,,A*40
$IIVHW,,,318,M,06.0,N,,*68
$IIVWR,098,L,12.5,N,,,,*78
$IIDPT,040.7,-1.0,*43
$IIGLL,4614.578,N,00610.584,E,103316,A,A*55
$IIHDG,318,,,,*5D
$IIMTW,+17.0,C*3E
$IIMWV,262,R,12.5,N,A*13
$IIMWV,243,T,14.3,N,A*16
$IIRMB,A,0.05,R,,OUC ,,,,,024.24,049,-01.3,V,A*29
$IIRMC,103316,A,4614.578,N,00610.584,E,06.1,309,110708,,,A*4E
$IIVHW,,,324,M,06.0,N,,*67
$IIVWR,102,L,12.4,N,,,,*7B
$IIDPT,040.7,-1.0,*43
$IIGLL,4614.578,N,00610.584,E,103316,A,A*55
$IIHDG,324,,,,*52
$IIMTW,+17.0,C*3E
$IIMWV,258,R,12.4,N,A*1B
$IIMWV,234,T,14.9,N,A*1C
$IIRMB,A,0.06,R,,OUC ,,,,,024.24,049,-00.6,V,A*2E
$IIRMC,103318,A,4614.580,N,00610.581,E,06.6,343,110708,,,A*4B
$IIVHW,,,331,M,06.0,N,,*63
$IIVWR,113,L,11.8,N,,,,*74
$IIDPT,037.6,-1.0,*42
$IIGLL,4614.580,N,00610.581,E,103318,A,A*59
$IIHDG,342,,,,*52
$IIMTW,+17.0,C*3E
$IIMWV,230,R,11.0,N,A*12
$IIMWV,225,T,15.2,N,A*16
$IIRMC,103318,A,4614.580,N,00610.581,E,06.6,343,110708,,,A*4B
$IIVHW,,,342,M,06.0,N,,*67
$IIVWR,130,L,11.0,N,,,,*7D
$IIDPT,037.6,-1.0,*42
$IIGLL,4614.584,N,00610.580,E,103320,A,A*57
$IIHDG,355,,,,*54
$IIMTW,+17.0,C*3E
$IIMWV,205,R,09.3,N,A*1E
$IIMWV,213,T,15.5,N,A*14
$IIRMB,A,0.06,R,,OUC ,,,,,024.23,049,03.7,V,A*6
$IIRMC,103320,A,4614.584,N,00610.580,E,06.0,008,110708,,,A*4F
$IIVHW,,,355,M,06.0,N,,*61
$IIVWR,165,L,06.9,N,,,,*72
$IIDPT,040.5,-1.0,*41
$IIGLL,4614.584,N,00610.580,E,103320,A,A*57
$IIHDG,006,,,,*51
$IIMTW,+17.0,C*3E
$IIMWV,195,R,06.9,N,A*11
$IIMWV,195,T,15.0,N,A*1C
$IIRMC,103320,A,4614.584,N,00610.580,E,06.0,008,110708,,,A*4F
$IIVHW,,,024,M,05.9,N,,*6E
$IIVWR,163,R,06.7,N,,,,*64
$IIDPT,040.6,-1.0,*42
$IIGLL,4614.587,N,00610.581,E,103322,A,A*57
$IIHDG,024,,,,*51
$IIMTW,+17.0,C*3E
$IIMWV,163,R,06.7,N,A*16
$IIMWV,188,T,12.7,N,A*10
$IIRMB,A,0.06,R,,OUC ,,,,,024.23,049,04.4,V,A*2
$IIRMC,103322,A,4614.587,N,00610.581,E,05.0,021,110708,,,A*47
$IIVHW,,,040,M,05.8,N,,*6D
$IIVWR,148,R,07.2,N,,,,*69
$IIDPT,043.4,-1.0,*43
$IIGLL,4614.587,N,00610.581,E,103322,A,A*57
$IIHDG,040,,,,*53
$IIMTW,+17.0,C*3E
$IIMWV,148,R,07.2,N,A*1B
$IIMWV,153,T,12.3,N,A*12
$IIRMB,A,0.06,R,,OUC ,,,,,024.23,049,05.3,V,A*4
$IIRMC,103324,A,4614.589,N,00610.583,E,06.0,042,110708,,,A*4B
$IIVHW,,,068,M,05.6,N,,*69
$IIVWR,120,R,08.8,N,,,,*62
$IIDPT,040.7,-1.0,*43
$IIGLL,4614.589,N,00610.583,E,103324,A,A*5D
$IIHDG,079,,,,*59
$IIMTW,+17.5,C*3B
$IIMWV,108,R,09.3,N,A*10
$IIMWV,143,T,12.5,N,A*15
$IIRMB,A,0.06,R,,OUC ,,,,,024.22,049,05.4,V,A*2
$IIRMC,103326,A,4614.591,N,00610.587,E,05.8,071,110708,,,A*4F
$IIVHW,,,079,M,05.5,N,,*6A
$IIVWR,108,R,09.3,N,,,,*62
$IIDPT,040.6,-1.0,*42
$IIGLL,4614.591,N,00610.587,E,103326,A,A*52
$IIHDG,090,,,,*5E
$IIMTW,+17.0,C*3E
$IIMWV,092,R,09.6,N,A*17
$IIMWV,134,T,12.1,N,A*11
$IIRMC,103326,A,4614.591,N,00610.587,E,05.8,071,110708,,,A*4F
$IIVHW,,,090,M,05.5,N,,*6D
$IIVWR,077,R,10.8,N,,,,*68
$IIDPT,040.6,-1.0,*42
$IIGLL,4614.591,N,00610.592,E,103328,A,A*58
$IIHDG,105,,,,*53
$IIMTW,+17.0,C*3E
$IIMWV,077,R,10.8,N,A*1A
$IIMWV,121,T,11.1,N,A*16
$IIRMB,A,0.06,R,,OUC ,,,,,024.22,049,05.1,V,A*7
$IIRMC,103328,A,4614.591,N,00610.592,E,05.6,083,110708,,,A*46
$IIVHW,,,115,M,05.5,N,,*61
$IIVWR,066,R,12.8,N,,,,*6A
$IIDPT,040.6,-1.0,*42
$IIGLL,4614.591,N,00610.592,E,103328,A,A*58
$IIHDG,115,,,,*52
$IIMTW,+17.0,C*3E
$IIMWV,066,R,12.8,N,A*18
$IIMWV,091,T,11.6,N,A*1B
$IIRMB,A,0.06,R,,OUC ,,,,,024.22,049,04.1,V,A*6
$IIRMC,103330,A,4614.592,N,00610.597,E,05.5,094,110708,,,A*4C
$IIVHW,,,121,M,05.4,N,,*67
$IIVWR,060,R,14.3,N,,,,*61
$IIDPT,040.6,-1.0,*42
$IIGLL,4614.592,N,00610.597,E,103330,A,A*57
$IIHDG,127,,,,*53
$IIMTW,+17.0,C*3E
$IIMWV,059,R,15.2,N,A*19
$IIMWV,083,T,12.5,N,A*18
$IIRMC,103330,A,4614.592,N,00610.597,E,05.5,094,110708,,,A*4C
$IIVHW,,,127,M,05.4,N,,*61
$IIVWR,059,R,15.2,N,,,,*6B
$IIDPT,040.1,-1.0,*45
$IIGLL,4614.591,N,00610.601,E,103332,A,A*5A
$IIHDG,131,,,,*54
$IIMTW,+17.0,C*3E
$IIMWV,054,R,15.1,N,A*17
$IIMWV,080,T,13.2,N,A*1D
$IIRMB,A,0.06,R,,OUC ,,,,,024.22,049,03.6,V,A*6
$IIRMC,103332,A,4614.591,N,00610.601,E,05.5,102,110708,,,A*4F
$IIVHW,,,131,M,05.4,N,,*66
$IIVWR,049,R,15.6,N,,,,*6E
$IIDPT,040.1,-1.0,*45
$IIGLL,4614.591,N,00610.601,E,103332,A,A*5A
$IIHDG,137,,,,*52
$IIMTW,+17.0,C*3E
$IIMWV,049,R,15.6,N,A*1C
$IIMWV,075,T,12.6,N,A*12
$IIRMC,103332,A,4614.591,N,00610.601,E,05.5,102,110708,,,A*4F
$IIVHW,,,136,M,05.4,N,,*61
$IIVWR,051,R,15.8,N,,,,*69
$IIDPT,040.1,-1.0,*45
$IIGLL,4614.590,N,00610.605,E,103334,A,A*59
$IIHDG,136,,,,*53
$IIMTW,+17.0,C*3E
$IIMWV,051,R,15.8,N,A*1B
$IIMWV,068,T,12.6,N,A*1E
$IIRMB,A,0.05,R,,OUC ,,,,,024.22,049,03.0,V,A*3
$IIRMC,103334,A,4614.590,N,00610.605,E,05.4,111,110708,,,A*4F
$IIVHW,,,136,M,05.4,N,,*61
$IIVWR,053,R,16.3,N,,,,*63
$IIDPT,040.1,-1.0,*45
$IIGLL,4614.590,N,00610.605,E,103334,A,A*59
$IIHDG,136,,,,*53
$IIMTW,+17.0,C*3E
$IIMWV,053,R,16.3,N,A*11
$IIMWV,072,T,13.6,N,A*14
$IIRMB,A,0.05,R,,OUC ,,,,,024.21,049,02.3,V,A*2
$IIRMC,103336,A,4614.589,N,00610.609,E,05.2,113,110708,,,A*4D
$IIVHW,,,135,M,05.5,N,,*63
$IIVWR,050,R,16.0,N,,,,*63
$IIDPT,040.1,-1.0,*45
$IIGLL,4614.589,N,00610.609,E,103336,A,A*5F
$IIHDG,136,,,,*53
$IIMTW,+17.0,C*3E
$IIMWV,052,R,16.6,N,A*15
$IIMWV,069,T,13.1,N,A*19
$IIRMC,103336,A,4614.589,N,00610.609,E,05.2,113,110708,,,A*4D
$IIVHW,,,136,M,05.5,N,,*60
$IIVWR,052,R,16.6,N,,,,*67
$IIDPT,040.1,-1.0,*45
$IIGLL,4614.588,N,00610.613,E,103338,A,A*5B
$IIHDG,137,,,,*52
$IIMTW,+17.0,C*3E
$IIMWV,051,R,16.8,N,A*18
$IIMWV,070,T,13.9,N,A*19
$IIRMB,A,0.05,R,,OUC ,,,,,024.21,049,02.0,V,A*1
$IIRMC,103338,A,4614.588,N,00610.613,E,05.3,120,110708,,,A*48
$IIVHW,,,137,M,05.5,N,,*61
$IIVWR,051,R,16.8,N,,,,*6A
$IIDPT,010.7,-1.0,*46
$IIGLL,4614.588,N,00610.613,E,103338,A,A*5B
$IIHDG,136,,,,*53
$IIMTW,+17.0,C*3E
$IIMWV,051,R,16.8,N,A*18
$IIMWV,069,T,14.0,N,A*1F
$IIRMC,103338,A,4614.588,N,00610.613,E,05.3,120,110708,,,A*48
$IIVHW,,,138,M,05.5,N,,*6E
$IIVWR,050,R,15.8,N,,,,*68
$IIDPT,010.7,-1.0,*46
$IIGLL,4614.586,N,00610.617,E,103340,A,A*5E
$IIHDG,138,,,,*5D
$IIMTW,+17.0,C*3E
$IIMWV,050,R,15.8,N,A*1A
$IIMWV,069,T,14.0,N,A*1F
$IIRMB,A,0.05,R,,OUC ,,,,,024.21,049,01.5,V,A*7
$IIRMC,103340,A,4614.586,N,00610.617,E,05.4,123,110708,,,A*49
$IIVHW,,,137,M,05.5,N,,*61
$IIVWR,050,R,15.9,N,,,,*69
$IIDPT,010.7,-1.0,*46
$IIGLL,4614.586,N,00610.617,E,103340,A,A*5E
$IIHDG,137,,,,*52
$IIMTW,+17.0,C*3E
$IIMWV,050,R,15.9,N,A*1B
$IIMWV,069,T,13.0,N,A*18
$IIRMB,A,0.04,R,,OUC ,,,,,024.21,049,01.4,V,A*7
$IIRMC,103342,A,4614.585,N,00610.620,E,05.9,128,110708,,,A*4A
$IIVHW,,,138,M,05.5,N,,*6E
$IIVWR,049,R,15.9,N,,,,*61
$IIDPT,010.7,-1.0,*46
$IIGLL,4614.585,N,00610.620,E,103342,A,A*5B
$IIHDG,137,,,,*52
$IIMTW,+17.0,C*3E
$IIMWV,044,R,16.6,N,A*12
$IIMWV,068,T,12.8,N,A*10
$IIRMC,103342,A,4614.585,N,00610.620,E,05.9,128,110708,,,A*4A
$IIVHW,,,137,M,05.5,N,,*61
$IIVWR,044,R,16.6,N,,,,*60
$IIDPT,010.7,-1.0,*46
$IIGLL,4614.582,N,00610.624,E,103344,A,A*5E
$IIHDG,136,,,,*53
$IIMTW,+17.0,C*3E
$IIMWV,049,R,16.2,N,A*1B
$IIMWV,061,T,13.0,N,A*10
$IIRMB,A,0.04,R,,OUC ,,,,,024.21,049,01.2,V,A*1
$IIRMC,103344,A,4614.582,N,00610.624,E,05.8,128,110708,,,A*4E
$IIVHW,,,136,M,05.5,N,,*60
$IIVWR,051,R,16.0,N,,,,*62
$IIDPT,038.8,-1.0,*43
$IIGLL,4614.582,N,00610.624,E,103344,A,A*5E
$IIHDG,135,,,,*50
$IIMTW,+19.5,C*35
$IIMWV,051,R,16.0,N,A*10
$IIMWV,068,T,13.0,N,A*19
$IIRMC,103344,A,4614.582,N,00610.624,E,05.8,128,110708,,,A*4E
$IIVHW,,,135,M,05.5,N,,*63
$IIVWR,046,R,14.5,N,,,,*63
$IIDPT,038.8,-1.0,*43
$IIGLL,4614.580,N,00610.628,E,103346,A,A*52
$IIHDG,135,,,,*50
$IIMTW,+17.5,C*3B
$IIMWV,046,R,14.5,N,A*11
$IIMWV,070,T,13.1,N,A*11
$IIRMB,A,0.04,R,,OUC ,,,,,024.21,049,01.1,V,A*2
$IIRMC,103346,A,4614.580,N,00610.628,E,05.8,127,110708,,,A*4D
$IIVHW,,,136,M,05.5,N,,*60
$IIVWR,050,R,14.6,N,,,,*67
$IIDPT,038.8,-1.0,*43
$IIGLL,4614.580,N,00610.628,E,103346,A,A*52
$IIHDG,136,,,,*53
$IIMTW,+17.5,C*3B
$IIMWV,050,R,14.6,N,A*15
$IIMWV,071,T,11.8,N,A*1B
$IIRMB,A,0.03,R,,OUC ,,,,,024.21,049,01.2,V,A*6
$IIRMC,103348,A,4614.578,N,00610.631,E,05.8,127,110708,,,A*4C
$IIVHW,,,137,M,05.5,N,,*61
$IIVWR,051,R,15.9,N,,,,*68
$IIDPT,038.8,-1.0,*43
$IIGLL,4614.578,N,00610.631,E,103348,A,A*53
$IIHDG,138,,,,*5D
$IIMTW,+17.0,C*3E
$IIMWV,051,R,16.6,N,A*16
$IIMWV,070,T,13.1,N,A*11
$IIRMC,103348,A,4614.578,N,00610.631,E,05.8,127,110708,,,A*4C
$IIVHW,,,138,M,05.5,N,,*6E
$IIVWR,051,R,16.6,N,,,,*64
$IIDPT,037.5,-1.0,*41
$IIGLL,4614.576,N,00610.635,E,103350,A,A*50
$IIHDG,140,,,,*52
$IIMTW,+17.0,C*3E
$IIMWV,049,R,15.8,N,A*12
$IIMWV,069,T,13.7,N,A*1F
$IIRMB,A,0.03,R,,OUC ,,,,,024.21,049,01.2,V,A*6
$IIRMC,103350,A,4614.576,N,00610.635,E,05.7,127,110708,,,A*40
$IIVHW,,,140,M,05.5,N,,*61
$IIVWR,050,R,15.9,N,,,,*69
$IIDPT,037.5,-1.0,*41
$IIGLL,4614.576,N,00610.635,E,103350,A,A*50
$IIHDG,139,,,,*5C
$IIMTW,+17.0,C*3E
$IIMWV,050,R,15.9,N,A*1B
$IIMWV,068,T,12.7,N,A*1F
$IIRMC,103350,A,4614.576,N,00610.635,E,05.7,127,110708,,,A*40
$IIVHW,,,137,M,05.5,N,,*61
$IIVWR,051,R,15.4,N,,,,*65
$IIDPT,037.6,-1.0,*42
$IIGLL,4614.574,N,00610.639,E,103352,A,A*5C
$IIHDG,137,,,,*52
$IIMTW,+17.0,C*3E
$IIMWV,051,R,15.4,N,A*17
$IIMWV,070,T,13.0,N,A*10
$IIRMB,A,0.03,R,,OUC ,,,,,024.21,049,01.1,V,A*5
$IIRMC,103352,A,4614.574,N,00610.639,E,05.8,129,110708,,,A*4D
$IIVHW,,,136,M,05.5,N,,*60
$IIVWR,051,R,15.7,N,,,,*66
$IIDPT,038.6,-1.0,*4D
$IIGLL,4614.574,N,00610.639,E,103352,A,A*5C
$IIHDG,136,,,,*53
$IIMTW,+17.0,C*3E
$IIMWV,051,R,15.7,N,A*14
$IIMWV,071,T,12.9,N,A*19
$IIRMB,A,0.02,R,,OUC ,,,,,024.21,049,01.0,V,A*5
$IIRMC,103354,A,4614.572,N,00610.642,E,05.7,128,110708,,,A*4F
$IIVHW,,,137,M,05.5,N,,*61
$IIVWR,051,R,15.8,N,,,,*69
$IIDPT,038.6,-1.0,*4D
$IIGLL,4614.572,N,00610.642,E,103354,A,A*50
$IIHDG,139,,,,*5C
$IIMTW,+19.5,C*35
$IIMWV,049,R,15.9,N,A*13
$IIMWV,071,T,13.0,N,A*11
$IIRMC,103354,A,4614.572,N,00610.642,E,05.7,128,110708,,,A*4F
$IIVHW,,,139,M,05.5,N,,*6F
$IIVWR,049,R,15.9,N,,,,*61
$IIDPT,039.2,-1.0,*48
$IIGLL,4614.570,N,00610.646,E,103356,A,A*54
$IIHDG,138,,,,*5D
$IIMTW,+17.0,C*3E
$IIMWV,048,R,15.3,N,A*18
$IIMWV,068,T,12.8,N,A*10
$IIRMB,A,0.02,R,,OUC ,,,,,024.21,049,01.0,V,A*5
$IIRMC,103356,A,4614.570,N,00610.646,E,05.8,130,110708,,,A*4D
$IIVHW,,,138,M,05.5,N,,*6E
$IIVWR,047,R,14.5,N,,,,*62
$IIDPT,039.4,-1.0,*4E
$IIGLL,4614.570,N,00610.646,E,103356,A,A*54
$IIHDG,138,,,,*5D
$IIMTW,+17.0,C*3E
$IIMWV,047,R,14.5,N,A*10
$IIMWV,068,T,12.2,N,A*1A
$IIRMC,103356,A,4614.570,N,00610.646,E,05.8,130,110708,,,A*4D
$IIVHW,,,138,M,05.5,N,,*6E
$IIVWR,048,R,14.0,N,,,,*68
$IIDPT,039.5,-1.0,*4F
$IIGLL,4614.568,N,00610.649,E,103358,A,A*5C
$IIHDG,138,,,,*5D
$IIMTW,+17.0,C*3E
$IIMWV,048,R,14.0,N,A*1A
$IIMWV,068,T,11.3,N,A*18
$IIRMB,A,0.02,R,,OUC ,,,,,024.21,049,00.9,V,A*D
$IIRMC,103358,A,4614.568,N,00610.649,E,06.0,132,110708,,,A*4C
$IIVHW,,,138,M,05.6,N,,*6D
$IIVWR,047,R,14.5,N,,,,*62
$IIDPT,040.2,-1.0,*46
$IIGLL,4614.568,N,00610.649,E,103358,A,A*5C
$IIHDG,138,,,,*5D
$IIMTW,+17.0,C*3E
$IIMWV,047,R,14.5,N,A*10
$IIMWV,068,T,11.3,N,A*18
$IIRMB,A,0.01,R,,OUC ,,,,,024.21,049,00.7,V,A*0
$IIRMC,103400,A,4614.566,N,00610.652,E,05.6,133,110708,,,A*46
$IIVHW,,,139,M,05.6,N,,*6C
$IIVWR,046,R,14.7,N,,,,*61
$IIDPT,040.1,-1.0,*45
$IIGLL,4614.566,N,00610.652,E,103400,A,A*52
$IIHDG,140,,,,*52
$IIMTW,+17.0,C*3E
$IIMWV,046,R,15.4,N,A*11
$IIMWV,067,T,11.4,N,A*10
$IIRMC,103400,A,4614.566,N,00610.652,E,05.6,133,110708,,,A*46
$IIVHW,,,140,M,05.6,N,,*62
$IIVWR,046,R,15.4,N,,,,*63
$IIDPT,039.9,-1.0,*43
$IIGLL,4614.563,N,00610.656,E,103402,A,A*51
$IIHDG,140,,,,*52
$IIMTW,+17.0,C*3E
$IIMWV,048,R,15.7,N,A*1C
$IIMWV,066,T,12.0,N,A*16
$IIRMB,A,0.01,R,,OUC ,,,,,024.21,049,00.6,V,A*1
$IIRMC,103402,A,4614.563,N,00610.656,E,05.8,134,110708,,,A*4C
$IIVHW,,,140,M,05.6,N,,*62
$IIVWR,050,R,16.4,N,,,,*67
$IIDPT,040.2,-1.0,*46
$IIGLL,4614.563,N,00610.656,E,103402,A,A*51
$IIHDG,138,,,,*5D
$IIMTW,+17.0,C*3E
$IIMWV,050,R,16.4,N,A*15
$IIMWV,067,T,12.5,N,A*12
$IIRMC,103402,A,4614.563,N,00610.656,E,05.8,134,110708,,,A*4C
$IIVHW,,,139,M,05.7,N,,*6D
$IIVWR,053,R,15.7,N,,,,*64
$IIDPT,040.2,-1.0,*46
$IIGLL,4614.561,N,00610.659,E,103404,A,A*5A
$IIHDG,139,,,,*5C
$IIMTW,+17.0,C*3E
$IIMWV,053,R,15.7,N,A*16
$IIMWV,070,T,13.4,N,A*14
$IIRMB,A,0.01,R,,OUC ,,,,,024.21,049,00.6,V,A*1
$IIRMC,103404,A,4614.561,N,00610.659,E,06.2,132,110708,,,A*48
$IIVHW,,,140,M,05.8,N,,*6C
$IIVWR,051,R,15.7,N,,,,*66
$IIDPT,039.7,-1.0,*4D
$IIGLL,4614.561,N,00610.659,E,103404,A,A*5A
$IIHDG,140,,,,*52
$IIMTW,+17.0,C*3E
$IIMWV,051,R,15.7,N,A*14
$IIMWV,072,T,12.8,N,A*1B
$IIRMB,A,0.00,L,,OUC ,,,,,024.21,049,00.7,V,A*1F
$IIRMC,103406,A,4614.558,N,00610.663,E,06.3,132,110708,,,A*48
$IIVHW,,,140,M,05.8,N,,*6C
$IIVWR,050,R,15.3,N,,,,*63
$IIDPT,040.1,-1.0,*45
$IIGLL,4614.558,N,00610.663,E,103406,A,A*5B
$IIHDG,140,,,,*52
$IIMTW,+17.0,C*3E
$IIMWV,048,R,15.6,N,A*1D
$IIMWV,072,T,12.3,N,A*10
$IIRMC,103406,A,4614.558,N,00610.663,E,06.3,132,110708,,,A*48
$IIVHW,,,140,M,05.9,N,,*6D
$IIVWR,048,R,15.6,N,,,,*6F
$IIDPT,040.1,-1.0,*45
$IIGLL,4614.556,N,00610.666,E,103408,A,A*5E
$IIHDG,140,,,,*52
$IIMTW,+17.0,C*3E
$IIMWV,048,R,15.3,N,A*18
$IIMWV,069,T,12.3,N,A*1A
$IIRMB,A,0.00,L,,OUC ,,,,,024.21,049,00.7,V,A*1F
$IIRMC,103408,A,4614.556,N,00610.666,E,06.3,133,110708,,,A*4C
$IIVHW,,,140,M,06.0,N,,*67
$IIVWR,049,R,15.2,N,,,,*6A
$IIDPT,039.2,-1.0,*48
$IIGLL,4614.556,N,00610.666,E,103408,A,A*5E
$IIHDG,141,,,,*53
$IIMTW,+17.0,C*3E
$IIMWV,049,R,15.2,N,A*18
$IIMWV,070,T,12.0,N,A*11
$IIRMC,103408,A,4614.556,N,00610.666,E,06.3,133,110708,,,A*4C
$IIVHW,,,142,M,06.2,N,,*67
$IIVWR,049,R,15.0,N,,,,*68
$IIDPT,038.5,-1.0,*4E
$IIGLL,4614.554,N,00610.670,E,103410,A,A*52
$IIHDG,142,,,,*50
$IIMTW,+17.0,C*3E
$IIMWV,049,R,15.0,N,A*1A
$IIMWV,071,T,12.0,N,A*10
$IIRMB,A,0.00,L,,OUC ,,,,,024.21,049,00.6,V,A*1E
$IIRMC,103410,A,4614.554,N,00610.670,E,06.3,133,110708,,,A*40
$IIVHW,,,143,M,06.2,N,,*66
$IIVWR,049,R,15.1,N,,,,*69
$IIDPT,038.5,-1.0,*4E
$IIGLL,4614.554,N,00610.670,E,103410,A,A*52
$IIHDG,143,,,,*51
$IIMTW,+17.0,C*3E
$IIMWV,049,R,15.1,N,A*1B
$IIMWV,073,T,11.8,N,A*19
$IIRMB,A,0.01,L,,OUC ,,,,,024.21,049,00.6,V,A*1F
$IIRMC,103412,A,4614.551,N,00610.674,E,06.4,134,110708,,,A*43
$IIVHW,,,142,M,06.3,N,,*66
$IIVWR,050,R,15.0,N,,,,*60
$IIDPT,038.1,-1.0,*4A
$IIGLL,4614.551,N,00610.674,E,103412,A,A*51
$IIHDG,142,,,,*50
$IIMTW,+17.5,C*3B
$IIMWV,050,R,14.9,N,A*1A
$IIMWV,074,T,11.9,N,A*1F
$IIRMC,103412,A,4614.551,N,00610.674,E,06.4,134,110708,,,A*43
$IIVHW,,,142,M,06.3,N,,*66
$IIVWR,050,R,14.9,N,,,,*68
$IIDPT,038.4,-1.0,*4F
$IIGLL,4614.548,N,00610.677,E,103414,A,A*5C
$IIHDG,142,,,,*50
$IIMTW,+17.5,C*3B
$IIMWV,051,R,14.8,N,A*1A
$IIMWV,074,T,11.8,N,A*1E
$IIRMB,A,0.01,L,,OUC ,,,,,024.20,049,00.6,V,A*1E
$IIRMC,103414,A,4614.548,N,00610.677,E,06.5,133,110708,,,A*48
$IIVHW,,,142,M,06.3,N,,*66
$IIVWR,050,R,14.5,N,,,,*64
$IIDPT,038.6,-1.0,*4D
$IIGLL,4614.546,N,00610.681,E,103416,A,A*59
$IIHDG,138,,,,*5D
$IIMTW,+17.5,C*3B
$IIMWV,050,R,14.5,N,A*16
$IIMWV,074,T,11.9,N,A*1F
$IIRMB,A,0.01,L,,OUC ,,,,,024.20,049,00.7,V,A*1F
$IIRMC,103416,A,4614.546,N,00610.681,E,06.5,133,110708,,,A*4D
$IIVHW,,,137,M,06.3,N,,*64
$IIVWR,051,R,14.4,N,,,,*64
$IIDPT,038.4,-1.0,*4F
$IIGLL,4614.546,N,00610.681,E,103416,A,A*59
$IIHDG,137,,,,*52
$IIMTW,+17.5,C*3B
$IIMWV,051,R,14.4,N,A*16
$IIMWV,076,T,11.5,N,A*11
$IIRMB,A,0.02,L,,OUC ,,,,,024.20,049,00.8,V,A*13
$IIRMC,103418,A,4614.543,N,00610.685,E,06.3,132,110708,,,A*45
$IIVHW,,,138,M,06.2,N,,*6A
$IIVWR,050,R,13.8,N,,,,*6E
$IIDPT,038.4,-1.0,*4F
$IIGLL,4614.543,N,00610.685,E,103418,A,A*56
$IIHDG,138,,,,*5D
$IIMTW,+17.0,C*3E
$IIMWV,049,R,13.5,N,A*19
$IIMWV,077,T,10.8,N,A*1C
$IIRMC,103418,A,4614.543,N,00610.685,E,06.3,132,110708,,,A*45
$IIVHW,,,138,M,06.2,N,,*6A
$IIVWR,049,R,13.5,N,,,,*6B
$IIDPT,037.8,-1.0,*4C
$IIGLL,4614.541,N,00610.688,E,103420,A,A*52
$IIHDG,138,,,,*5D
$IIMTW,+19.5,C*35
$IIMWV,050,R,13.5,N,A*11
$IIMWV,075,T,10.4,N,A*12
$IIRMB,A,0.02,L,,OUC ,,,,,024.20,049,00.8,V,A*13
$IIRMC,103420,A,4614.541,N,00610.688,E,06.3,132,110708,,,A*41
$IIVHW,,,138,M,06.2,N,,*6A
$IIVWR,050,R,13.0,N,,,,*66
$IIDPT,037.8,-1.0,*4C
$IIGLL,4614.541,N,00610.688,E,103420,A,A*52
$IIHDG,138,,,,*5D
$IIMTW,+17.0,C*3E
$IIMWV,050,R,13.0,N,A*14
$IIMWV,078,T,10.5,N,A*1E
$IIRMC,103420,A,4614.541,N,00610.688,E,06.3,132,110708,,,A*41
$IIVHW,,,140,M,06.2,N,,*65
$IIVWR,051,R,13.3,N,,,,*64
$IIDPT,037.3,-1.0,*47
$IIGLL,4614.539,N,00610.692,E,103422,A,A*54
$IIHDG,140,,,,*52
$IIMTW,+17.0,C*3E
$IIMWV,051,R,13.3,N,A*16
$IIMWV,078,T,10.2,N,A*19
$IIRMB,A,0.02,L,,OUC ,,,,,024.20,049,00.8,V,A*13
$IIRMC,103422,A,4614.539,N,00610.692,E,06.3,132,110708,,,A*47
$IIVHW,,,141,M,06.1,N,,*67
$IIVWR,049,R,13.6,N,,,,*68
$IIDPT,037.3,-1.0,*47
$IIGLL,4614.539,N,00610.692,E,103422,A,A*54
$IIHDG,141,,,,*53
$IIMTW,+17.0,C*3E
$IIMWV,049,R,13.6,N,A*1A
$IIMWV,075,T,10.5,N,A*13
$IIRMB,A,0.03,L,,OUC ,,,,,024.20,049,00.8,V,A*12
$IIRMC,103424,A,4614.536,N,00610.696,E,06.4,133,110708,,,A*4C
$IIVHW,,,144,M,06.1,N,,*62
$IIVWR,050,R,13.8,N,,,,*6E
$IIDPT,037.4,-1.0,*40
$IIGLL,4614.536,N,00610.696,E,103424,A,A*59
$IIHDG,148,,,,*5A
$IIMTW,+17.0,C*3E
$IIMWV,048,R,14.2,N,A*18
$IIMWV,076,T,10.9,N,A*1C
$IIRMC,103424,A,4614.536,N,00610.696,E,06.4,133,110708,,,A*4C
$IIVHW,,,148,M,06.1,N,,*6E
$IIVWR,048,R,14.2,N,,,,*6A
$IIDPT,038.0,-1.0,*4B
$IIGLL,4614.534,N,00610.700,E,103426,A,A*57
$IIHDG,150,,,,*53
$IIMTW,+17.0,C*3E
$IIMWV,047,R,14.7,N,A*12
$IIMWV,072,T,11.0,N,A*10
$IIRMB,A,0.03,L,,OUC ,,,,,024.20,049,00.7,V,A*1D
$IIRMC,103426,A,4614.534,N,00610.700,E,06.4,133,110708,,,A*42
$IIVHW,,,150,M,06.1,N,,*67
$IIVWR,045,R,14.8,N,,,,*6D
$IIDPT,037.6,-1.0,*42
$IIGLL,4614.534,N,00610.700,E,103426,A,A*57
$IIHDG,153,,,,*50
$IIMTW,+17.0,C*3E
$IIMWV,045,R,14.8,N,A*1F
$IIMWV,070,T,11.3,N,A*11
$IIRMC,103426,A,4614.534,N,00610.700,E,06.4,133,110708,,,A*42
$IIVHW,,,154,M,06.0,N,,*62
$IIVWR,045,R,15.1,N,,,,*65
$IIDPT,037.5,-1.0,*41
$IIGLL,4614.531,N,00610.703,E,103428,A,A*5F
$IIHDG,154,,,,*57
$IIMTW,+17.0,C*3E
$IIMWV,045,R,15.1,N,A*17
$IIMWV,067,T,11.3,N,A*17
$IIRMB,A,0.03,L,,OUC ,,,,,024.20,049,00.4,V,A*1E
$IIRMC,103428,A,4614.531,N,00610.703,E,06.3,136,110708,,,A*48
$IIVHW,,,155,M,06.0,N,,*63
$IIVWR,043,R,15.6,N,,,,*64
$IIDPT,037.7,-1.0,*43
$IIGLL,4614.531,N,00610.703,E,103428,A,A*5F
$IIHDG,155,,,,*56
$IIMTW,+17.0,C*3E
$IIMWV,043,R,15.6,N,A*16
$IIMWV,063,T,11.8,N,A*18
$IIRMB,A,0.04,L,,OUC ,,,,,024.20,049,00.3,V,A*1E
$IIRMC,103430,A,4614.528,N,00610.707,E,06.2,138,110708,,,A*42
$IIVHW,,,159,M,05.9,N,,*65
$IIVWR,042,R,15.2,N,,,,*61
$IIDPT,037.7,-1.0,*43
$IIGLL,4614.528,N,00610.707,E,103430,A,A*5A
$IIHDG,161,,,,*51
$IIMTW,+17.0,C*3E
$IIMWV,040,R,15.6,N,A*15
$IIMWV,063,T,11.3,N,A*13
$IIRMC,103430,A,4614.528,N,00610.707,E,06.2,138,110708,,,A*42
$IIVHW,,,161,M,05.9,N,,*6E
$IIVWR,040,R,15.6,N,,,,*67
$IIDPT,037.7,-1.0,*43
$IIGLL,4614.525,N,00610.710,E,103432,A,A*53
$IIHDG,163,,,,*53
$IIMTW,+17.0,C*3E
$IIMWV,041,R,15.7,N,A*15
$IIMWV,059,T,11.5,N,A*1C
$IIRMB,A,0.04,L,,OUC ,,,,,024.20,049,-00.2,V,A*32
$IIRMC,103432,A,4614.525,N,00610.710,E,06.2,143,110708,,,A*47
$IIVHW,,,163,M,05.9,N,,*6C
$IIVWR,040,R,15.8,N,,,,*69
$IIDPT,037.8,-1.0,*4C
$IIGLL,4614.525,N,00610.710,E,103432,A,A*53
$IIHDG,164,,,,*54
$IIMTW,+17.0,C*3E
$IIMWV,040,R,15.8,N,A*1B
$IIMWV,061,T,11.7,N,A*15
$IIRMC,103432,A,4614.525,N,00610.710,E,06.2,143,110708,,,A*47
$IIVHW,,,167,M,05.9,N,,*68
$IIVWR,039,R,15.6,N,,,,*69
$IIDPT,037.8,-1.0,*4C
$IIGLL,4614.522,N,00610.713,E,103434,A,A*51
$IIHDG,167,,,,*57
$IIMTW,+17.0,C*3E
$IIMWV,039,R,15.6,N,A*1B
$IIMWV,058,T,11.8,N,A*10
$IIRMB,A,0.05,L,,OUC ,,,,,024.20,049,-00.5,V,A*34
$IIRMC,103434,A,4614.522,N,00610.713,E,06.2,145,110708,,,A*43
$IIVHW,,,167,M,05.8,N,,*69
$IIVWR,039,R,15.9,N,,,,*66
$IIDPT,038.1,-1.0,*4A
$IIGLL,4614.522,N,00610.713,E,103434,A,A*51
$IIHDG,167,,,,*57
$IIMTW,+17.0,C*3E
$IIMWV,039,R,15.9,N,A*14
$IIMWV,057,T,11.9,N,A*1E
$IIRMB,A,0.05,L,,OUC ,,,,,024.20,049,-02.0,V,A*33
$IIRMC,103436,A,4614.519,N,00610.714,E,05.9,159,110708,,,A*4B
$IIVHW,,,165,M,05.8,N,,*6B
$IIVWR,040,R,15.9,N,,,,*68
$IIDPT,038.7,-1.0,*4C
$IIGLL,4614.519,N,00610.714,E,103436,A,A*5C
$IIHDG,166,,,,*56
$IIMTW,+17.0,C*3E
$IIMWV,038,R,15.9,N,A*15
$IIMWV,058,T,11.9,N,A*11
$IIRMC,103436,A,4614.519,N,00610.714,E,05.9,159,110708,,,A*4B
$IIVHW,,,166,M,05.8,N,,*68
$IIVWR,038,R,15.9,N,,,,*67
$IIDPT,038.7,-1.0,*4C
$IIGLL,4614.516,N,00610.716,E,103438,A,A*5F
$IIHDG,169,,,,*59
$IIMTW,+17.0,C*3E
$IIMWV,038,R,15.9,N,A*15
$IIMWV,056,T,11.8,N,A*1E
$IIRMB,A,0.05,L,,OUC ,,,,,024.21,049,-02.1,V,A*33
$IIRMC,103438,A,4614.516,N,00610.716,E,05.9,159,110708,,,A*48
$IIVHW,,,169,M,05.7,N,,*68
$IIVWR,038,R,15.9,N,,,,*67
$IIDPT,037.8,-1.0,*4C
$IIGLL,4614.516,N,00610.716,E,103438,A,A*5F
$IIHDG,168,,,,*58
$IIMTW,+17.0,C*3E
$IIMWV,038,R,15.9,N,A*15
$IIMWV,056,T,11.8,N,A*1E
$IIRMC,103438,A,4614.516,N,00610.716,E,05.9,159,110708,,,A*48
$IIVHW,,,169,M,05.6,N,,*69
$IIVWR,036,R,15.9,N,,,,*69
$IIDPT,037.8,-1.0,*4C
$IIGLL,4614.513,N,00610.717,E,103440,A,A*54
$IIHDG,169,,,,*59
$IIMTW,+17.0,C*3E
$IIMWV,036,R,15.9,N,A*1B
$IIMWV,055,T,11.9,N,A*1C
$IIRMB,A,0.05,L,,OUC ,,,,,024.21,049,-02.0,V,A*32
$IIRMC,103440,A,4614.513,N,00610.717,E,05.1,167,110708,,,A*46
$IIVHW,,,169,M,05.6,N,,*69
$IIVWR,036,R,15.6,N,,,,*66
$IIDPT,037.3,-1.0,*47
$IIGLL,4614.513,N,00610.717,E,103440,A,A*54
$IIHDG,169,,,,*59
$IIMTW,+20.5,C*3F
$IIMWV,036,R,15.6,N,A*14
$IIMWV,053,T,11.5,N,A*16
$IIRMB,A,0.06,L,,OUC ,,,,,024.21,049,-02.5,V,A*34
$IIRMC,103442,A,4614.510,N,00610.718,E,05.5,169,110708,,,A*42
$IIVHW,,,170,M,05.6,N,,*61
$IIVWR,035,R,15.4,N,,,,*67
$IIDPT,037.3,-1.0,*47
$IIGLL,4614.510,N,00610.718,E,103442,A,A*5A
$IIHDG,172,,,,*53
$IIMTW,+17.0,C*3E
$IIMWV,034,R,15.6,N,A*16
$IIMWV,051,T,11.1,N,A*10
$IIRMC,103442,A,4614.510,N,00610.718,E,05.5,169,110708,,,A*42
$IIVHW,,,172,M,05.6,N,,*63
$IIVWR,034,R,15.6,N,,,,*64
$IIDPT,037.3,-1.0,*47
$IIGLL,4614.506,N,00610.719,E,103444,A,A*5A
$IIHDG,174,,,,*55
$IIMTW,+17.0,C*3E
$IIMWV,032,R,16.0,N,A*15
$IIMWV,050,T,11.3,N,A*13
$IIRMB,A,0.06,L,,OUC ,,,,,024.21,049,-02.5,V,A*34
$IIRMC,103444,A,4614.506,N,00610.719,E,05.4,167,110708,,,A*4D
$IIVHW,,,174,M,05.5,N,,*66
$IIVWR,030,R,16.0,N,,,,*65
$IIDPT,036.8,-1.0,*4D
$IIGLL,4614.506,N,00610.719,E,103444,A,A*5A
$IIHDG,174,,,,*55
$IIMTW,+17.0,C*3E
$IIMWV,030,R,16.0,N,A*17
$IIMWV,046,T,11.6,N,A*11
$IIRMC,103444,A,4614.506,N,00610.719,E,05.4,167,110708,,,A*4D
$IIVHW,,,172,M,05.5,N,,*60
$IIVWR,030,R,16.0,N,,,,*65
$IIDPT,036.9,-1.0,*4C
$IIGLL,4614.503,N,00610.719,E,103446,A,A*5D
$IIHDG,172,,,,*53
$IIMTW,+17.0,C*3E
$IIMWV,030,R,16.0,N,A*17
$IIMWV,044,T,11.5,N,A*10
$IIRMB,A,0.06,L,,OUC ,,,,,024.21,049,-02.6,V,A*37
$IIRMC,103446,A,4614.503,N,00610.719,E,05.4,168,110708,,,A*45
$IIVHW,,,172,M,05.4,N,,*61
$IIVWR,030,R,15.6,N,,,,*60
$IIDPT,037.4,-1.0,*40
$IIGLL,4614.503,N,00610.719,E,103446,A,A*5D
$IIHDG,172,,,,*53
$IIMTW,+17.0,C*3E
$IIMWV,030,R,15.6,N,A*12
$IIMWV,044,T,11.1,N,A*14
$IIRMB,A,0.07,L,,OUC ,,,,,024.21,049,-02.6,V,A*36
$IIRMC,103448,A,4614.500,N,00610.720,E,05.4,167,110708,,,A*4D
$IIVHW,,,172,M,05.4,N,,*61
$IIVWR,028,R,15.1,N,,,,*6E
$IIDPT,037.4,-1.0,*40
$IIGLL,4614.500,N,00610.720,E,103448,A,A*5A
$IIHDG,174,,,,*55
$IIMTW,+17.0,C*3E
$IIMWV,028,R,15.3,N,A*1E
$IIMWV,042,T,10.4,N,A*16
$IIRMC,103448,A,4614.500,N,00610.720,E,05.4,167,110708,,,A*4D
$IIVHW,,,174,M,05.3,N,,*60
$IIVWR,028,R,15.3,N,,,,*6C
$IIDPT,037.4,-1.0,*40
$IIGLL,4614.497,N,00610.721,E,103450,A,A*5D
$IIHDG,175,,,,*54
$IIMTW,+20.0,C*3A
$IIMWV,028,R,15.5,N,A*18
$IIMWV,042,T,10.6,N,A*14
$IIRMB,A,0.07,L,,OUC ,,,,,024.22,049,-02.6,V,A*35
$IIRMC,103450,A,4614.497,N,00610.721,E,05.5,168,110708,,,A*44
$IIVHW,,,175,M,05.3,N,,*61
$IIVWR,028,R,15.6,N,,,,*69
$IIDPT,038.3,-1.0,*48
$IIGLL,4614.497,N,00610.721,E,103450,A,A*5D
$IIHDG,175,,,,*54
$IIMTW,+17.0,C*3E
$IIMWV,028,R,15.6,N,A*1B
$IIMWV,041,T,10.9,N,A*18
$IIRMC,103450,A,4614.497,N,00610.721,E,05.5,168,110708,,,A*44
$IIVHW,,,175,M,05.3,N,,*61
$IIVWR,027,R,15.7,N,,,,*67
$IIDPT,037.7,-1.0,*43
$IIGLL,4614.494,N,00610.722,E,103452,A,A*5F
$IIHDG,175,,,,*54
$IIMTW,+17.0,C*3E
$IIMWV,027,R,15.7,N,A*15
$IIMWV,041,T,11.1,N,A*11
$IIRMB,A,0.07,L,,OUC ,,,,,024.22,049,-02.7,V,A*34
$IIRMC,103452,A,4614.494,N,00610.722,E,05.4,169,110708,,,A*46
$IIVHW,,,176,M,05.3,N,,*62
$IIVWR,026,R,15.5,N,,,,*64
$IIDPT,037.3,-1.0,*47
$IIGLL,4614.494,N,00610.722,E,103452,A,A*5F
$IIHDG,176,,,,*57
$IIMTW,+17.0,C*3E
$IIMWV,026,R,15.5,N,A*16
$IIMWV,039,T,10.8,N,A*16
$IIRMB,A,0.07,L,,OUC ,,,,,024.22,049,-02.7,V,A*34
$IIRMC,103454,A,4614.491,N,00610.722,E,05.4,170,110708,,,A*4D
$IIVHW,,,177,M,05.3,N,,*63
$IIVWR,026,R,15.3,N,,,,*62
$IIDPT,037.5,-1.0,*41
$IIGLL,4614.491,N,00610.722,E,103454,A,A*5C
$IIHDG,177,,,,*56
$IIMTW,+19.5,C*35
$IIMWV,026,R,15.2,N,A*11
$IIMWV,039,T,10.6,N,A*18
$IIRMC,103454,A,4614.491,N,00610.722,E,05.4,170,110708,,,A*4D
$IIVHW,,,177,M,05.3,N,,*63
$IIVWR,026,R,15.2,N,,,,*63
$IIDPT,037.5,-1.0,*41
$IIGLL,4614.488,N,00610.723,E,103456,A,A*57
$IIHDG,177,,,,*56
$IIMTW,+17.5,C*3B
$IIMWV,025,R,15.0,N,A*10
$IIMWV,038,T,10.6,N,A*19
$IIRMB,A,0.08,L,,OUC ,,,,,024.22,049,-03.3,V,A*3E
$IIRMC,103456,A,4614.488,N,00610.723,E,05.5,175,110708,,,A*42
$IIVHW,,,177,M,05.2,N,,*62
$IIVWR,023,R,14.7,N,,,,*62
$IIDPT,036.9,-1.0,*4C
$IIGLL,4614.488,N,00610.723,E,103456,A,A*57
$IIHDG,177,,,,*56
$IIMTW,+17.5,C*3B
$IIMWV,023,R,14.7,N,A*10
$IIMWV,037,T,10.4,N,A*14
$IIRMC,103456,A,4614.488,N,00610.723,E,05.5,175,110708,,,A*42
$IIVHW,,,177,M,05.2,N,,*62
$IIVWR,022,R,14.8,N,,,,*6C
$IIDPT,036.7,-1.0,*42
$IIGLL,4614.485,N,00610.723,E,103458,A,A*54
$IIHDG,177,,,,*56
$IIMTW,+17.5,C*3B
$IIMWV,022,R,14.8,N,A*1E
$IIMWV,035,T,09.9,N,A*13
$IIRMB,A,0.08,L,,OUC ,,,,,024.22,049,-03.2,V,A*3F
$IIRMC,103458,A,4614.485,N,00610.723,E,05.4,175,110708,,,A*40
$IIVHW,,,178,M,05.2,N,,*6D
$IIVWR,020,R,14.9,N,,,,*6F
$IIDPT,036.7,-1.0,*42
$IIGLL,4614.485,N,00610.723,E,103458,A,A*54
$IIHDG,178,,,,*59
$IIMTW,+17.5,C*3B
$IIMWV,020,R,14.9,N,A*1D
$IIMWV,030,T,10.1,N,A*16
$IIRMB,A,0.08,L,,OUC ,,,,,024.22,049,-03.0,V,A*3D
$IIRMC,103500,A,4614.482,N,00610.723,E,05.2,174,110708,,,A*4C
$IIVHW,,,178,M,05.2,N,,*6D
$IIVWR,021,R,14.9,N,,,,*6E
$IIDPT,036.7,-1.0,*42
$IIGLL,4614.482,N,00610.723,E,103500,A,A*5F
$IIHDG,179,,,,*58
$IIMTW,+17.5,C*3B
$IIMWV,019,R,14.6,N,A*18
$IIMWV,032,T,10.1,N,A*14
$IIRMC,103500,A,4614.482,N,00610.723,E,05.2,174,110708,,,A*4C
$IIVHW,,,179,M,05.1,N,,*6F
$IIVWR,019,R,14.6,N,,,,*6A
$IIDPT,036.3,-1.0,*46
$IIGLL,4614.479,N,00610.723,E,103502,A,A*59
$IIHDG,179,,,,*58
$IIMTW,+17.5,C*3B
$IIMWV,019,R,14.5,N,A*1B
$IIMWV,029,T,09.8,N,A*1F
$IIRMB,A,0.08,L,,OUC ,,,,,024.23,049,-03.1,V,A*3D
$IIRMC,103502,A,4614.479,N,00610.723,E,05.2,175,110708,,,A*4B
$IIVHW,,,179,M,05.1,N,,*6F
$IIVWR,018,R,14.3,N,,,,*6E
$IIDPT,036.4,-1.0,*41
$IIGLL,4614.479,N,00610.723,E,103502,A,A*59
$IIHDG,179,,,,*58
$IIMTW,+17.5,C*3B
$IIMWV,018,R,14.3,N,A*1C
$IIMWV,029,T,09.8,N,A*1F
$IIRMC,103502,A,4614.479,N,00610.723,E,05.2,175,110708,,,A*4B
$IIVHW,,,179,M,05.0,N,,*6E
$IIVWR,018,R,14.5,N,,,,*68
$IIDPT,036.1,-1.0,*44
$IIGLL,4614.475,N,00610.724,E,103504,A,A*54
$IIHDG,179,,,,*58
$IIMTW,+17.5,C*3B
$IIMWV,018,R,14.5,N,A*1A
$IIMWV,028,T,09.4,N,A*12
$IIRMB,A,0.09,L,,OUC ,,,,,024.23,049,-03.1,V,A*3C
$IIRMC,103504,A,4614.475,N,00610.724,E,05.2,177,110708,,,A*44
$IIVHW,,,179,M,05.0,N,,*6E
$IIVWR,019,R,14.0,N,,,,*6C
$IIDPT,036.3,-1.0,*46
$IIGLL,4614.475,N,00610.724,E,103504,A,A*54
$IIHDG,179,,,,*58
$IIMTW,+17.0,C*3E
$IIMWV,019,R,14.0,N,A*1E
$IIMWV,029,T,09.4,N,A*13
$IIRMB,A,0.09,L,,OUC ,,,,,024.23,049,-03.2,V,A*3F
$IIRMC,103506,A,4614.472,N,00610.724,E,05.1,176,110708,,,A*43
$IIVHW,,,180,M,04.9,N,,*60
$IIVWR,019,R,14.3,N,,,,*6F
$IIDPT,036.3,-1.0,*46
$IIGLL,4614.472,N,00610.724,E,103506,A,A*51
$IIHDG,179,,,,*58
$IIMTW,+17.0,C*3E
$IIMWV,018,R,14.2,N,A*1D
$IIMWV,029,T,09.7,N,A*10
$IIRMC,103506,A,4614.472,N,00610.724,E,05.1,176,110708,,,A*43
$IIVHW,,,179,M,04.9,N,,*66
$IIVWR,018,R,14.2,N,,,,*6F
$IIDPT,036.6,-1.0,*43
$IIGLL,4614.469,N,00610.724,E,103508,A,A*55
$IIHDG,180,,,,*5E
$IIMTW,+17.0,C*3E
$IIMWV,018,R,14.2,N,A*1D
$IIMWV,027,T,09.5,N,A*1C
$IIRMB,A,0.09,L,,OUC ,,,,,024.23,049,-03.2,V,A*3F
$IIRMC,103508,A,4614.469,N,00610.724,E,05.0,177,110708,,,A*47
$IIVHW,,,180,M,04.9,N,,*60
$IIVWR,018,R,14.2,N,,,,*6F
$IIDPT,036.7,-1.0,*42
$IIGLL,4614.469,N,00610.724,E,103508,A,A*55
$IIHDG,180,,,,*5E
$IIMTW,+17.0,C*3E
$IIMWV,018,R,14.2,N,A*1D
$IIMWV,027,T,09.5,N,A*1C
$IIRMC,103508,A,4614.469,N,00610.724,E,05.0,177,110708,,,A*47
$IIVHW,,,180,M,04.8,N,,*61
$IIVWR,018,R,14.1,N,,,,*6C
$IIDPT,036.9,-1.0,*4C
$IIGLL,4614.467,N,00610.724,E,103510,A,A*52
$IIHDG,180,,,,*5E
$IIMTW,+17.0,C*3E
$IIMWV,018,R,14.1,N,A*1E
$IIMWV,027,T,09.5,N,A*1C
$IIRMB,A,0.09,L,,OUC ,,,,,024.23,049,-03.1,V,A*3C
$IIRMC,103510,A,4614.467,N,00610.724,E,05.0,177,110708,,,A*40
$IIVHW,,,181,M,04.8,N,,*60
$IIVWR,018,R,14.4,N,,,,*69
$IIDPT,036.9,-1.0,*4C
$IIGLL,4614.467,N,00610.724,E,103510,A,A*52
$IIHDG,181,,,,*5F
$IIMTW,+17.0,C*3E
$IIMWV,018,R,14.4,N,A*1B
$IIMWV,027,T,09.8,N,A*11
$IIRMB,A,0.10,L,,OUC ,,,,,024.24,049,-03.1,V,A*33
$IIRMC,103512,A,4614.464,N,00610.724,E,05.0,178,110708,,,A*4E
$IIVHW,,,181,M,04.7,N,,*6F
$IIVWR,017,R,14.3,N,,,,*61
$IIDPT,036.9,-1.0,*4C
$IIGLL,4614.464,N,00610.724,E,103512,A,A*53
$IIHDG,179,,,,*58
$IIMTW,+17.0,C*3E
$IIMWV,018,R,14.1,N,A*1E
$IIMWV,025,T,09.7,N,A*1C
$IIRMC,103512,A,4614.464,N,00610.724,E,05.0,178,110708,,,A*4E
$IIVHW,,,179,M,04.7,N,,*68
$IIVWR,018,R,14.1,N,,,,*6C
$IIDPT,036.5,-1.0,*40
$IIGLL,4614.461,N,00610.724,E,103514,A,A*50
$IIHDG,179,,,,*58
$IIMTW,+17.0,C*3E
$IIMWV,019,R,14.1,N,A*1F
$IIMWV,027,T,09.5,N,A*1C
$IIRMB,A,0.10,L,,OUC ,,,,,024.24,049,-03.1,V,A*33
$IIRMC,103514,A,4614.461,N,00610.724,E,04.9,178,110708,,,A*45
$IIVHW,,,179,M,04.7,N,,*68
$IIVWR,019,R,13.8,N,,,,*63
$IIDPT,036.5,-1.0,*40
$IIGLL,4614.461,N,00610.724,E,103514,A,A*50
$IIHDG,179,,,,*58
$IIMTW,+17.0,C*3E
$IIMWV,019,R,13.8,N,A*11
$IIMWV,028,T,09.7,N,A*11
$IIRMC,103514,A,4614.461,N,00610.724,E,04.9,178,110708,,,A*45
$IIVHW,,,181,M,04.6,N,,*6E
$IIVWR,019,R,13.8,N,,,,*63
$IIDPT,010.7,-1.0,*46
$IIGLL,4614.458,N,00610.724,E,103516,A,A*58
$IIHDG,181,,,,*5F
$IIMTW,+17.0,C*3E
$IIMWV,019,R,13.8,N,A*11
$IIMWV,028,T,09.5,N,A*13
$IIRMB,A,0.10,L,,OUC ,,,,,024.24,049,-03.1,V,A*33
$IIRMC,103516,A,4614.458,N,00610.724,E,04.9,177,110708,,,A*42
$IIVHW,,,181,M,04.6,N,,*6E
$IIVWR,019,R,13.9,N,,,,*62
$IIDPT,010.7,-1.0,*46
$IIGLL,4614.458,N,00610.724,E,103516,A,A*58
$IIHDG,181,,,,*5F
$IIMTW,+17.0,C*3E
$IIMWV,019,R,13.9,N,A*10
$IIMWV,028,T,09.6,N,A*10
$IIRMB,A,0.10,L,,OUC ,,,,,024.24,049,-03.0,V,A*32
$IIRMC,103518,A,4614.455,N,00610.724,E,04.9,177,110708,,,A*41
$IIVHW,,,180,M,04.6,N,,*6F
$IIVWR,020,R,13.9,N,,,,*68
$IIDPT,010.7,-1.0,*46
$IIGLL,4614.455,N,00610.724,E,103518,A,A*5B
$IIHDG,179,,,,*58
$IIMTW,+20.0,C*3A
$IIMWV,018,R,13.6,N,A*1E
$IIMWV,030,T,09.5,N,A*1A
$IIRMC,103518,A,4614.455,N,00610.724,E,04.9,177,110708,,,A*41
$IIVHW,,,179,M,04.6,N,,*69
$IIVWR,018,R,13.6,N,,,,*6C
$IIDPT,010.7,-1.0,*46
$IIGLL,4614.452,N,00610.725,E,103520,A,A*56
$IIHDG,179,,,,*58
$IIMTW,+20.5,C*3F
$IIMWV,017,R,13.7,N,A*10
$IIMWV,027,T,09.2,N,A*1B
$IIRMB,A,0.10,L,,OUC ,,,,,024.24,049,-02.9,V,A*3A
$IIRMC,103520,A,4614.452,N,00610.725,E,04.8,175,110708,,,A*4F
$IIVHW,,,179,M,04.6,N,,*69
$IIVWR,017,R,13.2,N,,,,*67
$IIDPT,010.7,-1.0,*46
$IIGLL,4614.452,N,00610.725,E,103520,A,A*56
$IIHDG,180,,,,*5E
$IIMTW,+20.5,C*3F
$IIMWV,017,R,13.2,N,A*15
$IIMWV,025,T,09.3,N,A*18
$IIRMC,103520,A,4614.452,N,00610.725,E,04.8,175,110708,,,A*4F
$IIVHW,,,180,M,04.5,N,,*6C
$IIVWR,016,R,13.5,N,,,,*61
$IIDPT,010.7,-1.0,*46
$IIGLL,4614.450,N,00610.725,E,103522,A,A*56
$IIHDG,180,,,,*5E
$IIMTW,+17.5,C*3B
$IIMWV,016,R,13.5,N,A*13
$IIMWV,025,T,08.8,N,A*12
$IIRMB,A,0.11,L,,OUC ,,,,,024.24,049,-02.9,V,A*3B
$IIRMC,103522,A,4614.450,N,00610.725,E,04.7,176,110708,,,A*43
$IIVHW,,,180,M,04.5,N,,*6C
$IIVWR,016,R,13.3,N,,,,*67
$IIDPT,010.8,-1.0,*49
$IIGLL,4614.450,N,00610.725,E,103522,A,A*56
$IIHDG,180,,,,*5E
$IIMTW,+20.5,C*3F
$IIMWV,016,R,13.3,N,A*15
$IIMWV,025,T,08.9,N,A*13
$IIRMB,A,0.11,L,,OUC ,,,,,024.25,049,-02.9,V,A*3A
$IIRMC,103524,A,4614.447,N,00610.725,E,04.8,177,110708,,,A*4D
$IIVHW,,,181,M,04.5,N,,*6D
$IIVWR,016,R,13.5,N,,,,*61
$IIDPT,010.8,-1.0,*49
$IIGLL,4614.447,N,00610.725,E,103524,A,A*56
$IIHDG,181,,,,*5F
$IIMTW,+19.5,C*35
$IIMWV,016,R,13.4,N,A*12
$IIMWV,024,T,09.0,N,A*1A
$IIRMC,103524,A,4614.447,N,00610.725,E,04.8,177,110708,,,A*4D
$IIVHW,,,181,M,04.5,N,,*6D
$IIVWR,016,R,13.4,N,,,,*60
$IIDPT,010.8,-1.0,*49
$IIGLL,4614.444,N,00610.725,E,103526,A,A*57
$IIHDG,181,,,,*5F
$IIMTW,+17.5,C*3B
$IIMWV,017,R,13.6,N,A*11
$IIMWV,024,T,09.0,N,A*1A
$IIRMB,A,0.11,L,,OUC ,,,,,024.25,049,-03.0,V,A*32
$IIRMC,103526,A,4614.444,N,00610.725,E,04.8,177,110708,,,A*4C
$IIVHW,,,181,M,04.5,N,,*6D
$IIVWR,017,R,13.8,N,,,,*6D
$IIDPT,035.6,-1.0,*40
$IIGLL,4614.444,N,00610.725,E,103526,A,A*57
$IIHDG,181,,,,*5F
$IIMTW,+20.0,C*3A
$IIMWV,017,R,13.8,N,A*1F
$IIMWV,025,T,09.3,N,A*18
$IIRMC,103526,A,4614.444,N,00610.725,E,04.8,177,110708,,,A*4C
$IIVHW,,,180,M,04.4,N,,*6D
$IIVWR,017,R,14.2,N,,,,*60
$IIDPT,035.6,-1.0,*40
$IIGLL,4614.441,N,00610.725,E,103528,A,A*5C
$IIHDG,180,,,,*5E
$IIMTW,+17.5,C*3B
$IIMWV,017,R,14.2,N,A*12
$IIMWV,025,T,09.5,N,A*1E
$IIRMB,A,0.11,L,,OUC ,,,,,024.25,049,-02.9,V,A*3A
$IIRMC,103528,A,4614.441,N,00610.725,E,04.6,177,110708,,,A*49
$IIVHW,,,179,M,04.4,N,,*6B
$IIVWR,018,R,14.5,N,,,,*68
$IIDPT,035.6,-1.0,*40
$IIGLL,4614.441,N,00610.725,E,103528,A,A*5C
$IIHDG,179,,,,*58
$IIMTW,+20.0,C*3A
$IIMWV,018,R,14.5,N,A*1A
$IIMWV,025,T,10.2,N,A*11
$IIRMB,A,0.11,L,,OUC ,,,,,024.25,049,-02.8,V,A*3B
$IIRMC,103530,A,4614.439,N,00610.725,E,04.6,175,110708,,,A*4D
$IIVHW,,,176,M,04.3,N,,*63
$IIVWR,019,R,14.4,N,,,,*68
$IIDPT,035.6,-1.0,*40
$IIGLL,4614.439,N,00610.725,E,103530,A,A*5A
$IIHDG,175,,,,*54
$IIMTW,+20.5,C*3F
$IIMWV,021,R,14.0,N,A*15
$IIMWV,027,T,10.3,N,A*12
$IIRMC,103530,A,4614.439,N,00610.725,E,04.6,175,110708,,,A*4D
$IIVHW,,,175,M,04.3,N,,*60
$IIVWR,021,R,14.0,N,,,,*67
$IIDPT,035.6,-1.0,*40
$IIGLL,4614.436,N,00610.725,E,103532,A,A*57
$IIHDG,175,,,,*54
$IIMTW,+20.5,C*3F
$IIMWV,022,R,14.2,N,A*14
$IIMWV,030,T,09.9,N,A*16
$IIRMB,A,0.12,L,,OUC ,,,,,024.25,049,-02.6,V,A*36
$IIRMC,103532,A,4614.436,N,00610.725,E,04.5,172,110708,,,A*44
$IIVHW,,,175,M,04.3,N,,*60
$IIVWR,021,R,14.2,N,,,,*65
$IIDPT,010.8,-1.0,*49
$IIGLL,4614.436,N,00610.725,E,103532,A,A*57
$IIHDG,175,,,,*54
$IIMTW,+20.5,C*3F
$IIMWV,021,R,14.2,N,A*17
$IIMWV,031,T,10.2,N,A*14
$IIRMC,103532,A,4614.436,N,00610.725,E,04.5,172,110708,,,A*44
$IIVHW,,,176,M,04.3,N,,*63
$IIVWR,021,R,14.4,N,,,,*63
$IIDPT,010.8,-1.0,*49
$IIGLL,4614.434,N,00610.726,E,103534,A,A*50
$IIHDG,176,,,,*57
$IIMTW,+20.5,C*3F
$IIMWV,021,R,14.4,N,A*11
$IIMWV,030,T,10.2,N,A*15
$IIRMB,A,0.12,L,,OUC ,,,,,024.25,049,-02.5,V,A*35
$IIRMC,103534,A,4614.434,N,00610.726,E,04.6,172,110708,,,A*40
$IIVHW,,,175,M,04.3,N,,*60
$IIVWR,021,R,14.7,N,,,,*60
$IIDPT,010.8,-1.0,*49
$IIGLL,4614.434,N,00610.726,E,103534,A,A*50
$IIHDG,175,,,,*54
$IIMTW,+17.5,C*3B
$IIMWV,021,R,14.7,N,A*12
$IIMWV,029,T,10.6,N,A*19
$IIRMB,A,0.12,L,,OUC ,,,,,024.26,049,-02.5,V,A*36
$IIRMC,103536,A,4614.431,N,00610.726,E,04.5,172,110708,,,A*44
$IIVHW,,,176,M,04.3,N,,*63
$IIVWR,020,R,14.8,N,,,,*6E
$IIDPT,010.8,-1.0,*49
$IIGLL,4614.431,N,00610.726,E,103536,A,A*57
$IIHDG,176,,,,*57
$IIMTW,+17.5,C*3B
$IIMWV,018,R,14.8,N,A*17
$IIMWV,027,T,10.8,N,A*19
$IIRMC,103536,A,4614.431,N,00610.726,E,04.5,172,110708,,,A*44
$IIVHW,,,176,M,04.3,N,,*63
$IIVWR,018,R,14.8,N,,,,*65
$IIDPT,010.8,-1.0,*49
$IIGLL,4614.428,N,00610.727,E,103538,A,A*50
$IIHDG,176,,,,*57
$IIMTW,+20.0,C*3A
$IIMWV,020,R,14.6,N,A*12
$IIMWV,025,T,10.6,N,A*15
$IIRMB,A,0.12,L,,OUC ,,,,,024.26,049,-02.2,V,A*31
$IIRMC,103538,A,4614.428,N,00610.727,E,04.3,170,110708,,,A*47
$IIVHW,,,176,M,04.3,N,,*63
$IIVWR,020,R,14.4,N,,,,*62
$IIDPT,035.2,-1.0,*44
$IIGLL,4614.428,N,00610.727,E,103538,A,A*50
$IIHDG,176,,,,*57
$IIMTW,+17.5,C*3B
$IIMWV,020,R,14.4,N,A*10
$IIMWV,027,T,10.6,N,A*17
$IIRMC,103538,A,4614.428,N,00610.727,E,04.3,170,110708,,,A*47
$IIVHW,,,176,M,04.2,N,,*62
$IIVWR,019,R,14.1,N,,,,*6D
$IIDPT,035.3,-1.0,*45
$IIGLL,4614.426,N,00610.727,E,103540,A,A*51
$IIHDG,176,,,,*57
$IIMTW,+17.5,C*3B
$IIMWV,019,R,14.1,N,A*1F
$IIMWV,027,T,10.3,N,A*12
$IIRMB,A,0.13,L,,OUC ,,,,,024.26,049,-02.3,V,A*31
$IIRMC,103540,A,4614.426,N,00610.727,E,04.3,172,110708,,,A*44
$IIVHW,,,176,M,04.2,N,,*62
$IIVWR,022,R,14.3,N,,,,*67
$IIDPT,035.3,-1.0,*45
$IIGLL,4614.426,N,00610.727,E,103540,A,A*51
$IIHDG,176,,,,*57
$IIMTW,+20.0,C*3A
$IIMWV,022,R,14.3,N,A*15
$IIMWV,030,T,10.3,N,A*14
$IIRMB,A,0.13,L,,OUC ,,,,,024.26,049,-02.4,V,A*36
$IIRMC,103542,A,4614.423,N,00610.727,E,04.3,172,110708,,,A*43
$IIVHW,,,176,M,04.2,N,,*62
$IIVWR,021,R,14.5,N,,,,*62
$IIDPT,035.3,-1.0,*45
$IIGLL,4614.423,N,00610.727,E,103542,A,A*56
$IIHDG,176,,,,*57
$IIMTW,+19.5,C*35
$IIMWV,020,R,14.7,N,A*13
$IIMWV,030,T,10.4,N,A*13
$IIRMC,103542,A,4614.423,N,00610.727,E,04.3,172,110708,,,A*43
$IIVHW,,,176,M,04.2,N,,*62
$IIVWR,020,R,14.7,N,,,,*61
$IIDPT,035.3,-1.0,*45
$IIGLL,4614.421,N,00610.728,E,103544,A,A*5D
$IIHDG,176,,,,*57
$IIMTW,+17.0,C*3E
$IIMWV,020,R,14.8,N,A*1C
$IIMWV,027,T,10.6,N,A*17
$IIRMB,A,0.13,L,,OUC ,,,,,024.26,049,-02.3,V,A*31
$IIRMC,103544,A,4614.421,N,00610.728,E,04.3,171,110708,,,A*4B
$IIVHW,,,176,M,04.2,N,,*62
$IIVWR,019,R,14.9,N,,,,*65
$IIDPT,035.2,-1.0,*44
$IIGLL,4614.421,N,00610.728,E,103544,A,A*5D
$IIHDG,178,,,,*59
$IIMTW,+17.0,C*3E
$IIMWV,019,R,14.9,N,A*17
$IIMWV,027,T,10.8,N,A*19
$IIRMC,103544,A,4614.421,N,00610.728,E,04.3,171,110708,,,A*4B
$IIVHW,,,179,M,04.2,N,,*6D
$IIVWR,020,R,14.9,N,,,,*6F
$IIDPT,035.2,-1.0,*44
$IIGLL,4614.418,N,00610.728,E,103546,A,A*55
$IIHDG,179,,,,*58
$IIMTW,+20.0,C*3A
$IIMWV,020,R,14.9,N,A*1D
$IIMWV,027,T,10.9,N,A*18
$IIRMB,A,0.13,L,,OUC ,,,,,024.26,049,-02.5,V,A*37
$IIRMC,103546,A,4614.418,N,00610.728,E,04.4,174,110708,,,A*41
$IIVHW,,,179,M,04.2,N,,*6D
$IIVWR,019,R,14.9,N,,,,*65
$IIDPT,035.2,-1.0,*44
$IIGLL,4614.418,N,00610.728,E,103546,A,A*55
$IIHDG,179,,,,*58
$IIMTW,+20.0,C*3A
$IIMWV,019,R,14.9,N,A*17
$IIMWV,027,T,10.9,N,A*18
$IIRMB,A,0.13,L,,OUC ,,,,,024.26,049,-02.7,V,A*35
$IIRMC,103548,A,4614.416,N,00610.728,E,04.3,176,110708,,,A*44
$IIVHW,,,179,M,04.2,N,,*6D
$IIVWR,020,R,14.9,N,,,,*6F
$IIDPT,035.1,-1.0,*47
$IIGLL,4614.416,N,00610.728,E,103548,A,A*55
$IIHDG,178,,,,*59
