$IIMTW,+00.0,C*38
$IIMWV,330,R,03.8,N,A*18
$IIVHW,,,069,M,00.6,N,,*6D
$IIVLW,01554,N,000.0,N*56
$IIVWR,030,L,03.8,N,,,,*77
$IIHDG,069,,,01,E*1C
$IIMTW,+21.5,C*3E
$IIMWV,331,R,05.3,N,A*14
$IIMWV,324,T,03.2,N,A*11
$IIRMC,132220,A,4613.353,N,00610.289,E,01.9,238,270614,01,E,A*0B
$IIVHW,,,263,M,01.0,N,,*62
$IIVLW,01554,N,000.0,N*56
$IIVWR,029,L,05.3,N,,,,*72
$IIGLL,4613.353,N,00610.289,E,132220,A,A*51
$IIHDG,263,,,01,E*14
$IIMTW,+21.5,C*3E
$IIMWV,332,R,06.7,N,A*10
$IIMWV,324,T,04.3,N,A*17
$IIRMC,132221,A,4613.352,N,00610.285,E,02.4,239,270614,01,E,A*08
$IIVHW,,,260,M,01.3,N,,*62
$IIVLW,01554,N,000.0,N*56
$IIVWR,028,L,06.7,N,,,,*74
$IIDPT,009.4,-1.0,*4D
$IIGLL,4613.352,N,00610.285,E,132221,A,A*5D
$IIHDG,261,,,01,E*16
$IIMTW,+21.5,C*3E
$IIMWV,333,R,07.8,N,A*1F
$IIMWV,325,T,05.3,N,A*17
$IIRMC,132222,A,4613.351,N,00610.279,E,03.2,259,270614,01,E,A*0A
$IIVHW,,,261,M,01.6,N,,*66
$IIVLW,01554,N,000.0,N*56
$IIVWR,027,L,07.8,N,,,,*75
$IIDPT,009.4,-1.0,*4D
$IIGLL,4613.351,N,00610.277,E,132223,A,A*51
$IIHDG,261,,,01,E*16
$IIMTW,+21.5,C*3E
$IIMWV,334,R,08.3,N,A*1C
$IIMWV,327,T,06.3,N,A*16
$IIRMC,132223,A,4613.351,N,00610.277,E,03.1,265,270614,01,E,A*09
$IIVHW,,,261,M,01.8,N,,*68
$IIVLW,01554,N,000.0,N*56
$IIVWR,026,L,08.3,N,,,,*70
$IIDPT,009.4,-1.0,*4D
$IIGLL,4613.350,N,00610.274,E,132224,A,A*54
$IIHDG,262,,,01,E*15
$IIMTW,+21.5,C*3E
$IIMWV,335,R,08.9,N,A*17
$IIMWV,327,T,06.6,N,A*13
$IIRMC,132224,A,4613.350,N,00610.274,E,03.6,255,270614,01,E,A*08
$IIVHW,,,262,M,01.9,N,,*6A
$IIVLW,01554,N,000.0,N*56
$IIVWR,024,L,09.0,N,,,,*70
$IIDPT,009.4,-1.0,*4D
$IIGLL,4613.350,N,00610.274,E,132225,A,A*55
$IIHDG,263,,,01,E*14
$IIMTW,+21.5,C*3E
$IIMWV,336,R,09.0,N,A*1C
$IIMWV,328,T,07.0,N,A*1B
$IIRMC,132225,A,4613.350,N,00610.274,E,02.6,263,270614,01,E,A*0D
$IIVHW,,,263,M,02.0,N,,*61
$IIVLW,01554,N,000.0,N*56
$IIVWR,025,L,09.1,N,,,,*70
$IIDPT,009.4,-1.0,*4D
$IIGLL,4613.350,N,00610.272,E,132226,A,A*50
$IIHDG,265,,,01,E*12
$IIMTW,+21.5,C*3E
$IIMWV,335,R,09.1,N,A*1E
$IIMWV,329,T,06.9,N,A*12
$IIRMC,132226,A,4613.350,N,00610.272,E,03.2,271,270614,01,E,A*0E
$IIVHW,,,266,M,02.2,N,,*66
$IIVLW,01554,N,000.0,N*56
$IIVWR,027,L,09.3,N,,,,*70
$IIDPT,009.4,-1.0,*4D
$IIGLL,4613.351,N,00610.270,E,132227,A,A*52
$IIHDG,266,,,01,E*11
$IIMTW,+21.5,C*3E
$IIMWV,333,R,09.3,N,A*1A
$IIMWV,328,T,07.1,N,A*1A
$IIRMC,132228,A,4613.351,N,00610.270,E,02.5,269,270614,01,E,A*0C
$IIVHW,,,267,M,02.3,N,,*66
$IIVLW,01554,N,000.0,N*56
$IIVWR,029,L,09.4,N,,,,*79
$IIDPT,009.4,-1.0,*4D
$IIGLL,4613.351,N,00610.270,E,132228,A,A*5D
$IIHDG,267,,,01,E*10
$IIMTW,+21.5,C*3E
$IIMWV,331,R,09.4,N,A*1F
$IIMWV,322,T,07.3,N,A*12
$IIRMC,132229,A,4613.351,N,00610.268,E,02.2,266,270614,01,E,A*0C
$IIVHW,,,268,M,02.3,N,,*69
$IIVLW,01554,N,000.0,N*56
$IIVWR,030,L,09.2,N,,,,*77
$IIDPT,009.4,-1.0,*4D
$IIGLL,4613.351,N,00610.268,E,132229,A,A*55
$IIHDG,268,,,01,E*1F
$IIMTW,+21.5,C*3E
$IIMWV,330,R,09.2,N,A*18
$IIMWV,321,T,07.2,N,A*10
$IIRMC,132230,A,4613.350,N,00610.267,E,01.8,251,270614,01,E,A*07
$IIVHW,,,269,M,02.4,N,,*6F
$IIVLW,01554,N,000.0,N*56
$IIVWR,030,L,09.2,N,,,,*77
$IIDPT,009.4,-1.0,*4D
$IIGLL,4613.350,N,00610.267,E,132230,A,A*53
$IIHDG,269,,,01,E*1E
$IIMTW,+21.5,C*3E
$IIMWV,330,R,09.1,N,A*1B
$IIMWV,321,T,07.2,N,A*10
$IIRMC,132231,A,4613.350,N,00610.267,E,02.2,263,270614,01,E,A*0E
$IIVHW,,,269,M,02.4,N,,*6F
$IIVLW,01554,N,000.0,N*56
$IIVWR,030,L,09.1,N,,,,*74
$IIDPT,009.4,-1.0,*4D
$IIGLL,4613.350,N,00610.267,E,132231,A,A*52
$IIHDG,269,,,01,E*1E
$IIMTW,+21.5,C*3E
$IIMWV,330,R,09.2,N,A*18
$IIMWV,321,T,07.1,N,A*13
$IIRMC,132232,A,4613.350,N,00610.266,E,03.1,271,270614,01,E,A*0D
$IIVHW,,,269,M,02.4,N,,*6F
$IIVLW,01554,N,000.0,N*56
$IIVWR,030,L,09.2,N,,,,*77
$IIDPT,009.4,-1.0,*4D
$IIGLL,4613.350,N,00610.266,E,132233,A,A*51
$IIHDG,269,,,01,E*1E
$IIMTW,+21.5,C*3E
$IIMWV,330,R,09.0,N,A*1A
$IIMWV,320,T,07.1,N,A*12
$IIRMC,132233,A,4613.350,N,00610.266,E,02.5,280,270614,01,E,A*07
$IIVHW,,,269,M,02.4,N,,*6F
$IIVLW,01554,N,000.0,N*56
$IIVWR,030,L,09.0,N,,,,*75
$IIDPT,009.4,-1.0,*4D
$IIGLL,4613.350,N,00610.265,E,132235,A,A*54
$IIHDG,269,,,01,E*1E
$IIMTW,+21.5,C*3E
$IIMWV,330,R,09.1,N,A*1B
$IIMWV,320,T,06.9,N,A*1B
$IIRMC,132235,A,4613.350,N,00610.265,E,02.6,276,270614,01,E,A*08
$IIVHW,,,269,M,02.5,N,,*6E
$IIVLW,01554,N,000.0,N*56
$IIVWR,030,L,09.1,N,,,,*74
$IIDPT,009.4,-1.0,*4D
$IIGLL,4613.349,N,00610.264,E,132236,A,A*5E
$IIHDG,269,,,01,E*1E
$IIMTW,+21.5,C*3E
$IIMWV,330,R,09.1,N,A*1B
$IIMWV,320,T,07.0,N,A*13
$IIRMC,132236,A,4613.349,N,00610.264,E,02.8,258,270614,01,E,A*00
$IIVHW,,,269,M,02.5,N,,*6E
$IIVLW,01554,N,000.0,N*56
$IIVWR,029,L,09.0,N,,,,*7D
$IIDPT,009.4,-1.0,*4D
$IIGLL,4613.350,N,00610.262,E,132237,A,A*51
$IIHDG,269,,,01,E*1E
$IIMTW,+21.5,C*3E
$IIMWV,331,R,09.0,N,A*1B
$IIMWV,320,T,06.9,N,A*1B
$IIRMC,132237,A,4613.350,N,00610.262,E,02.8,275,270614,01,E,A*00
$IIVHW,,,269,M,02.5,N,,*6E
$IIVLW,01554,N,000.0,N*56
$IIVWR,027,L,09.1,N,,,,*72
$IIDPT,009.4,-1.0,*4D
$IIGLL,4613.349,N,00610.262,E,132238,A,A*56
$IIHDG,269,,,01,E*1E
$IIMTW,+21.5,C*3E
$IIMWV,333,R,09.1,N,A*18
$IIMWV,320,T,06.7,N,A*15
$IIRMC,132239,A,4613.348,N,00610.262,E,02.1,244,270614,01,E,A*0C
$IIVHW,,,268,M,02.5,N,,*6F
$IIVLW,01554,N,000.0,N*56
$IIVWR,023,L,09.0,N,,,,*77
$IIDPT,009.4,-1.0,*4D
$IIGLL,4613.348,N,00610.262,E,132239,A,A*56
$IIHDG,268,,,01,E*1F
$IIMTW,+22.0,C*38
$IIMWV,337,R,09.0,N,A*1D
$IIMWV,328,T,06.6,N,A*1C
$IIRMC,132240,A,4613.348,N,00610.260,E,03.6,286,270614,01,E,A*08
$IIVHW,,,267,M,02.6,N,,*63
$IIVLW,01554,N,000.0,N*56
$IIVWR,025,L,08.9,N,,,,*79
$IIDPT,009.4,-1.0,*4D
$IIGLL,4613.348,N,00610.260,E,132240,A,A*5A
$IIHDG,267,,,01,E*10
$IIMTW,+21.5,C*3E
$IIMWV,333,R,08.8,N,A*10
$IIMWV,326,T,06.5,N,A*11
$IIRMC,132241,A,4613.348,N,00610.259,E,03.0,277,270614,01,E,A*0B
$IIVHW,,,267,M,02.6,N,,*63
$IIVLW,01554,N,000.0,N*56
$IIVWR,027,L,08.8,N,,,,*7A
$IIDPT,009.4,-1.0,*4D
$IIGLL,4613.348,N,00610.259,E,132241,A,A*51
$IIHDG,267,,,01,E*10
$IIMTW,+21.5,C*3E
$IIMWV,331,R,08.8,N,A*12
$IIMWV,323,T,06.5,N,A*14
$IIRMC,132242,A,4613.348,N,00610.258,E,02.3,243,270614,01,E,A*0C
$IIVHW,,,266,M,02.6,N,,*62
$IIVLW,01554,N,000.0,N*56
$IIVWR,029,L,08.8,N,,,,*74
$IIDPT,009.4,-1.0,*4D
$IIGLL,4613.348,N,00610.258,E,132242,A,A*53
$IIHDG,266,,,01,E*11
$IIMTW,+21.5,C*3E
$IIMWV,331,R,08.7,N,A*1D
$IIMWV,319,T,06.4,N,A*1C
$IIRMC,132243,A,4613.348,N,00610.257,E,02.9,281,270614,01,E,A*06
$IIVHW,,,266,M,02.6,N,,*62
$IIVLW,01554,N,000.0,N*56
$IIVWR,029,L,08.7,N,,,,*7B
$IIDPT,009.4,-1.0,*4D
$IIGLL,4613.348,N,00610.256,E,132244,A,A*5B
$IIHDG,265,,,01,E*12
$IIMTW,+21.5,C*3E
$IIMWV,331,R,08.7,N,A*1D
$IIMWV,320,T,06.3,N,A*11
$IIRMC,132244,A,4613.348,N,00610.256,E,03.1,278,270614,01,E,A*0F
$IIVHW,,,265,M,02.6,N,,*61
$IIVLW,01554,N,000.0,N*56
$IIVWR,029,L,08.7,N,,,,*7B
$IIDPT,009.4,-1.0,*4D
$IIGLL,4613.348,N,00610.254,E,132245,A,A*58
$IIHDG,265,,,01,E*12
$IIMTW,+21.5,C*3E
$IIMWV,333,R,08.6,N,A*1E
$IIMWV,320,T,06.3,N,A*11
$IIRMC,132245,A,4613.348,N,00610.254,E,02.9,279,270614,01,E,A*04
$IIVHW,,,265,M,02.7,N,,*60
$IIVLW,01554,N,000.0,N*56
$IIVWR,027,L,08.7,N,,,,*75
$IIDPT,009.5,-1.0,*4C
$IIGLL,4613.348,N,00610.253,E,132246,A,A*5C
$IIHDG,266,,,01,E*11
$IIMTW,+21.5,C*3E
$IIMWV,333,R,08.7,N,A*1F
$IIMWV,322,T,06.2,N,A*12
$IIRMC,132246,A,4613.348,N,00610.253,E,02.8,264,270614,01,E,A*0D
$IIVHW,,,266,M,02.7,N,,*63
$IIVLW,01554,N,000.0,N*56
$IIVWR,027,L,08.9,N,,,,*7B
$IIDPT,009.5,-1.0,*4C
$IIGLL,4613.349,N,00610.251,E,132247,A,A*5E
$IIHDG,267,,,01,E*10
$IIMTW,+21.5,C*3E
$IIMWV,333,R,08.9,N,A*11
$IIMWV,322,T,06.3,N,A*13
$IIRMC,132247,A,4613.349,N,00610.251,E,02.9,278,270614,01,E,A*03
$IIVHW,,,267,M,02.7,N,,*62
$IIVLW,01554,N,000.0,N*56
$IIVWR,026,L,09.0,N,,,,*72
$IIDPT,009.5,-1.0,*4C
$IIGLL,4613.349,N,00610.250,E,132248,A,A*50
$IIHDG,267,,,01,E*10
$IIMTW,+21.5,C*3E
$IIMWV,334,R,09.0,N,A*1E
$IIMWV,322,T,06.5,N,A*15
$IIRMC,132249,A,4613.348,N,00610.250,E,02.5,260,270614,01,E,A*08
$IIVHW,,,269,M,02.7,N,,*6C
$IIVLW,01554,N,000.0,N*56
$IIVWR,026,L,09.0,N,,,,*72
$IIDPT,009.5,-1.0,*4C
$IIGLL,4613.348,N,00610.250,E,132249,A,A*50
$IIHDG,269,,,01,E*1E
$IIMTW,+21.5,C*3E
$IIMWV,334,R,09.0,N,A*1E
$IIMWV,324,T,06.5,N,A*13
$IIRMC,132250,A,4613.348,N,00610.249,E,02.8,197,270614,01,E,A*0E
$IIVHW,,,269,M,02.8,N,,*63
$IIVLW,01554,N,000.0,N*56
$IIVWR,026,L,09.0,N,,,,*72
$IIDPT,009.5,-1.0,*4C
$IIGLL,4613.348,N,00610.249,E,132250,A,A*50
$IIHDG,269,,,01,E*1E
$IIMTW,+21.5,C*3E
$IIMWV,333,R,08.9,N,A*11
$IIMWV,324,T,06.5,N,A*13
$IIRMC,132251,A,4613.348,N,00610.248,E,03.5,283,270614,01,E,A*04
$IIVHW,,,268,M,02.7,N,,*6D
$IIVLW,01554,N,000.0,N*56
$IIVWR,027,L,08.9,N,,,,*7B
$IIDPT,009.5,-1.0,*4C
$IIGLL,4613.348,N,00610.248,E,132251,A,A*50
$IIHDG,268,,,01,E*1F
$IIMTW,+21.5,C*3E
$IIMWV,334,R,08.8,N,A*17
$IIMWV,322,T,06.4,N,A*14
$IIRMC,132252,A,4613.348,N,00610.246,E,03.1,275,270614,01,E,A*04
$IIVHW,,,268,M,02.7,N,,*6D
$IIVLW,01554,N,000.0,N*56
$IIVWR,026,L,08.8,N,,,,*7B
$IIDPT,009.5,-1.0,*4C
$IIGLL,4613.348,N,00610.246,E,132252,A,A*5D
$IIHDG,268,,,01,E*1F
$IIMTW,+21.5,C*3E
$IIMWV,335,R,08.8,N,A*16
$IIMWV,323,T,06.3,N,A*12
$IIRMC,132252,A,4613.348,N,00610.246,E,03.1,275,270614,01,E,A*04
$IIVHW,,,268,M,02.7,N,,*6D
$IIVLW,01554,N,000.0,N*56
$IIVWR,025,L,08.8,N,,,,*78
$IIDPT,009.5,-1.0,*4C
$IIGLL,4613.348,N,00610.244,E,132254,A,A*59
$IIHDG,267,,,01,E*10
$IIMTW,+21.5,C*3E
$IIMWV,335,R,08.7,N,A*19
$IIMWV,325,T,06.3,N,A*14
$IIRMC,132254,A,4613.348,N,00610.244,E,02.9,264,270614,01,E,A*09
$IIVHW,,,267,M,02.7,N,,*62
$IIVLW,01554,N,000.0,N*56
$IIVWR,025,L,08.7,N,,,,*77
$IIDPT,009.5,-1.0,*4C
$IIGLL,4613.348,N,00610.242,E,132255,A,A*5E
$IIHDG,265,,,01,E*12
$IIMTW,+21.5,C*3E
$IIMWV,337,R,08.7,N,A*1B
$IIMWV,325,T,06.2,N,A*15
$IIRMC,132255,A,4613.348,N,00610.242,E,03.1,257,270614,01,E,A*07
$IIVHW,,,265,M,02.7,N,,*60
$IIVLW,01554,N,000.0,N*56
$IIVWR,022,L,08.6,N,,,,*71
$IIDPT,009.5,-1.0,*4C
$IIGLL,4613.348,N,00610.241,E,132256,A,A*5E
$IIHDG,264,,,01,E*13
$IIMTW,+21.5,C*3E
$IIMWV,338,R,08.6,N,A*15
$IIMWV,327,T,06.1,N,A*14
$IIRMC,132256,A,4613.348,N,00610.241,E,02.6,276,270614,01,E,A*02
$IIVHW,,,264,M,02.7,N,,*61
$IIVLW,01554,N,000.0,N*56
$IIVWR,022,L,08.7,N,,,,*70
$IIDPT,009.5,-1.0,*4C
$IIGLL,4613.349,N,00610.240,E,132257,A,A*5F
$IIHDG,263,,,01,E*14
$IIMTW,+21.5,C*3E
$IIMWV,338,R,08.7,N,A*14
$IIMWV,329,T,05.9,N,A*11
$IIRMC,132257,A,4613.349,N,00610.240,E,02.7,257,270614,01,E,A*01
$IIVHW,,,262,M,02.7,N,,*67
$IIVLW,01554,N,000.0,N*56
$IIVWR,024,L,08.5,N,,,,*74
$IIDPT,009.5,-1.0,*4C
$IIGLL,4613.348,N,00610.239,E,132258,A,A*5F
$IIHDG,262,,,01,E*15
$IIMTW,+21.5,C*3E
$IIMWV,336,R,08.5,N,A*18
$IIMWV,328,T,06.1,N,A*1B
$IIRMC,132259,A,4613.349,N,00610.238,E,03.0,249,270614,01,E,A*09
$IIVHW,,,261,M,02.7,N,,*64
$IIVLW,01554,N,000.0,N*56
$IIVWR,023,L,08.5,N,,,,*73
$IIDPT,009.5,-1.0,*4C
$IIGLL,4613.349,N,00610.238,E,132259,A,A*5E
$IIHDG,261,,,01,E*16
$IIMTW,+21.5,C*3E
$IIMWV,337,R,08.5,N,A*19
$IIMWV,327,T,06.0,N,A*15
$IIRMC,132300,A,4613.349,N,00610.236,E,03.0,248,270614,01,E,A*0B
$IIVHW,,,260,M,02.6,N,,*64
$IIVLW,01554,N,000.0,N*56
$IIVWR,024,L,08.5,N,,,,*74
$IIDPT,009.5,-1.0,*4C
$IIGLL,4613.349,N,00610.236,E,132300,A,A*5D
$IIHDG,260,,,01,E*17
$IIMTW,+21.5,C*3E
$IIMWV,336,R,08.3,N,A*1E
$IIMWV,326,T,06.0,N,A*14
$IIRMC,132301,A,4613.348,N,00610.235,E,02.7,255,270614,01,E,A*02
$IIVHW,,,260,M,02.6,N,,*64
$IIVLW,01554,N,000.0,N*56
$IIVWR,024,L,08.3,N,,,,*72
$IIDPT,009.6,-1.0,*4F
$IIGLL,4613.348,N,00610.235,E,132301,A,A*5E
$IIHDG,260,,,01,E*17
$IIMTW,+21.5,C*3E
$IIMWV,337,R,08.3,N,A*1F
$IIMWV,325,T,05.8,N,A*1C
$IIRMC,132301,A,4613.348,N,00610.235,E,02.7,255,270614,01,E,A*02
$IIVHW,,,261,M,02.6,N,,*65
$IIVLW,01554,N,000.0,N*56
$IIVWR,023,L,08.3,N,,,,*75
$IIDPT,009.6,-1.0,*4F
$IIGLL,4613.348,N,00610.235,E,132301,A,A*5E
$IIHDG,262,,,01,E*15
$IIMTW,+21.5,C*3E
$IIMWV,334,R,08.2,N,A*1D
$IIMWV,327,T,05.9,N,A*1F
$IIRMC,132303,A,4613.349,N,00610.233,E,02.8,266,270614,01,E,A*08
$IIVHW,,,262,M,02.5,N,,*65
$IIVLW,01554,N,000.0,N*56
$IIVWR,026,L,08.2,N,,,,*71
$IIDPT,009.6,-1.0,*4F
$IIGLL,4613.349,N,00610.232,E,132304,A,A*5D
$IIHDG,263,,,01,E*14
$IIMTW,+22.0,C*38
$IIMWV,334,R,07.9,N,A*19
$IIMWV,323,T,05.9,N,A*1B
$IIRMC,132304,A,4613.349,N,00610.232,E,02.7,273,270614,01,E,A*05
$IIVHW,,,263,M,02.5,N,,*64
$IIVLW,01554,N,000.0,N*56
$IIVWR,026,L,07.9,N,,,,*75
$IIDPT,009.6,-1.0,*4F
$IIGLL,4613.349,N,00610.231,E,132305,A,A*5F
$IIHDG,264,,,01,E*13
$IIMTW,+22.0,C*38
$IIMWV,332,R,07.7,N,A*11
$IIMWV,323,T,05.6,N,A*14
$IIRMC,132305,A,4613.349,N,00610.231,E,02.4,257,270614,01,E,A*02
$IIVHW,,,264,M,02.5,N,,*63
$IIVLW,01554,N,000.0,N*56
$IIVWR,028,L,07.7,N,,,,*75
$IIDPT,009.6,-1.0,*4F
$IIGLL,4613.349,N,00610.230,E,132306,A,A*5D
$IIHDG,266,,,01,E*11
$IIMTW,+22.0,C*38
$IIMWV,332,R,07.7,N,A*11
$IIMWV,319,T,05.5,N,A*1E
$IIRMC,132306,A,4613.349,N,00610.230,E,03.0,288,270614,01,E,A*07
$IIVHW,,,266,M,02.5,N,,*61
$IIVLW,01554,N,000.0,N*56
$IIVWR,029,L,07.7,N,,,,*74
$IIDPT,009.6,-1.0,*4F
$IIGLL,4613.349,N,00610.229,E,132307,A,A*54
$IIHDG,268,,,01,E*1F
$IIMTW,+22.0,C*38
$IIMWV,331,R,07.7,N,A*12
$IIMWV,319,T,05.4,N,A*1F
$IIRMC,132307,A,4613.349,N,00610.229,E,02.8,275,270614,01,E,A*05
$IIVHW,,,268,M,02.5,N,,*6F
$IIVLW,01554,N,000.0,N*56
$IIVWR,030,L,07.8,N,,,,*73
$IIDPT,009.6,-1.0,*4F
$IIGLL,4613.349,N,00610.227,E,132308,A,A*55
$IIHDG,268,,,01,E*1F
$IIMTW,+21.5,C*3E
$IIMWV,330,R,07.8,N,A*1C
$IIMWV,318,T,05.3,N,A*19
$IIRMC,132309,A,4613.349,N,00610.226,E,02.5,279,270614,01,E,A*05
$IIVHW,,,270,M,02.5,N,,*66
$IIVLW,01554,N,000.0,N*56
$IIVWR,031,L,07.7,N,,,,*7D
$IIDPT,009.6,-1.0,*4F
$IIGLL,4613.349,N,00610.226,E,132309,A,A*55
$IIHDG,270,,,01,E*16
$IIMTW,+21.5,C*3E
$IIMWV,329,R,07.7,N,A*1B
$IIMWV,316,T,05.7,N,A*13
$IIRMC,132310,A,4613.350,N,00610.225,E,02.5,276,270614,01,E,A*09
$IIVHW,,,271,M,02.5,N,,*67
$IIVLW,01554,N,000.0,N*56
$IIVWR,032,L,07.7,N,,,,*7E
$IIDPT,009.6,-1.0,*4F
$IIGLL,4613.350,N,00610.225,E,132310,A,A*56
$IIHDG,271,,,01,E*17
$IIMTW,+21.5,C*3E
$IIMWV,327,R,07.7,N,A*15
$IIMWV,315,T,05.6,N,A*11
$IIRMC,132311,A,4613.350,N,00610.224,E,02.6,277,270614,01,E,A*0B
$IIVHW,,,272,M,02.5,N,,*64
$IIVLW,01554,N,000.0,N*56
$IIVWR,033,L,07.7,N,,,,*7F
$IIDPT,009.6,-1.0,*4F
$IIGLL,4613.350,N,00610.224,E,132311,A,A*56
$IIHDG,272,,,01,E*14
$IIMTW,+21.5,C*3E
$IIMWV,327,R,07.8,N,A*1A
$IIMWV,314,T,05.6,N,A*10
$IIRMC,132312,A,4613.350,N,00610.223,E,02.6,276,270614,01,E,A*0E
$IIVHW,,,273,M,02.5,N,,*65
$IIVLW,01554,N,000.0,N*56
$IIVWR,033,L,07.8,N,,,,*70
$IIDPT,009.6,-1.0,*4F
$IIGLL,4613.350,N,00610.223,E,132312,A,A*52
$IIHDG,273,,,01,E*15
$IIMTW,+21.5,C*3E
$IIMWV,327,R,08.0,N,A*1D
$IIMWV,314,T,05.8,N,A*1E
$IIRMC,132312,A,4613.350,N,00610.223,E,02.6,276,270614,01,E,A*0E
$IIVHW,,,273,M,02.5,N,,*65
$IIVLW,01554,N,000.0,N*56
$IIVWR,033,L,08.0,N,,,,*77
$IIDPT,009.6,-1.0,*4F
$IIGLL,4613.351,N,00610.220,E,132315,A,A*57
$IIHDG,273,,,01,E*15
$IIMTW,+21.5,C*3E
$IIMWV,327,R,08.0,N,A*1D
$IIMWV,316,T,06.0,N,A*17
$IIRMC,132315,A,4613.351,N,00610.220,E,02.7,275,270614,01,E,A*09
$IIVHW,,,273,M,02.5,N,,*65
$IIVLW,01554,N,000.0,N*56
$IIVWR,033,L,08.0,N,,,,*77
$IIDPT,009.6,-1.0,*4F
$IIGLL,4613.351,N,00610.218,E,132316,A,A*5F
$IIHDG,273,,,01,E*15
$IIMTW,+21.5,C*3E
$IIMWV,327,R,08.1,N,A*1C
$IIMWV,314,T,06.0,N,A*15
$IIRMC,132316,A,4613.351,N,00610.218,E,02.7,279,270614,01,E,A*0D
$IIVHW,,,273,M,02.5,N,,*65
$IIVLW,01554,N,000.0,N*56
$IIVWR,034,L,08.0,N,,,,*70
$IIDPT,009.6,-1.0,*4F
$IIGLL,4613.351,N,00610.217,E,132317,A,A*51
$IIHDG,273,,,01,E*15
$IIMTW,+21.5,C*3E
$IIMWV,326,R,08.0,N,A*1C
$IIMWV,314,T,06.0,N,A*15
$IIRMC,132317,A,4613.351,N,00610.217,E,02.2,277,270614,01,E,A*08
$IIVHW,,,273,M,02.5,N,,*65
$IIVLW,01554,N,000.0,N*56
$IIVWR,034,L,08.0,N,,,,*70
$IIDPT,009.6,-1.0,*4F
$IIGLL,4613.351,N,00610.216,E,132318,A,A*5F
$IIHDG,274,,,01,E*12
$IIMTW,+21.5,C*3E
$IIMWV,326,R,08.0,N,A*1C
$IIMWV,312,T,05.9,N,A*19
$IIRMC,132318,A,4613.351,N,00610.216,E,02.7,279,270614,01,E,A*0D
$IIVHW,,,274,M,02.5,N,,*62
$IIVLW,01554,N,000.1,N*57
$IIVWR,036,L,08.0,N,,,,*72
$IIDPT,009.6,-1.0,*4F
$IIGLL,4613.351,N,00610.215,E,132319,A,A*5D
$IIHDG,274,,,01,E*12
$IIMTW,+21.5,C*3E
$IIMWV,324,R,08.0,N,A*1E
$IIMWV,312,T,05.9,N,A*19
$IIRMC,132320,A,4613.351,N,00610.214,E,02.8,279,270614,01,E,A*0B
$IIVHW,,,275,M,02.5,N,,*63
$IIVLW,01554,N,000.1,N*57
$IIVWR,037,L,08.0,N,,,,*73
$IIDPT,009.6,-1.0,*4F
$IIGLL,4613.351,N,00610.214,E,132320,A,A*56
$IIHDG,275,,,01,E*13
$IIMTW,+22.0,C*38
$IIMWV,323,R,08.0,N,A*19
$IIMWV,308,T,06.1,N,A*19
$IIRMC,132321,A,4613.351,N,00610.213,E,02.7,280,270614,01,E,A*04
$IIVHW,,,276,M,02.6,N,,*63
$IIVLW,01554,N,000.1,N*57
$IIVWR,038,L,08.1,N,,,,*7D
$IIDPT,009.6,-1.0,*4F
$IIGLL,4613.351,N,00610.213,E,132321,A,A*50
$IIHDG,276,,,01,E*10
$IIMTW,+22.0,C*38
$IIMWV,321,R,08.0,N,A*1B
$IIMWV,307,T,06.2,N,A*15
$IIRMC,132322,A,4613.352,N,00610.212,E,02.7,282,270614,01,E,A*07
$IIVHW,,,276,M,02.6,N,,*63
$IIVLW,01554,N,000.1,N*57
$IIVWR,039,L,08.0,N,,,,*7D
$IIDPT,011.9,-1.0,*49
$IIGLL,4613.352,N,00610.212,E,132322,A,A*51
$IIHDG,276,,,01,E*10
$IIMTW,+21.5,C*3E
$IIMWV,319,R,08.1,N,A*11
$IIMWV,306,T,06.1,N,A*17
$IIRMC,132323,A,4613.352,N,00610.211,E,02.8,281,270614,01,E,A*09
$IIVHW,,,277,M,02.6,N,,*62
$IIVLW,01554,N,000.1,N*57
$IIVWR,041,L,08.1,N,,,,*73
$IIDPT,014.4,-1.0,*41
$IIGLL,4613.352,N,00610.211,E,132323,A,A*53
$IIHDG,277,,,01,E*11
$IIMTW,+21.5,C*3E
$IIMWV,318,R,08.0,N,A*11
$IIMWV,302,T,06.2,N,A*10
$IIRMC,132324,A,4613.352,N,00610.210,E,02.8,283,270614,01,E,A*0D
$IIVHW,,,277,M,02.6,N,,*62
$IIVLW,01554,N,000.1,N*57
$IIVWR,042,L,08.0,N,,,,*71
$IIDPT,016.2,-1.0,*45
$IIGLL,4613.352,N,00610.209,E,132325,A,A*5C
$IIHDG,278,,,01,E*1E
$IIMTW,+21.5,C*3E
$IIMWV,316,R,08.3,N,A*1C
$IIMWV,301,T,06.1,N,A*10
$IIRMC,132325,A,4613.352,N,00610.209,E,02.5,283,270614,01,E,A*09
$IIVHW,,,278,M,02.6,N,,*6D
$IIVLW,01554,N,000.1,N*57
$IIVWR,044,L,08.3,N,,,,*74
$IIDPT,018.1,-1.0,*48
$IIGLL,4613.352,N,00610.208,E,132326,A,A*5E
$IIHDG,278,,,01,E*1E
$IIMTW,+21.5,C*3E
$IIMWV,314,R,08.5,N,A*18
$IIMWV,299,T,06.5,N,A*14
$IIRMC,132326,A,4613.352,N,00610.208,E,03.2,279,270614,01,E,A*08
$IIVHW,,,278,M,02.7,N,,*6C
$IIVLW,01554,N,000.1,N*57
$IIVWR,046,L,08.5,N,,,,*70
$IIDPT,016.5,-1.0,*42
$IIGLL,4613.352,N,00610.206,E,132327,A,A*51
$IIHDG,278,,,01,E*1E
$IIMTW,+21.5,C*3E
$IIMWV,314,R,08.5,N,A*18
$IIMWV,297,T,06.8,N,A*17
$IIRMC,132327,A,4613.352,N,00610.206,E,03.0,274,270614,01,E,A*08
$IIVHW,,,278,M,02.7,N,,*6C
$IIVLW,01554,N,000.1,N*57
$IIVWR,046,L,08.7,N,,,,*72
$IIDPT,016.3,-1.0,*44
$IIGLL,4613.352,N,00610.205,E,132328,A,A*5D
$IIHDG,278,,,01,E*1E
$IIMTW,+21.5,C*3E
$IIMWV,314,R,08.7,N,A*1A
$IIMWV,296,T,06.7,N,A*19
$IIRMC,132328,A,4613.352,N,00610.205,E,03.2,281,270614,01,E,A*0C
$IIVHW,,,278,M,02.8,N,,*63
$IIVLW,01554,N,000.1,N*57
$IIVWR,046,L,08.8,N,,,,*7D
$IIDPT,012.1,-1.0,*42
$IIGLL,4613.353,N,00610.204,E,132329,A,A*5C
$IIHDG,278,,,01,E*1E
$IIMTW,+21.5,C*3E
$IIMWV,314,R,08.8,N,A*15
$IIMWV,297,T,06.9,N,A*16
$IIRMC,132330,A,4613.353,N,00610.202,E,04.1,286,270614,01,E,A*00
$IIVHW,,,277,M,02.8,N,,*6C
$IIVLW,01554,N,000.1,N*57
$IIVWR,046,L,08.8,N,,,,*7D
$IIDPT,009.8,-1.0,*41
$IIGLL,4613.353,N,00610.202,E,132330,A,A*52
$IIHDG,277,,,01,E*11
$IIMTW,+21.5,C*3E
$IIMWV,314,R,08.8,N,A*15
$IIMWV,297,T,07.0,N,A*1E
$IIRMC,132331,A,4613.353,N,00610.201,E,02.6,271,270614,01,E,A*0B
$IIVHW,,,277,M,02.8,N,,*6C
$IIVLW,01554,N,000.1,N*57
$IIVWR,045,L,08.9,N,,,,*7F
$IIDPT,009.7,-1.0,*4E
$IIGLL,4613.353,N,00610.201,E,132331,A,A*50
$IIHDG,277,,,01,E*11
$IIMTW,+21.5,C*3E
$IIMWV,315,R,08.9,N,A*15
$IIMWV,299,T,07.1,N,A*11
$IIRMC,132332,A,4613.353,N,00610.199,E,03.1,281,270614,01,E,A*03
$IIVHW,,,277,M,02.9,N,,*6D
$IIVLW,01554,N,000.1,N*57
$IIVWR,045,L,08.9,N,,,,*7F
$IIDPT,009.7,-1.0,*4E
$IIGLL,4613.353,N,00610.199,E,132332,A,A*51
$IIHDG,277,,,01,E*11
$IIMTW,+21.5,C*3E
$IIMWV,315,R,09.0,N,A*1D
$IIMWV,299,T,07.1,N,A*11
$IIRMC,132333,A,4613.354,N,00610.198,E,02.3,283,270614,01,E,A*05
$IIVHW,,,277,M,02.9,N,,*6D
$IIVLW,01554,N,000.1,N*57
$IIVWR,045,L,09.0,N,,,,*77
$IIDPT,009.7,-1.0,*4E
$IIGLL,4613.354,N,00610.198,E,132333,A,A*56
$IIHDG,277,,,01,E*11
$IIMTW,+21.5,C*3E
$IIMWV,315,R,09.0,N,A*1D
$IIMWV,298,T,07.1,N,A*10
$IIRMC,132334,A,4613.354,N,00610.196,E,03.1,267,270614,01,E,A*05
$IIVHW,,,277,M,03.0,N,,*65
$IIVLW,01554,N,000.1,N*57
$IIVWR,045,L,09.0,N,,,,*77
$IIDPT,009.7,-1.0,*4E
$IIGLL,4613.354,N,00610.194,E,132335,A,A*5C
$IIHDG,278,,,01,E*1E
$IIMTW,+21.5,C*3E
$IIMWV,316,R,09.1,N,A*1F
$IIMWV,298,T,07.1,N,A*10
$IIRMC,132335,A,4613.354,N,00610.194,E,03.9,284,270614,01,E,A*03
$IIVHW,,,278,M,03.0,N,,*6A
$IIVLW,01554,N,000.1,N*57
$IIVWR,044,L,09.1,N,,,,*77
$IIDPT,009.7,-1.0,*4E
$IIGLL,4613.354,N,00610.193,E,132336,A,A*58
$IIHDG,278,,,01,E*1E
$IIMTW,+21.5,C*3E
$IIMWV,316,R,09.0,N,A*1E
$IIMWV,299,T,07.0,N,A*10
$IIRMC,132336,A,4613.354,N,00610.193,E,03.3,278,270614,01,E,A*0E
$IIVHW,,,278,M,03.1,N,,*6B
$IIVLW,01554,N,000.1,N*57
$IIVWR,043,L,09.1,N,,,,*70
$IIDPT,009.7,-1.0,*4E
$IIGLL,4613.354,N,00610.192,E,132337,A,A*58
$IIHDG,278,,,01,E*1E
$IIMTW,+21.5,C*3E
$IIMWV,317,R,09.1,N,A*1E
$IIMWV,297,T,06.9,N,A*16
$IIRMC,132337,A,4613.354,N,00610.192,E,03.8,277,270614,01,E,A*0A
$IIVHW,,,278,M,03.2,N,,*68
$IIVLW,01554,N,000.1,N*57
$IIVWR,044,L,09.1,N,,,,*77
$IIDPT,009.7,-1.0,*4E
$IIGLL,4613.354,N,00610.191,E,132338,A,A*54
$IIHDG,279,,,01,E*1F
$IIMTW,+23.0,C*39
$IIMWV,316,R,09.1,N,A*1F
$IIMWV,299,T,06.9,N,A*18
$IIRMC,132338,A,4613.354,N,00610.191,E,03.7,278,270614,01,E,A*06
$IIVHW,,,279,M,03.3,N,,*68
$IIVLW,01554,N,000.1,N*57
$IIVWR,044,L,09.1,N,,,,*77
$IIDPT,009.7,-1.0,*4E
$IIGLL,4613.354,N,00610.189,E,132339,A,A*5C
$IIHDG,279,,,01,E*1F
$IIMTW,+22.0,C*38
$IIMWV,316,R,09.1,N,A*1F
$IIMWV,297,T,06.9,N,A*16
$IIRMC,132340,A,4613.354,N,00610.188,E,03.5,280,270614,01,E,A*04
$IIVHW,,,279,M,03.3,N,,*68
$IIVLW,01554,N,000.1,N*57
$IIVWR,044,L,09.2,N,,,,*74
$IIDPT,009.7,-1.0,*4E
$IIGLL,4613.354,N,00610.188,E,132340,A,A*53
$IIHDG,279,,,01,E*1F
$IIMTW,+22.0,C*38
$IIMWV,316,R,09.2,N,A*1C
$IIMWV,298,T,07.1,N,A*10
$IIRMC,132341,A,4613.354,N,00610.187,E,03.5,286,270614,01,E,A*0C
$IIVHW,,,280,M,03.3,N,,*6E
$IIVLW,01554,N,000.1,N*57
$IIVWR,044,L,09.3,N,,,,*75
$IIDPT,009.7,-1.0,*4E
$IIGLL,4613.354,N,00610.187,E,132341,A,A*5D
$IIHDG,280,,,01,E*19
$IIMTW,+22.0,C*38
$IIMWV,316,R,09.2,N,A*1C
$IIMWV,297,T,07.2,N,A*1C
$IIRMC,132342,A,4613.355,N,00610.185,E,03.8,271,270614,01,E,A*09
$IIVHW,,,280,M,03.3,N,,*6E
$IIVLW,01554,N,000.1,N*57
$IIVWR,044,L,09.2,N,,,,*74
$IIDPT,009.7,-1.0,*4E
$IIGLL,4613.355,N,00610.185,E,132342,A,A*5D
$IIHDG,280,,,01,E*19
$IIMTW,+21.5,C*3E
$IIMWV,317,R,09.2,N,A*1D
$IIMWV,297,T,07.0,N,A*1E
$IIRMC,132343,A,4613.355,N,00610.184,E,03.5,280,270614,01,E,A*0A
$IIVHW,,,280,M,03.3,N,,*6E
$IIVLW,01554,N,000.1,N*57
$IIVWR,043,L,09.2,N,,,,*73
$IIDPT,009.7,-1.0,*4E
$IIGLL,4613.355,N,00610.184,E,132343,A,A*5D
$IIHDG,280,,,01,E*19
$IIMTW,+21.5,C*3E
$IIMWV,318,R,09.1,N,A*11
$IIMWV,298,T,07.0,N,A*11
$IIRMC,132344,A,4613.355,N,00610.182,E,03.5,280,270614,01,E,A*0B
$IIVHW,,,280,M,03.3,N,,*6E
$IIVLW,01554,N,000.1,N*57
$IIVWR,042,L,09.1,N,,,,*71
$IIDPT,009.7,-1.0,*4E
$IIGLL,4613.355,N,00610.181,E,132345,A,A*5E
$IIHDG,280,,,01,E*19
$IIMTW,+21.5,C*3E
$IIMWV,318,R,08.9,N,A*18
$IIMWV,299,T,06.8,N,A*19
$IIRMC,132345,A,4613.355,N,00610.181,E,03.5,282,270614,01,E,A*0B
$IIVHW,,,280,M,03.3,N,,*6E
$IIVLW,01554,N,000.1,N*57
$IIVWR,042,L,08.9,N,,,,*78
$IIDPT,009.7,-1.0,*4E
$IIGLL,4613.356,N,00610.180,E,132346,A,A*5F
$IIHDG,279,,,01,E*1F
$IIMTW,+21.5,C*3E
$IIMWV,319,R,09.0,N,A*11
$IIMWV,298,T,06.6,N,A*16
$IIRMC,132346,A,4613.356,N,00610.180,E,02.3,279,270614,01,E,A*09
$IIVHW,,,279,M,03.4,N,,*6F
$IIVLW,01554,N,000.1,N*57
$IIVWR,040,L,08.9,N,,,,*7A
$IIDPT,009.7,-1.0,*4E
$IIGLL,4613.356,N,00610.179,E,132347,A,A*58
$IIHDG,279,,,01,E*1F
$IIMTW,+21.5,C*3E
$IIMWV,320,R,08.9,N,A*13
$IIMWV,299,T,06.7,N,A*16
$IIRMC,132347,A,4613.356,N,00610.179,E,03.4,279,270614,01,E,A*08
$IIVHW,,,279,M,03.4,N,,*6F
$IIVLW,01554,N,000.1,N*57
$IIVWR,039,L,09.0,N,,,,*7C
$IIDPT,009.7,-1.0,*4E
$IIGLL,4613.356,N,00610.178,E,132348,A,A*56
$IIHDG,279,,,01,E*1F
$IIMTW,+21.5,C*3E
$IIMWV,321,R,09.0,N,A*1A
$IIMWV,301,T,06.5,N,A*14
$IIRMC,132348,A,4613.356,N,00610.178,E,03.2,281,270614,01,E,A*07
$IIVHW,,,279,M,03.4,N,,*6F
$IIVLW,01554,N,000.1,N*57
$IIVWR,040,L,09.1,N,,,,*73
$IIDPT,009.7,-1.0,*4E
$IIGLL,4613.356,N,00610.176,E,132349,A,A*59
$IIHDG,279,,,01,E*1F
$IIMTW,+21.5,C*3E
$IIMWV,320,R,09.1,N,A*1A
$IIMWV,303,T,06.6,N,A*15
$IIRMC,132350,A,4613.357,N,00610.175,E,03.5,283,270614,01,E,A*07
$IIVHW,,,279,M,03.4,N,,*6F
$IIVLW,01554,N,000.1,N*57
$IIVWR,039,L,09.1,N,,,,*7D
$IIDPT,009.7,-1.0,*4E
$IIGLL,4613.357,N,00610.175,E,132350,A,A*53
$IIHDG,279,,,01,E*1F
$IIMTW,+21.5,C*3E
$IIMWV,321,R,09.1,N,A*1B
$IIMWV,302,T,06.7,N,A*15
$IIRMC,132351,A,4613.357,N,00610.173,E,03.5,281,270614,01,E,A*02
$IIVHW,,,279,M,03.4,N,,*6F
$IIVLW,01554,N,000.1,N*57
$IIVWR,039,L,09.2,N,,,,*7E
$IIDPT,009.7,-1.0,*4E
$IIGLL,4613.357,N,00610.173,E,132351,A,A*54
$IIHDG,279,,,01,E*1F
$IIMTW,+21.5,C*3E
$IIMWV,322,R,09.1,N,A*18
$IIMWV,303,T,06.7,N,A*14
$IIRMC,132352,A,4613.357,N,00610.172,E,03.5,277,270614,01,E,A*09
$IIVHW,,,278,M,03.3,N,,*69
$IIVLW,01554,N,000.1,N*57
$IIVWR,038,L,09.1,N,,,,*7C
$IIDPT,009.7,-1.0,*4E
$IIGLL,4613.357,N,00610.172,E,132352,A,A*56
$IIHDG,278,,,01,E*1E
$IIMTW,+21.5,C*3E
$IIMWV,324,R,09.1,N,A*1E
$IIMWV,303,T,06.7,N,A*14
$IIRMC,132353,A,4613.357,N,00610.171,E,03.6,276,270614,01,E,A*09
$IIVHW,,,278,M,03.3,N,,*69
$IIVLW,01554,N,000.1,N*57
$IIVWR,036,L,09.1,N,,,,*72
$IIDPT,009.7,-1.0,*4E
$IIGLL,4613.357,N,00610.171,E,132353,A,A*54
$IIHDG,278,,,01,E*1E
$IIMTW,+21.5,C*3E
$IIMWV,323,R,09.2,N,A*1A
$IIMWV,306,T,06.5,N,A*13
$IIRMC,132354,A,4613.357,N,00610.169,E,03.6,283,270614,01,E,A*0D
$IIVHW,,,278,M,03.4,N,,*6E
$IIVLW,01554,N,000.1,N*57
$IIVWR,037,L,09.2,N,,,,*70
$IIDPT,009.7,-1.0,*4E
$IIGLL,4613.357,N,00610.168,E,132355,A,A*5A
$IIHDG,278,,,01,E*1E
$IIMTW,+21.5,C*3E
$IIMWV,322,R,09.2,N,A*1B
$IIMWV,305,T,06.7,N,A*12
$IIRMC,132355,A,4613.357,N,00610.168,E,03.6,281,270614,01,E,A*0F
$IIVHW,,,278,M,03.3,N,,*69
$IIVLW,01554,N,000.1,N*57
$IIVWR,038,L,09.2,N,,,,*7F
$IIDPT,009.7,-1.0,*4E
$IIGLL,4613.358,N,00610.166,E,132357,A,A*59
$IIHDG,277,,,01,E*11
$IIMTW,+22.0,C*38
$IIMWV,323,R,09.3,N,A*1B
$IIMWV,306,T,06.8,N,A*1E
$IIRMC,132357,A,4613.358,N,00610.166,E,03.5,279,270614,01,E,A*08
$IIVHW,,,277,M,03.3,N,,*66
$IIVLW,01554,N,000.1,N*57
$IIVWR,037,L,09.6,N,,,,*74
$IIDPT,009.7,-1.0,*4E
$IIGLL,4613.358,N,00610.164,E,132358,A,A*54
$IIHDG,276,,,01,E*10
$IIMTW,+22.0,C*38
$IIMWV,323,R,09.6,N,A*1E
$IIMWV,306,T,06.8,N,A*1E
$IIRMC,132358,A,4613.358,N,00610.164,E,03.8,278,270614,01,E,A*09
$IIVHW,,,276,M,03.4,N,,*60
$IIVLW,01554,N,000.1,N*57
$IIVWR,035,L,09.8,N,,,,*78
$IIDPT,009.7,-1.0,*4E
$IIGLL,4613.358,N,00610.163,E,132359,A,A*52
$IIHDG,276,,,01,E*10
$IIMTW,+21.5,C*3E
$IIMWV,325,R,09.8,N,A*16
$IIMWV,307,T,07.0,N,A*16
$IIRMC,132359,A,4613.358,N,00610.163,E,03.4,274,270614,01,E,A*0F
$IIVHW,,,275,M,03.5,N,,*62
$IIVLW,01554,N,000.1,N*57
$IIVWR,034,L,10.0,N,,,,*79
$IIDPT,009.7,-1.0,*4E
$IIGLL,4613.358,N,00610.162,E,132400,A,A*58
$IIHDG,275,,,01,E*13
$IIMTW,+23.0,C*39
$IIMWV,326,R,10.0,N,A*15
$IIMWV,309,T,07.1,N,A*19
$IIRMC,132401,A,4613.358,N,00610.160,E,03.6,273,270614,01,E,A*03
$IIVHW,,,275,M,03.5,N,,*62
$IIVLW,01554,N,000.1,N*57
$IIVWR,032,L,10.0,N,,,,*7F
$IIDPT,009.7,-1.0,*4E
$IIGLL,4613.358,N,00610.160,E,132401,A,A*5B
$IIHDG,275,,,01,E*13
$IIMTW,+22.5,C*3D
$IIMWV,328,R,10.0,N,A*1B
$IIMWV,313,T,07.2,N,A*11
$IIRMC,132402,A,4613.358,N,00610.159,E,03.5,274,270614,01,E,A*0E
$IIVHW,,,275,M,03.5,N,,*62
$IIVLW,01554,N,000.1,N*57
$IIVWR,032,L,10.0,N,,,,*7F
$IIDPT,009.7,-1.0,*4E
$IIGLL,4613.358,N,00610.159,E,132402,A,A*52
$IIHDG,275,,,01,E*13
$IIMTW,+22.0,C*38
$IIMWV,330,R,10.2,N,A*10
$IIMWV,313,T,07.2,N,A*11
$IIRMC,132403,A,4613.358,N,00610.158,E,03.6,275,270614,01,E,A*0C
$IIVHW,,,275,M,03.5,N,,*62
$IIVLW,01554,N,000.1,N*57
$IIVWR,030,L,10.2,N,,,,*7F
$IIDPT,009.7,-1.0,*4E
$IIGLL,4613.358,N,00610.158,E,132403,A,A*52
$IIHDG,275,,,01,E*13
$IIMTW,+22.0,C*38
$IIMWV,330,R,10.2,N,A*10
$IIMWV,315,T,07.2,N,A*17
$IIRMC,132404,A,4613.358,N,00610.156,E,03.7,280,270614,01,E,A*0E
$IIVHW,,,275,M,03.6,N,,*61
$IIVLW,01554,N,000.1,N*57
$IIVWR,030,L,10.2,N,,,,*7F
$IIDPT,009.7,-1.0,*4E
$IIGLL,4613.358,N,00610.156,E,132404,A,A*5B
$IIHDG,275,,,01,E*13
$IIMTW,+22.0,C*38
$IIMWV,332,R,10.0,N,A*10
$IIMWV,315,T,07.2,N,A*17
$IIRMC,132405,A,4613.359,N,00610.155,E,03.7,280,270614,01,E,A*0D
$IIVHW,,,275,M,03.6,N,,*61
$IIVLW,01554,N,000.1,N*57
$IIVWR,028,L,10.0,N,,,,*74
$IIDPT,009.9,-1.0,*40
$IIGLL,4613.359,N,00610.153,E,132406,A,A*5D
$IIHDG,276,,,01,E*10
$IIMTW,+21.0,C*3B
$IIMWV,332,R,10.0,N,A*10
$IIMWV,318,T,07.0,N,A*18
$IIRMC,132406,A,4613.359,N,00610.153,E,03.8,279,270614,01,E,A*01
$IIVHW,,,276,M,03.6,N,,*62
$IIVLW,01554,N,000.1,N*57
$IIVWR,028,L,10.0,N,,,,*74
$IIDPT,010.1,-1.0,*40
$IIGLL,4613.359,N,00610.152,E,132407,A,A*5D
$IIHDG,276,,,01,E*10
$IIMTW,+22.0,C*38
$IIMWV,333,R,09.9,N,A*10
$IIMWV,317,T,06.9,N,A*1F
$IIRMC,132407,A,4613.359,N,00610.152,E,04.1,284,270614,01,E,A*0D
$IIVHW,,,276,M,03.6,N,,*62
$IIVLW,01554,N,000.1,N*57
$IIVWR,026,L,09.8,N,,,,*7A
$IIDPT,010.1,-1.0,*40
$IIGLL,4613.359,N,00610.150,E,132408,A,A*50
$IIHDG,277,,,01,E*11
$IIMTW,+22.0,C*38
$IIMWV,334,R,09.8,N,A*16
$IIMWV,319,T,06.7,N,A*1F
$IIRMC,132408,A,4613.359,N,00610.150,E,03.7,280,270614,01,E,A*05
$IIVHW,,,277,M,03.6,N,,*63
$IIVLW,01554,N,000.1,N*57
$IIVWR,026,L,09.8,N,,,,*7A
$IIDPT,010.2,-1.0,*43
$IIGLL,4613.360,N,00610.148,E,132409,A,A*52
$IIHDG,277,,,01,E*11
$IIMTW,+22.0,C*38
$IIMWV,334,R,09.8,N,A*16
$IIMWV,320,T,06.6,N,A*14
$IIRMC,132409,A,4613.360,N,00610.148,E,03.6,283,270614,01,E,A*05
$IIVHW,,,278,M,03.6,N,,*6C
$IIVLW,01554,N,000.1,N*57
$IIVWR,026,L,09.8,N,,,,*7A
$IIDPT,010.2,-1.0,*43
$IIGLL,4613.360,N,00610.147,E,132410,A,A*55
$IIHDG,278,,,01,E*1E
$IIMTW,+22.0,C*38
$IIMWV,334,R,09.8,N,A*16
$IIMWV,320,T,06.6,N,A*14
$IIRMC,132411,A,4613.360,N,00610.145,E,03.6,282,270614,01,E,A*00
$IIVHW,,,279,M,03.6,N,,*6D
$IIVLW,01554,N,000.1,N*57
$IIVWR,026,L,10.0,N,,,,*7A
$IIDPT,010.2,-1.0,*43
$IIGLL,4613.360,N,00610.145,E,132411,A,A*56
$IIHDG,279,,,01,E*1F
$IIMTW,+22.0,C*38
$IIMWV,334,R,10.0,N,A*16
$IIMWV,320,T,06.8,N,A*1A
$IIRMC,132412,A,4613.360,N,00610.144,E,03.6,294,270614,01,E,A*05
$IIVHW,,,281,M,03.6,N,,*6A
$IIVLW,01554,N,000.1,N*57
$IIVWR,026,L,10.1,N,,,,*7B
$IIDPT,010.2,-1.0,*43
$IIGLL,4613.360,N,00610.144,E,132412,A,A*54
$IIHDG,281,,,01,E*18
$IIMTW,+22.0,C*38
$IIMWV,333,R,10.1,N,A*10
$IIMWV,320,T,06.8,N,A*1A
$IIRMC,132413,A,4613.360,N,00610.143,E,03.4,282,270614,01,E,A*06
$IIVHW,,,282,M,03.6,N,,*69
$IIVLW,01554,N,000.1,N*57
$IIVWR,027,L,10.1,N,,,,*7A
$IIDPT,010.1,-1.0,*40
$IIGLL,4613.360,N,00610.143,E,132413,A,A*52
$IIHDG,282,,,01,E*1B
$IIMTW,+22.0,C*38
$IIMWV,333,R,10.4,N,A*15
$IIMWV,320,T,06.9,N,A*1B
$IIRMC,132414,A,4613.361,N,00610.142,E,03.4,288,270614,01,E,A*0B
$IIVHW,,,284,M,03.6,N,,*6F
$IIVLW,01554,N,000.1,N*57
$IIVWR,027,L,10.4,N,,,,*7F
$IIDPT,010.1,-1.0,*40
$IIGLL,4613.361,N,00610.142,E,132414,A,A*55
$IIHDG,285,,,01,E*1C
$IIMTW,+22.0,C*38
$IIMWV,333,R,10.6,N,A*17
$IIMWV,321,T,07.2,N,A*10
$IIRMC,132415,A,4613.361,N,00610.141,E,03.5,291,270614,01,E,A*00
$IIVHW,,,285,M,03.5,N,,*6D
$IIVLW,01554,N,000.1,N*57
$IIVWR,027,L,10.6,N,,,,*7D
$IIDPT,010.1,-1.0,*40
$IIGLL,4613.361,N,00610.139,E,132416,A,A*5B
$IIHDG,285,,,01,E*1C
$IIMTW,+22.0,C*38
$IIMWV,333,R,10.7,N,A*16
$IIMWV,321,T,07.4,N,A*16
$IIRMC,132416,A,4613.361,N,00610.139,E,03.7,291,270614,01,E,A*0E
$IIVHW,,,285,M,03.5,N,,*6D
$IIVLW,01554,N,000.1,N*57
$IIVWR,027,L,10.7,N,,,,*7C
$IIDPT,010.1,-1.0,*40
$IIGLL,4613.362,N,00610.138,E,132417,A,A*58
$IIHDG,285,,,01,E*1C
$IIMTW,+22.5,C*3D
$IIMWV,332,R,10.8,N,A*18
$IIMWV,321,T,07.6,N,A*14
$IIRMC,132417,A,4613.362,N,00610.138,E,03.5,291,270614,01,E,A*0F
$IIVHW,,,285,M,03.5,N,,*6D
$IIVLW,01554,N,000.1,N*57
$IIVWR,028,L,10.7,N,,,,*73
$IIDPT,010.1,-1.0,*40
$IIGLL,4613.362,N,00610.136,E,132418,A,A*59
$IIHDG,286,,,01,E*1F
$IIMTW,+22.0,C*38
$IIMWV,332,R,10.7,N,A*17
$IIMWV,320,T,07.8,N,A*1B
$IIRMC,132418,A,4613.362,N,00610.136,E,03.3,291,270614,01,E,A*08
$IIVHW,,,286,M,03.5,N,,*6E
$IIVLW,01554,N,000.1,N*57
$IIVWR,028,L,10.6,N,,,,*72
$IIDPT,010.1,-1.0,*40
$IIGLL,4613.362,N,00610.135,E,132419,A,A*5B
$IIHDG,286,,,01,E*1F
$IIMTW,+22.0,C*38
$IIMWV,332,R,10.6,N,A*16
$IIMWV,320,T,07.7,N,A*14
$IIRMC,132419,A,4613.362,N,00610.135,E,03.6,287,270614,01,E,A*08
$IIVHW,,,285,M,03.5,N,,*6D
$IIVLW,01554,N,000.1,N*57
$IIVWR,028,L,10.5,N,,,,*71
$IIDPT,010.1,-1.0,*40
$IIGLL,4613.362,N,00610.134,E,132420,A,A*50
$IIHDG,285,,,01,E*1C
$IIMTW,+22.0,C*38
$IIMWV,332,R,10.5,N,A*15
$IIMWV,319,T,07.5,N,A*1C
$IIRMC,132421,A,4613.363,N,00610.133,E,03.6,288,270614,01,E,A*0B
$IIVHW,,,285,M,03.5,N,,*6D
$IIVLW,01554,N,000.1,N*57
$IIVWR,029,L,10.4,N,,,,*71
$IIDPT,010.1,-1.0,*40
$IIGLL,4613.363,N,00610.133,E,132421,A,A*57
$IIHDG,285,,,01,E*1C
$IIMTW,+22.0,C*38
$IIMWV,331,R,10.4,N,A*17
$IIMWV,318,T,07.2,N,A*1A
$IIRMC,132422,A,4613.363,N,00610.132,E,03.6,288,270614,01,E,A*09
$IIVHW,,,285,M,03.5,N,,*6D
$IIVLW,01554,N,000.1,N*57
$IIVWR,029,L,10.4,N,,,,*71
$IIDPT,010.1,-1.0,*40
$IIGLL,4613.363,N,00610.132,E,132422,A,A*55
$IIHDG,285,,,01,E*1C
$IIMTW,+22.0,C*38
$IIMWV,330,R,10.4,N,A*16
$IIMWV,318,T,07.2,N,A*1A
$IIRMC,132423,A,4613.363,N,00610.130,E,04.0,288,270614,01,E,A*0B
$IIVHW,,,285,M,03.5,N,,*6D
$IIVLW,01554,N,000.1,N*57
$IIVWR,030,L,10.4,N,,,,*79
$IIDPT,010.1,-1.0,*40
$IIGLL,4613.363,N,00610.130,E,132423,A,A*56
$IIHDG,285,,,01,E*1C
$IIMTW,+21.5,C*3E
$IIMWV,329,R,10.2,N,A*18
$IIMWV,316,T,07.4,N,A*12
$IIRMC,132424,A,4613.364,N,00610.128,E,03.8,283,270614,01,E,A*06
$IIVHW,,,285,M,03.5,N,,*6D
$IIVLW,01554,N,000.1,N*57
$IIVWR,031,L,10.2,N,,,,*7E
$IIDPT,010.1,-1.0,*40
$IIGLL,4613.364,N,00610.128,E,132424,A,A*5F
$IIHDG,284,,,01,E*1D
$IIMTW,+21.5,C*3E
$IIMWV,328,R,10.1,N,A*1A
$IIMWV,314,T,07.3,N,A*17
$IIRMC,132425,A,4613.364,N,00610.126,E,04.7,290,270614,01,E,A*03
$IIVHW,,,284,M,03.5,N,,*6C
$IIVLW,01554,N,000.1,N*57
$IIVWR,032,L,10.1,N,,,,*7E
$IIDPT,010.1,-1.0,*40
$IIGLL,4613.364,N,00610.125,E,132426,A,A*50
$IIHDG,285,,,01,E*1C
$IIMTW,+21.5,C*3E
$IIMWV,328,R,10.1,N,A*1A
$IIMWV,313,T,07.2,N,A*11
$IIRMC,132426,A,4613.364,N,00610.125,E,03.2,296,270614,01,E,A*07
$IIVHW,,,285,M,03.6,N,,*6E
$IIVLW,01554,N,000.1,N*57
$IIVWR,032,L,10.1,N,,,,*7E
$IIDPT,010.1,-1.0,*40
$IIGLL,4613.365,N,00610.124,E,132427,A,A*51
$IIHDG,285,,,01,E*1C
$IIMTW,+21.5,C*3E
$IIMWV,327,R,10.0,N,A*14
$IIMWV,313,T,07.2,N,A*11
$IIRMC,132427,A,4613.365,N,00610.124,E,03.3,290,270614,01,E,A*01
$IIVHW,,,285,M,03.6,N,,*6E
$IIVLW,01554,N,000.1,N*57
$IIVWR,033,L,10.1,N,,,,*7F
$IIDPT,010.1,-1.0,*40
$IIGLL,4613.365,N,00610.123,E,132428,A,A*59
$IIHDG,285,,,01,E*1C
$IIMTW,+21.5,C*3E
$IIMWV,327,R,10.1,N,A*15
$IIMWV,312,T,07.2,N,A*10
$IIRMC,132428,A,4613.365,N,00610.123,E,03.3,290,270614,01,E,A*09
$IIVHW,,,285,M,03.6,N,,*6E
$IIVLW,01554,N,000.1,N*57
$IIVWR,033,L,10.3,N,,,,*7D
$IIDPT,010.1,-1.0,*40
$IIGLL,4613.365,N,00610.121,E,132429,A,A*5A
$IIHDG,285,,,01,E*1C
$IIMTW,+21.5,C*3E
$IIMWV,327,R,10.3,N,A*17
$IIMWV,311,T,07.1,N,A*10
$IIRMC,132429,A,4613.365,N,00610.121,E,03.7,288,270614,01,E,A*07
$IIVHW,,,286,M,03.6,N,,*6D
$IIVLW,01554,N,000.1,N*57
$IIVWR,034,L,10.5,N,,,,*7C
$IIDPT,010.1,-1.0,*40
$IIGLL,4613.366,N,00610.120,E,132430,A,A*50
$IIHDG,286,,,01,E*1F
$IIMTW,+21.5,C*3E
$IIMWV,326,R,10.5,N,A*10
$IIMWV,312,T,07.4,N,A*16
$IIRMC,132431,A,4613.366,N,00610.119,E,04.5,285,270614,01,E,A*0E
$IIVHW,,,286,M,03.6,N,,*6D
$IIVLW,01554,N,000.1,N*57
$IIVWR,034,L,10.8,N,,,,*71
$IIDPT,010.1,-1.0,*40
$IIGLL,4613.366,N,00610.119,E,132431,A,A*5B
$IIHDG,286,,,01,E*1F
$IIMTW,+21.5,C*3E
$IIMWV,326,R,10.8,N,A*1D
$IIMWV,311,T,07.9,N,A*18
$IIRMC,132432,A,4613.366,N,00610.118,E,02.9,304,270614,01,E,A*0E
$IIVHW,,,286,M,03.7,N,,*6C
$IIVLW,01554,N,000.1,N*57
$IIVWR,034,L,10.9,N,,,,*70
$IIDPT,010.1,-1.0,*40
$IIGLL,4613.366,N,00610.118,E,132432,A,A*59
$IIHDG,286,,,01,E*1F
$IIMTW,+21.5,C*3E
$IIMWV,325,R,10.8,N,A*1E
$IIMWV,311,T,08.0,N,A*1E
$IIRMC,132432,A,4613.366,N,00610.118,E,02.9,304,270614,01,E,A*0E
$IIVHW,,,286,M,03.7,N,,*6C
$IIVLW,01554,N,000.1,N*57
$IIVWR,035,L,10.8,N,,,,*70
$IIDPT,010.1,-1.0,*40
$IIGLL,4613.366,N,00610.118,E,132432,A,A*59
$IIHDG,286,,,01,E*1F
$IIMTW,+22.0,C*38
$IIMWV,325,R,10.7,N,A*11
$IIMWV,310,T,07.9,N,A*19
$IIRMC,132434,A,4613.367,N,00610.115,E,04.2,288,270614,01,E,A*0C
$IIVHW,,,287,M,03.7,N,,*6D
$IIVLW,01554,N,000.1,N*57
$IIVWR,035,L,10.7,N,,,,*7F
$IIDPT,010.1,-1.0,*40
$IIGLL,4613.367,N,00610.115,E,132434,A,A*53
$IIHDG,288,,,01,E*11
$IIMTW,+22.0,C*38
$IIMWV,326,R,10.2,N,A*17
$IIMWV,309,T,07.7,N,A*1F
$IIRMC,132435,A,4613.368,N,00610.113,E,04.1,287,270614,01,E,A*08
$IIVHW,,,288,M,03.7,N,,*62
$IIVLW,01554,N,000.1,N*57
$IIVWR,034,L,10.2,N,,,,*7B
$IIDPT,010.1,-1.0,*40
$IIGLL,4613.368,N,00610.112,E,132436,A,A*59
$IIHDG,288,,,01,E*11
$IIMTW,+22.0,C*38
$IIMWV,327,R,10.1,N,A*15
$IIMWV,309,T,07.3,N,A*1B
$IIRMC,132436,A,4613.368,N,00610.112,E,03.7,288,270614,01,E,A*04
$IIVHW,,,288,M,03.7,N,,*62
$IIVLW,01554,N,000.1,N*57
$IIVWR,033,L,10.1,N,,,,*7F
$IIDPT,010.1,-1.0,*40
$IIGLL,4613.369,N,00610.111,E,132437,A,A*5A
$IIHDG,290,,,01,E*18
$IIMTW,+22.0,C*38
$IIMWV,329,R,10.0,N,A*1A
$IIMWV,310,T,07.0,N,A*10
$IIRMC,132437,A,4613.369,N,00610.111,E,03.8,293,270614,01,E,A*02
$IIVHW,,,290,M,03.8,N,,*64
$IIVLW,01554,N,000.1,N*57
$IIVWR,030,L,10.0,N,,,,*7D
$IIDPT,010.1,-1.0,*40
$IIGLL,4613.369,N,00610.111,E,132437,A,A*5A
$IIHDG,290,,,01,E*18
$IIMTW,+22.5,C*3D
$IIMWV,330,R,10.0,N,A*12
$IIMWV,313,T,07.0,N,A*13
$IIRMC,132437,A,4613.369,N,00610.111,E,03.8,293,270614,01,E,A*02
$IIVHW,,,290,M,03.8,N,,*64
$IIVLW,01554,N,000.1,N*57
$IIVWR,029,L,09.9,N,,,,*74
$IIDPT,010.2,-1.0,*43
$IIGLL,4613.370,N,00610.108,E,132439,A,A*54
$IIHDG,290,,,01,E*18
$IIMTW,+22.5,C*3D
$IIMWV,331,R,09.9,N,A*12
$IIMWV,314,T,07.0,N,A*14
$IIRMC,132439,A,4613.370,N,00610.108,E,02.6,277,270614,01,E,A*09
$IIVHW,,,289,M,03.8,N,,*6C
$IIVLW,01554,N,000.1,N*57
$IIVWR,029,L,09.9,N,,,,*74
$IIDPT,010.2,-1.0,*43
$IIGLL,4613.370,N,00610.107,E,132440,A,A*55
$IIHDG,289,,,01,E*10
$IIMTW,+21.5,C*3E
$IIMWV,331,R,09.9,N,A*12
$IIMWV,316,T,06.7,N,A*10
$IIRMC,132441,A,4613.370,N,00610.106,E,03.8,290,270614,01,E,A*0E
$IIVHW,,,289,M,03.8,N,,*6C
$IIVLW,01554,N,000.1,N*57
$IIVWR,028,L,09.8,N,,,,*74
$IIDPT,010.3,-1.0,*42
$IIGLL,4613.370,N,00610.106,E,132441,A,A*55
$IIHDG,289,,,01,E*10
$IIMTW,+22.0,C*38
$IIMWV,332,R,09.8,N,A*10
$IIMWV,316,T,06.6,N,A*11
$IIRMC,132442,A,4613.370,N,00610.104,E,03.7,296,270614,01,E,A*06
$IIVHW,,,289,M,03.8,N,,*6C
$IIVLW,01554,N,000.1,N*57
$IIVWR,029,L,09.8,N,,,,*75
$IIDPT,010.3,-1.0,*42
$IIGLL,4613.370,N,00610.104,E,132442,A,A*54
$IIHDG,289,,,01,E*10
$IIMTW,+22.0,C*38
$IIMWV,331,R,09.8,N,A*13
$IIMWV,314,T,06.5,N,A*10
$IIRMC,132443,A,4613.371,N,00610.103,E,03.7,287,270614,01,E,A*01
$IIVHW,,,288,M,03.8,N,,*6D
$IIVLW,01554,N,000.1,N*57
$IIVWR,029,L,09.8,N,,,,*75
$IIDPT,010.3,-1.0,*42
$IIGLL,4613.371,N,00610.103,E,132443,A,A*53
$IIHDG,288,,,01,E*11
$IIMTW,+21.5,C*3E
$IIMWV,331,R,09.6,N,A*1D
$IIMWV,314,T,06.5,N,A*10
$IIRMC,132444,A,4613.371,N,00610.102,E,03.9,291,270614,01,E,A*0E
$IIVHW,,,288,M,03.8,N,,*6D
$IIVLW,01554,N,000.1,N*57
$IIVWR,029,L,09.6,N,,,,*7B
$IIDPT,010.3,-1.0,*42
$IIGLL,4613.371,N,00610.102,E,132444,A,A*55
$IIHDG,289,,,01,E*10
$IIMTW,+22.0,C*38
$IIMWV,331,R,09.5,N,A*1E
$IIMWV,314,T,06.3,N,A*16
$IIRMC,132445,A,4613.372,N,00610.101,E,03.6,292,270614,01,E,A*03
$IIVHW,,,289,M,03.8,N,,*6C
$IIVLW,01554,N,000.1,N*57
$IIVWR,029,L,09.5,N,,,,*78
$IIDPT,010.3,-1.0,*42
$IIGLL,4613.372,N,00610.099,E,132446,A,A*57
$IIHDG,290,,,01,E*18
$IIMTW,+22.0,C*38
$IIMWV,331,R,09.3,N,A*18
$IIMWV,314,T,06.2,N,A*17
$IIRMC,132446,A,4613.372,N,00610.099,E,04.1,297,270614,01,E,A*05
$IIVHW,,,290,M,03.8,N,,*64
$IIVLW,01554,N,000.1,N*57
$IIVWR,029,L,09.3,N,,,,*7E
$IIDPT,010.3,-1.0,*42
$IIGLL,4613.373,N,00610.098,E,132447,A,A*56
$IIHDG,290,,,01,E*18
$IIMTW,+22.0,C*38
$IIMWV,331,R,09.1,N,A*1A
$IIMWV,313,T,06.0,N,A*12
$IIRMC,132447,A,4613.373,N,00610.098,E,03.7,290,270614,01,E,A*02
$IIVHW,,,290,M,03.8,N,,*64
$IIVLW,01554,N,000.1,N*57
$IIVWR,029,L,09.0,N,,,,*7D
$IIDPT,010.3,-1.0,*42
$IIGLL,4613.373,N,00610.097,E,132448,A,A*56
$IIHDG,290,,,01,E*18
$IIMTW,+21.5,C*3E
$IIMWV,331,R,09.0,N,A*1B
$IIMWV,313,T,05.8,N,A*19
$IIRMC,132448,A,4613.373,N,00610.097,E,04.2,295,270614,01,E,A*05
$IIVHW,,,290,M,03.8,N,,*64
$IIVLW,01554,N,000.1,N*57
$IIVWR,030,L,08.7,N,,,,*73
$IIDPT,010.3,-1.0,*42
$IIGLL,4613.373,N,00610.095,E,132449,A,A*55
$IIHDG,290,,,01,E*18
$IIMTW,+21.5,C*3E
$IIMWV,330,R,08.7,N,A*1C
$IIMWV,312,T,05.8,N,A*18
$IIRMC,132449,A,4613.373,N,00610.095,E,04.0,296,270614,01,E,A*07
$IIVHW,,,291,M,03.9,N,,*64
$IIVLW,01554,N,000.1,N*57
$IIVWR,031,L,08.7,N,,,,*72
$IIDPT,010.3,-1.0,*42
$IIGLL,4613.374,N,00610.094,E,132450,A,A*5B
$IIHDG,291,,,01,E*19
$IIMTW,+22.0,C*38
$IIMWV,329,R,08.7,N,A*14
$IIMWV,310,T,05.6,N,A*14
$IIRMC,132451,A,4613.374,N,00610.093,E,06.0,297,270614,01,E,A*0C
$IIVHW,,,291,M,03.9,N,,*64
$IIVLW,01554,N,000.1,N*57
$IIVWR,032,L,08.6,N,,,,*70
$IIDPT,010.3,-1.0,*42
$IIGLL,4613.374,N,00610.093,E,132451,A,A*5D
$IIHDG,291,,,01,E*19
$IIMTW,+22.0,C*38
$IIMWV,328,R,08.6,N,A*14
$IIMWV,307,T,05.6,N,A*12
$IIRMC,132452,A,4613.375,N,00610.091,E,03.1,291,270614,01,E,A*0E
$IIVHW,,,291,M,03.9,N,,*64
$IIVLW,01554,N,000.1,N*57
$IIVWR,033,L,08.6,N,,,,*71
$IIDPT,010.3,-1.0,*42
$IIGLL,4613.375,N,00610.091,E,132452,A,A*5D
$IIHDG,291,,,01,E*19
$IIMTW,+22.0,C*38
$IIMWV,325,R,08.6,N,A*19
$IIMWV,306,T,05.6,N,A*13
$IIRMC,132453,A,4613.375,N,00610.090,E,04.3,295,270614,01,E,A*0F
$IIVHW,,,291,M,03.9,N,,*64
$IIVLW,01554,N,000.1,N*57
$IIVWR,035,L,08.6,N,,,,*77
$IIDPT,010.3,-1.0,*42
$IIGLL,4613.375,N,00610.090,E,132453,A,A*5D
$IIHDG,291,,,01,E*19
$IIMTW,+21.5,C*3E
$IIMWV,322,R,08.6,N,A*1E
$IIMWV,302,T,05.7,N,A*16
$IIRMC,132454,A,4613.376,N,00610.088,E,05.2,286,270614,01,E,A*00
$IIVHW,,,291,M,03.9,N,,*64
$IIVLW,01554,N,000.1,N*57
$IIVWR,038,L,08.6,N,,,,*7A
$IIDPT,010.4,-1.0,*45
$IIGLL,4613.376,N,00610.088,E,132454,A,A*50
$IIHDG,291,,,01,E*19
$IIMTW,+22.0,C*38
$IIMWV,322,R,08.5,N,A*1D
$IIMWV,298,T,05.9,N,A*1A
$IIRMC,132455,A,4613.376,N,00610.086,E,04.0,297,270614,01,E,A*0C
$IIVHW,,,291,M,03.9,N,,*64
$IIVLW,01554,N,000.1,N*57
$IIVWR,038,L,08.5,N,,,,*79
$IIDPT,010.4,-1.0,*45
$IIGLL,4613.377,N,00610.085,E,132456,A,A*5E
$IIHDG,293,,,01,E*1B
$IIMTW,+22.0,C*38
$IIMWV,322,R,08.1,N,A*19
$IIMWV,298,T,05.9,N,A*1A
$IIRMC,132456,A,4613.377,N,00610.085,E,04.0,302,270614,01,E,A*00
$IIVHW,,,293,M,03.9,N,,*66
$IIVLW,01554,N,000.1,N*57
$IIVWR,038,L,08.1,N,,,,*7D
$IIDPT,010.5,-1.0,*44
$IIGLL,4613.377,N,00610.084,E,132457,A,A*5E
$IIHDG,293,,,01,E*1B
$IIMTW,+22.0,C*38
$IIMWV,322,R,07.8,N,A*1F
$IIMWV,295,T,05.5,N,A*1B
$IIRMC,132457,A,4613.377,N,00610.084,E,03.7,301,270614,01,E,A*03
$IIVHW,,,293,M,03.9,N,,*66
$IIVLW,01554,N,000.1,N*57
$IIVWR,042,L,07.5,N,,,,*7B
$IIDPT,010.5,-1.0,*44
$IIGLL,4613.378,N,00610.083,E,132458,A,A*59
$IIHDG,293,,,01,E*1B
$IIMTW,+22.0,C*38
$IIMWV,318,R,07.5,N,A*1B
$IIMWV,294,T,05.2,N,A*1D
$IIRMC,132458,A,4613.378,N,00610.083,E,04.4,303,270614,01,E,A*02
$IIVHW,,,293,M,03.9,N,,*66
$IIVLW,01554,N,000.1,N*57
$IIVWR,042,L,07.3,N,,,,*7D
$IIDPT,010.5,-1.0,*44
$IIGLL,4613.378,N,00610.081,E,132459,A,A*5A
$IIHDG,293,,,01,E*1B
$IIMTW,+22.0,C*38
$IIMWV,318,R,07.3,N,A*1D
$IIMWV,287,T,05.2,N,A*1F
$IIRMC,132459,A,4613.378,N,00610.081,E,03.8,298,270614,01,E,A*09
$IIVHW,,,293,M,03.9,N,,*66
$IIVLW,01554,N,000.1,N*57
$IIVWR,043,L,07.0,N,,,,*7F
$IIDPT,010.5,-1.0,*44
$IIGLL,4613.379,N,00610.080,E,132500,A,A*57
$IIHDG,293,,,01,E*1B
$IIMTW,+22.0,C*38
$IIMWV,317,R,07.0,N,A*11
$IIMWV,286,T,05.0,N,A*1C
$IIRMC,132501,A,4613.379,N,00610.078,E,04.0,300,270614,01,E,A*0D
$IIVHW,,,295,M,03.9,N,,*60
$IIVLW,01554,N,000.2,N*54
$IIVWR,043,L,06.9,N,,,,*77
$IIDPT,010.5,-1.0,*44
$IIGLL,4613.379,N,00610.078,E,132501,A,A*51
$IIHDG,295,,,01,E*1D
$IIMTW,+22.0,C*38
$IIMWV,317,R,06.9,N,A*19
$IIMWV,282,T,04.7,N,A*1E
$IIRMC,132502,A,4613.380,N,00610.077,E,03.8,299,270614,01,E,A*09
$IIVHW,,,295,M,03.9,N,,*60
$IIVLW,01554,N,000.2,N*54
$IIVWR,043,L,06.6,N,,,,*78
$IIDPT,010.5,-1.0,*44
$IIGLL,4613.380,N,00610.077,E,132502,A,A*5B
$IIHDG,295,,,01,E*1D
$IIMTW,+22.0,C*38
$IIMWV,316,R,06.5,N,A*14
$IIMWV,280,T,04.4,N,A*1F
$IIRMC,132503,A,4613.380,N,00610.076,E,03.8,301,270614,01,E,A*09
$IIVHW,,,296,M,03.9,N,,*63
$IIVLW,01554,N,000.2,N*54
$IIVWR,044,L,06.5,N,,,,*7C
$IIDPT,010.5,-1.0,*44
$IIGLL,4613.380,N,00610.076,E,132503,A,A*5B
$IIHDG,296,,,01,E*1E
$IIMTW,+22.0,C*38
$IIMWV,316,R,06.3,N,A*12
$IIMWV,278,T,04.4,N,A*18
$IIRMC,132504,A,4613.381,N,00610.074,E,03.7,300,270614,01,E,A*03
$IIVHW,,,296,M,03.9,N,,*63
$IIVLW,01554,N,000.2,N*54
$IIVWR,044,L,06.3,N,,,,*7A
$IIDPT,010.5,-1.0,*44
$IIGLL,4613.381,N,00610.074,E,132504,A,A*5F
$IIHDG,296,,,01,E*1E
$IIMTW,+22.0,C*38
$IIMWV,313,R,06.4,N,A*10
$IIMWV,278,T,04.3,N,A*1F
$IIRMC,132505,A,4613.382,N,00610.073,E,03.7,301,270614,01,E,A*07
$IIVHW,,,296,M,03.9,N,,*63
$IIVLW,01554,N,000.2,N*54
$IIVWR,047,L,06.4,N,,,,*7E
$IIDPT,010.5,-1.0,*44
$IIGLL,4613.382,N,00610.072,E,132506,A,A*58
$IIHDG,297,,,01,E*1F
$IIMTW,+22.0,C*38
$IIMWV,312,R,06.6,N,A*13
$IIMWV,275,T,04.6,N,A*17
$IIRMC,132506,A,4613.382,N,00610.072,E,03.8,301,270614,01,E,A*0A
$IIVHW,,,297,M,03.8,N,,*63
$IIVLW,01554,N,000.2,N*54
$IIVWR,048,L,06.6,N,,,,*73
$IIDPT,010.5,-1.0,*44
$IIGLL,4613.383,N,00610.071,E,132507,A,A*5B
$IIHDG,297,,,01,E*1F
$IIMTW,+22.0,C*38
$IIMWV,312,R,06.5,N,A*10
$IIMWV,276,T,04.8,N,A*1A
$IIRMC,132507,A,4613.383,N,00610.071,E,03.7,303,270614,01,E,A*04
$IIVHW,,,297,M,03.8,N,,*63
$IIVLW,01554,N,000.2,N*54
$IIVWR,047,L,06.3,N,,,,*79
$IIDPT,010.5,-1.0,*44
$IIGLL,4613.384,N,00610.070,E,132508,A,A*52
$IIHDG,298,,,01,E*10
$IIMTW,+22.0,C*38
$IIMWV,313,R,06.3,N,A*17
$IIMWV,276,T,04.8,N,A*1A
$IIRMC,132508,A,4613.384,N,00610.070,E,03.7,302,270614,01,E,A*0C
$IIVHW,,,298,M,03.8,N,,*6C
$IIVLW,01554,N,000.2,N*54
$IIVWR,048,L,06.0,N,,,,*75
$IIDPT,010.5,-1.0,*44
$IIGLL,4613.384,N,00610.069,E,132509,A,A*5B
$IIHDG,298,,,01,E*10
$IIMTW,+22.0,C*38
$IIMWV,312,R,06.0,N,A*15
$IIMWV,275,T,04.5,N,A*14
$IIRMC,132509,A,4613.384,N,00610.069,E,03.6,299,270614,01,E,A*07
$IIVHW,,,298,M,03.7,N,,*63
$IIVLW,01554,N,000.2,N*54
$IIVWR,049,L,05.9,N,,,,*7E
$IIDPT,010.5,-1.0,*44
$IIGLL,4613.385,N,00610.067,E,132510,A,A*5C
$IIHDG,298,,,01,E*10
$IIMTW,+22.0,C*38
$IIMWV,311,R,05.9,N,A*1C
$IIMWV,273,T,04.4,N,A*13
$IIRMC,132511,A,4613.385,N,00610.067,E,03.6,300,270614,01,E,A*00
$IIVHW,,,298,M,03.7,N,,*63
$IIVLW,01554,N,000.2,N*54
$IIVWR,050,L,05.9,N,,,,*76
$IIDPT,010.5,-1.0,*44
$IIGLL,4613.385,N,00610.067,E,132511,A,A*5D
$IIHDG,298,,,01,E*10
$IIMTW,+22.0,C*38
$IIMWV,310,R,05.9,N,A*1D
$IIMWV,269,T,04.5,N,A*19
$IIRMC,132512,A,4613.386,N,00610.065,E,03.8,297,270614,01,E,A*03
$IIVHW,,,298,M,03.7,N,,*63
$IIVLW,01554,N,000.2,N*54
$IIVWR,050,L,05.9,N,,,,*76
$IIDPT,010.5,-1.0,*44
$IIGLL,4613.386,N,00610.065,E,132512,A,A*5F
$IIHDG,298,,,01,E*10
$IIMTW,+22.0,C*38
$IIMWV,309,R,06.0,N,A*1F
$IIMWV,270,T,04.5,N,A*11
$IIRMC,132513,A,4613.386,N,00610.064,E,03.3,295,270614,01,E,A*0A
$IIVHW,,,298,M,03.7,N,,*63
$IIVLW,01554,N,000.2,N*54
$IIVWR,051,L,06.0,N,,,,*7D
$IIDPT,010.5,-1.0,*44
$IIGLL,4613.386,N,00610.064,E,132513,A,A*5F
$IIHDG,298,,,01,E*10
$IIMTW,+22.0,C*38
$IIMWV,311,R,06.1,N,A*17
$IIMWV,270,T,04.6,N,A*12
$IIRMC,132514,A,4613.387,N,00610.062,E,03.1,287,270614,01,E,A*0B
$IIVHW,,,297,M,03.7,N,,*6C
$IIVLW,01554,N,000.2,N*54
$IIVWR,049,L,06.1,N,,,,*75
$IIDPT,010.5,-1.0,*44
$IIGLL,4613.387,N,00610.062,E,132514,A,A*5F
$IIHDG,297,,,01,E*1F
$IIMTW,+22.0,C*38
$IIMWV,314,R,06.0,N,A*13
$IIMWV,274,T,04.5,N,A*15
$IIRMC,132515,A,4613.387,N,00610.061,E,03.4,297,270614,01,E,A*0D
$IIVHW,,,297,M,03.7,N,,*6C
$IIVLW,01554,N,000.2,N*54
$IIVWR,046,L,06.0,N,,,,*7B
$IIDPT,010.6,-1.0,*47
$IIGLL,4613.387,N,00610.060,E,132516,A,A*5F
$IIHDG,297,,,01,E*1F
$IIMTW,+22.0,C*38
$IIMWV,313,R,06.0,N,A*14
$IIMWV,275,T,04.3,N,A*12
$IIRMC,132516,A,4613.387,N,00610.060,E,03.4,296,270614,01,E,A*0E
$IIVHW,,,297,M,03.6,N,,*6D
$IIVLW,01554,N,000.2,N*54
$IIVWR,047,L,06.0,N,,,,*7A
$IIDPT,010.6,-1.0,*47
$IIGLL,4613.389,N,00610.057,E,132518,A,A*5B
$IIHDG,298,,,01,E*10
$IIMTW,+21.5,C*3E
$IIMWV,311,R,05.9,N,A*1C
$IIMWV,277,T,04.3,N,A*10
$IIRMC,132518,A,4613.389,N,00610.057,E,03.4,301,270614,01,E,A*05
$IIVHW,,,298,M,03.6,N,,*62
$IIVLW,01554,N,000.2,N*54
$IIVWR,050,L,06.0,N,,,,*7C
$IIDPT,010.6,-1.0,*47
$IIGLL,4613.389,N,00610.056,E,132519,A,A*5B
$IIHDG,298,,,01,E*10
$IIMTW,+21.5,C*3E
$IIMWV,310,R,06.0,N,A*17
$IIMWV,273,T,04.4,N,A*13
$IIRMC,132519,A,4613.389,N,00610.056,E,03.4,295,270614,01,E,A*09
$IIVHW,,,298,M,03.5,N,,*61
$IIVLW,01554,N,000.2,N*54
$IIVWR,052,L,06.0,N,,,,*7E
$IIDPT,010.6,-1.0,*47
$IIGLL,4613.389,N,00610.055,E,132520,A,A*52
$IIHDG,298,,,01,E*10
$IIMTW,+21.5,C*3E
$IIMWV,308,R,06.0,N,A*1E
$IIMWV,273,T,04.6,N,A*11
$IIRMC,132520,A,4613.389,N,00610.055,E,03.4,301,270614,01,E,A*0C
$IIVHW,,,298,M,03.5,N,,*61
$IIVLW,01554,N,000.2,N*54
$IIVWR,053,L,06.0,N,,,,*7F
$IIDPT,010.6,-1.0,*47
$IIGLL,4613.390,N,00610.054,E,132521,A,A*5A
$IIHDG,298,,,01,E*10
$IIMTW,+21.5,C*3E
$IIMWV,307,R,06.0,N,A*11
$IIMWV,271,T,04.7,N,A*12
$IIRMC,132522,A,4613.391,N,00610.053,E,03.3,301,270614,01,E,A*06
$IIVHW,,,299,M,03.5,N,,*60
$IIVLW,01554,N,000.2,N*54
$IIVWR,053,L,06.1,N,,,,*7E
$IIDPT,010.6,-1.0,*47
$IIGLL,4613.391,N,00610.053,E,132522,A,A*5F
$IIHDG,299,,,01,E*11
$IIMTW,+21.5,C*3E
$IIMWV,307,R,06.1,N,A*10
$IIMWV,271,T,04.8,N,A*1D
$IIRMC,132523,A,4613.391,N,00610.052,E,03.6,301,270614,01,E,A*03
$IIVHW,,,299,M,03.5,N,,*60
$IIVLW,01554,N,000.2,N*54
$IIVWR,054,L,06.2,N,,,,*7A
$IIDPT,010.7,-1.0,*46
$IIGLL,4613.391,N,00610.052,E,132523,A,A*5F
$IIHDG,299,,,01,E*11
$IIMTW,+21.5,C*3E
$IIMWV,305,R,06.2,N,A*11
$IIMWV,271,T,05.0,N,A*14
$IIRMC,132524,A,4613.392,N,00610.050,E,03.5,298,270614,01,E,A*07
$IIVHW,,,299,M,03.5,N,,*60
$IIVLW,01554,N,000.2,N*54
$IIVWR,055,L,06.2,N,,,,*7B
$IIDPT,010.8,-1.0,*49
$IIGLL,4613.392,N,00610.050,E,132524,A,A*59
$IIHDG,299,,,01,E*11
$IIMTW,+22.0,C*38
$IIMWV,304,R,06.2,N,A*10
$IIMWV,270,T,05.0,N,A*15
$IIRMC,132525,A,4613.392,N,00610.049,E,03.5,303,270614,01,E,A*0D
$IIVHW,,,299,M,03.5,N,,*60
$IIVLW,01554,N,000.2,N*54
$IIVWR,056,L,06.2,N,,,,*78
$IIDPT,010.8,-1.0,*49
$IIGLL,4613.392,N,00610.049,E,132525,A,A*50
$IIHDG,299,,,01,E*11
$IIMTW,+22.0,C*38
$IIMWV,305,R,06.4,N,A*17
$IIMWV,269,T,05.1,N,A*1C
$IIRMC,132526,A,4613.393,N,00610.048,E,03.5,300,270614,01,E,A*0D
$IIVHW,,,299,M,03.5,N,,*60
$IIVLW,01554,N,000.2,N*54
$IIVWR,055,L,06.4,N,,,,*7D
$IIDPT,010.9,-1.0,*48
$IIGLL,4613.394,N,00610.047,E,132527,A,A*5A
$IIHDG,298,,,01,E*10
$IIMTW,+22.0,C*38
$IIMWV,306,R,06.4,N,A*14
$IIMWV,271,T,05.2,N,A*16
$IIRMC,132527,A,4613.394,N,00610.047,E,03.5,299,270614,01,E,A*05
$IIVHW,,,298,M,03.4,N,,*60
$IIVLW,01554,N,000.2,N*54
$IIVWR,054,L,06.4,N,,,,*7C
$IIDPT,010.9,-1.0,*48
$IIGLL,4613.394,N,00610.046,E,132528,A,A*54
$IIHDG,298,,,01,E*10
$IIMTW,+22.0,C*38
$IIMWV,306,R,06.4,N,A*14
$IIMWV,272,T,05.1,N,A*16
$IIRMC,132528,A,4613.394,N,00610.046,E,03.4,301,270614,01,E,A*0A
$IIVHW,,,298,M,03.4,N,,*60
$IIVLW,01554,N,000.2,N*54
$IIVWR,052,L,06.4,N,,,,*7A
$IIDPT,010.9,-1.0,*48
$IIGLL,4613.395,N,00610.045,E,132529,A,A*57
$IIHDG,297,,,01,E*1F
$IIMTW,+22.0,C*38
$IIMWV,308,R,06.4,N,A*1A
$IIMWV,272,T,05.1,N,A*16
$IIRMC,132529,A,4613.395,N,00610.045,E,03.2,296,270614,01,E,A*00
$IIVHW,,,297,M,03.4,N,,*6F
$IIVLW,01554,N,000.2,N*54
$IIVWR,051,L,06.2,N,,,,*7F
$IIDPT,010.9,-1.0,*48
$IIGLL,4613.395,N,00610.044,E,132530,A,A*5E
$IIHDG,297,,,01,E*1F
$IIMTW,+22.0,C*38
$IIMWV,309,R,06.2,N,A*1D
$IIMWV,275,T,05.0,N,A*10
$IIRMC,132530,A,4613.395,N,00610.044,E,02.7,289,270614,01,E,A*03
$IIVHW,,,296,M,03.4,N,,*6E
$IIVLW,01554,N,000.2,N*54
$IIVWR,052,L,06.1,N,,,,*7F
$IIDPT,010.9,-1.0,*48
$IIGLL,4613.396,N,00610.042,E,132531,A,A*5A
$IIHDG,296,,,01,E*1E
$IIMTW,+22.0,C*38
$IIMWV,308,R,06.1,N,A*1F
$IIMWV,275,T,04.8,N,A*19
$IIRMC,132532,A,4613.396,N,00610.041,E,03.4,298,270614,01,E,A*05
$IIVHW,,,296,M,03.4,N,,*6E
$IIVLW,01554,N,000.2,N*54
$IIVWR,051,L,06.1,N,,,,*7C
$IIDPT,010.9,-1.0,*48
$IIGLL,4613.396,N,00610.041,E,132532,A,A*5A
$IIHDG,296,,,01,E*1E
$IIMTW,+22.0,C*38
$IIMWV,309,R,06.1,N,A*1E
$IIMWV,275,T,04.7,N,A*16
$IIRMC,132533,A,4613.396,N,00610.039,E,02.1,268,270614,01,E,A*00
$IIVHW,,,296,M,03.3,N,,*69
$IIVLW,01554,N,000.2,N*54
$IIVWR,051,L,06.1,N,,,,*7C
$IIDPT,010.9,-1.0,*48
$IIGLL,4613.396,N,00610.039,E,132533,A,A*54
$IIHDG,296,,,01,E*1E
$IIMTW,+21.5,C*3E
$IIMWV,310,R,06.2,N,A*15
$IIMWV,276,T,04.7,N,A*15
$IIRMC,132534,A,4613.397,N,00610.038,E,03.3,300,270614,01,E,A*0B
$IIVHW,,,296,M,03.2,N,,*68
$IIVLW,01554,N,000.2,N*54
$IIVWR,050,L,06.2,N,,,,*7E
$IIDPT,010.9,-1.0,*48
$IIGLL,4613.397,N,00610.038,E,132534,A,A*53
$IIHDG,296,,,01,E*1E
$IIMTW,+21.5,C*3E
$IIMWV,309,R,06.2,N,A*1D
$IIMWV,277,T,04.7,N,A*14
$IIRMC,132535,A,4613.397,N,00610.037,E,03.1,302,270614,01,E,A*05
$IIVHW,,,296,M,03.2,N,,*68
$IIVLW,01554,N,000.2,N*54
$IIVWR,051,L,06.2,N,,,,*7F
$IIDPT,010.9,-1.0,*48
$IIGLL,4613.397,N,00610.037,E,132535,A,A*5D
$IIHDG,297,,,01,E*1F
$IIMTW,+22.0,C*38
$IIMWV,310,R,06.3,N,A*14
$IIMWV,277,T,04.8,N,A*1B
$IIRMC,132536,A,4613.398,N,00610.036,E,03.4,307,270614,01,E,A*08
$IIVHW,,,297,M,03.2,N,,*69
$IIVLW,01554,N,000.2,N*54
$IIVWR,050,L,06.3,N,,,,*7F
$IIDPT,010.9,-1.0,*48
$IIGLL,4613.398,N,00610.035,E,132537,A,A*52
$IIHDG,299,,,01,E*11
$IIMTW,+21.5,C*3E
$IIMWV,310,R,06.3,N,A*14
$IIMWV,279,T,04.8,N,A*15
$IIRMC,132537,A,4613.398,N,00610.035,E,03.3,308,270614,01,E,A*02
$IIVHW,,,299,M,03.2,N,,*67
$IIVLW,01554,N,000.2,N*54
$IIVWR,050,L,06.3,N,,,,*7F
$IIDPT,010.9,-1.0,*48
$IIGLL,4613.399,N,00610.034,E,132538,A,A*5D
$IIHDG,301,,,01,E*11
$IIMTW,+21.5,C*3E
$IIMWV,310,R,06.4,N,A*13
$IIMWV,279,T,04.8,N,A*15
$IIRMC,132538,A,4613.399,N,00610.034,E,03.3,309,270614,01,E,A*0C
$IIVHW,,,301,M,03.2,N,,*67
$IIVLW,01554,N,000.2,N*54
$IIVWR,050,L,06.4,N,,,,*78
$IIDPT,011.0,-1.0,*40
$IIGLL,4613.400,N,00610.033,E,132539,A,A*5C
$IIHDG,302,,,01,E*12
$IIMTW,+21.5,C*3E
$IIMWV,310,R,06.4,N,A*13
$IIMWV,278,T,04.9,N,A*15
$IIRMC,132539,A,4613.400,N,00610.033,E,03.3,309,270614,01,E,A*0D
$IIVHW,,,302,M,03.2,N,,*64
$IIVLW,01554,N,000.2,N*54
$IIVWR,051,L,06.2,N,,,,*7F
$IIDPT,011.0,-1.0,*40
$IIGLL,4613.400,N,00610.032,E,132540,A,A*53
$IIHDG,304,,,01,E*14
$IIMTW,+21.5,C*3E
$IIMWV,309,R,06.2,N,A*1D
$IIMWV,278,T,04.9,N,A*15
$IIRMC,132540,A,4613.400,N,00610.032,E,03.2,311,270614,01,E,A*0A
$IIVHW,,,306,M,03.2,N,,*60
$IIVLW,01554,N,000.2,N*54
$IIVWR,051,L,06.0,N,,,,*7D
$IIDPT,011.0,-1.0,*40
$IIGLL,4613.401,N,00610.031,E,132541,A,A*50
$IIHDG,306,,,01,E*16
$IIMTW,+21.5,C*3E
$IIMWV,309,R,06.0,N,A*1F
$IIMWV,277,T,04.8,N,A*1B
$IIRMC,132542,A,4613.401,N,00610.030,E,03.1,313,270614,01,E,A*0A
$IIVHW,,,308,M,03.2,N,,*6E
$IIVLW,01554,N,000.2,N*54
$IIVWR,052,L,05.9,N,,,,*74
$IIDPT,011.0,-1.0,*40
$IIGLL,4613.401,N,00610.030,E,132542,A,A*52
$IIHDG,308,,,01,E*18
$IIMTW,+22.0,C*38
$IIMWV,308,R,05.9,N,A*14
$IIMWV,274,T,04.6,N,A*16
$IIRMC,132543,A,4613.402,N,00610.030,E,03.4,009,270614,01,E,A*05
$IIVHW,,,311,M,03.2,N,,*66
$IIVLW,01554,N,000.2,N*54
$IIVWR,053,L,05.8,N,,,,*74
$IIDPT,011.0,-1.0,*40
$IIGLL,4613.402,N,00610.030,E,132543,A,A*50
$IIHDG,311,,,01,E*10
$IIMTW,+22.0,C*38
$IIMWV,304,R,05.8,N,A*19
$IIMWV,271,T,04.6,N,A*13
$IIRMC,132544,A,4613.403,N,00610.030,E,03.0,323,270614,01,E,A*0C
$IIVHW,,,314,M,03.2,N,,*63
$IIVLW,01554,N,000.2,N*54
$IIVWR,056,L,05.8,N,,,,*71
$IIDPT,011.0,-1.0,*40
$IIGLL,4613.403,N,00610.030,E,132544,A,A*56
$IIHDG,314,,,01,E*15
$IIMTW,+21.5,C*3E
$IIMWV,301,R,05.6,N,A*12
$IIMWV,270,T,04.8,N,A*1C
$IIRMC,132545,A,4613.403,N,00610.029,E,03.1,330,270614,01,E,A*06
$IIVHW,,,318,M,03.2,N,,*6F
$IIVLW,01554,N,000.2,N*54
$IIVWR,059,L,05.6,N,,,,*70
$IIDPT,011.0,-1.0,*40
$IIGLL,4613.403,N,00610.029,E,132545,A,A*5F
$IIHDG,323,,,01,E*11
$IIMTW,+21.5,C*3E
$IIMWV,298,R,05.4,N,A*11
$IIMWV,266,T,04.8,N,A*1B
$IIRMC,132546,A,4613.404,N,00610.028,E,02.9,338,270614,01,E,A*02
$IIVHW,,,323,M,03.1,N,,*64
$IIVLW,01554,N,000.2,N*54
$IIVWR,062,L,05.4,N,,,,*7A
$IIDPT,011.0,-1.0,*40
$IIGLL,4613.405,N,00610.028,E,132547,A,A*5A
$IIHDG,328,,,01,E*1A
$IIMTW,+22.0,C*38
$IIMWV,292,R,05.3,N,A*1C
$IIMWV,261,T,04.7,N,A*13
$IIRMC,132547,A,4613.405,N,00610.028,E,02.9,342,270614,01,E,A*0F
$IIVHW,,,328,M,03.1,N,,*6F
$IIVLW,01554,N,000.2,N*54
$IIVWR,068,L,05.3,N,,,,*77
$IIDPT,011.2,-1.0,*42
$IIGLL,4613.406,N,00610.027,E,132548,A,A*59
$IIHDG,332,,,01,E*11
$IIMTW,+21.5,C*3E
$IIMWV,285,R,05.0,N,A*19
$IIMWV,255,T,05.0,N,A*12
$IIRMC,132548,A,4613.406,N,00610.027,E,02.9,347,270614,01,E,A*09
$IIVHW,,,332,M,03.1,N,,*64
$IIVLW,01554,N,000.2,N*54
$IIVWR,078,L,04.8,N,,,,*7C
$IIDPT,011.2,-1.0,*42
$IIGLL,4613.407,N,00610.027,E,132549,A,A*59
$IIHDG,337,,,01,E*14
$IIMTW,+21.5,C*3E
$IIMWV,282,R,04.8,N,A*17
$IIMWV,249,T,05.1,N,A*1E
$IIRMC,132549,A,4613.407,N,00610.027,E,02.9,354,270614,01,E,A*0B
$IIVHW,,,337,M,03.0,N,,*60
$IIVLW,01554,N,000.2,N*54
$IIVWR,089,L,04.5,N,,,,*7F
$IIDPT,011.2,-1.0,*42
$IIGLL,4613.407,N,00610.027,E,132550,A,A*51
$IIHDG,344,,,01,E*10
$IIMTW,+21.5,C*3E
$IIMWV,271,R,04.5,N,A*16
$IIMWV,246,T,05.1,N,A*11
$IIRMC,132550,A,4613.407,N,00610.027,E,02.8,359,270614,01,E,A*0F
$IIVHW,,,349,M,03.0,N,,*69
$IIVLW,01554,N,000.2,N*54
$IIVWR,092,L,04.3,N,,,,*73
$IIDPT,011.2,-1.0,*42
$IIGLL,4613.408,N,00610.027,E,132551,A,A*5F
$IIHDG,349,,,01,E*1D
$IIMTW,+21.5,C*3E
$IIMWV,268,R,04.3,N,A*18
$IIMWV,236,T,05.4,N,A*13
$IIRMC,132552,A,4613.409,N,00610.027,E,02.8,006,270614,01,E,A*0A
$IIVHW,,,355,M,03.0,N,,*64
$IIVLW,01554,N,000.2,N*54
$IIVWR,103,L,04.1,N,,,,*78
$IIDPT,011.2,-1.0,*42
$IIGLL,4613.409,N,00610.027,E,132552,A,A*5D
$IIHDG,355,,,01,E*10
$IIMTW,+21.5,C*3E
$IIMWV,257,R,04.1,N,A*16
$IIMWV,225,T,05.5,N,A*10
$IIRMC,132553,A,4613.410,N,00610.027,E,02.9,017,270614,01,E,A*02
$IIVHW,,,000,M,02.9,N,,*6F
$IIVLW,01554,N,000.2,N*54
$IIVWR,115,L,03.8,N,,,,*71
$IIDPT,011.2,-1.0,*42
$IIGLL,4613.410,N,00610.027,E,132553,A,A*54
$IIHDG,000,,,01,E*13
$IIMTW,+21.5,C*3E
$IIMWV,238,R,03.5,N,A*1C
$IIMWV,217,T,05.6,N,A*12
$IIRMC,132554,A,4613.411,N,00610.027,E,02.5,019,270614,01,E,A*06
$IIVHW,,,005,M,02.9,N,,*6A
$IIVLW,01554,N,000.2,N*54
$IIVWR,122,L,03.5,N,,,,*78
$IIDPT,011.2,-1.0,*42
$IIGLL,4613.411,N,00610.027,E,132554,A,A*52
$IIHDG,005,,,01,E*16
$IIMTW,+21.5,C*3E
$IIMWV,235,R,03.2,N,A*16
$IIMWV,212,T,05.5,N,A*14
$IIRMC,132555,A,4613.411,N,00610.028,E,02.4,028,270614,01,E,A*0B
$IIVHW,,,010,M,02.9,N,,*6E
$IIVLW,01554,N,000.2,N*54
$IIVWR,125,L,03.2,N,,,,*78
$IIDPT,011.2,-1.0,*42
$IIGLL,4613.411,N,00610.028,E,132555,A,A*5C
$IIHDG,016,,,01,E*14
$IIMTW,+21.5,C*3E
$IIMWV,231,R,03.1,N,A*11
$IIMWV,209,T,05.3,N,A*18
$IIRMC,132556,A,4613.412,N,00610.028,E,02.4,032,270614,01,E,A*00
$IIVHW,,,016,M,02.8,N,,*69
$IIVLW,01554,N,000.2,N*54
$IIVWR,129,L,03.1,N,,,,*77
$IIDPT,011.2,-1.0,*42
$IIGLL,4613.412,N,00610.029,E,132557,A,A*5C
$IIHDG,020,,,01,E*11
$IIMTW,+21.5,C*3E
$IIMWV,221,R,02.9,N,A*19
$IIMWV,207,T,05.3,N,A*16
$IIRMC,132557,A,4613.412,N,00610.029,E,02.4,039,270614,01,E,A*0B
$IIVHW,,,020,M,02.7,N,,*63
$IIVLW,01554,N,000.2,N*54
$IIVWR,139,L,02.9,N,,,,*7F
$IIDPT,011.2,-1.0,*42
$IIGLL,4613.413,N,00610.029,E,132558,A,A*52
$IIHDG,025,,,01,E*14
$IIMTW,+21.5,C*3E
$IIMWV,219,R,02.5,N,A*1E
$IIMWV,201,T,05.2,N,A*11
$IIRMC,132558,A,4613.413,N,00610.029,E,02.4,053,270614,01,E,A*09
$IIVHW,,,025,M,02.7,N,,*66
$IIVLW,01554,N,000.2,N*54
$IIVWR,155,L,02.3,N,,,,*7F
$IIDPT,011.2,-1.0,*42
$IIGLL,4613.413,N,00610.030,E,132559,A,A*5B
$IIHDG,031,,,01,E*11
$IIMTW,+21.5,C*3E
$IIMWV,205,R,02.3,N,A*15
$IIMWV,198,T,04.9,N,A*18
$IIRMC,132559,A,4613.413,N,00610.030,E,02.4,057,270614,01,E,A*04
$IIVHW,,,031,M,02.7,N,,*63
$IIVLW,01554,N,000.2,N*54
$IIVWR,168,L,02.3,N,,,,*71
$IIDPT,011.2,-1.0,*42
$IIGLL,4613.413,N,00610.030,E,132600,A,A*54
$IIHDG,035,,,01,E*15
$IIMTW,+21.5,C*3E
$IIMWV,192,R,02.3,N,A*18
$IIMWV,191,T,04.7,N,A*1F
$IIRMC,132600,A,4613.413,N,00610.030,E,02.2,047,270614,01,E,A*0C
$IIVHW,,,040,M,02.6,N,,*64
$IIVLW,01554,N,000.2,N*54
$IIVWR,178,R,02.4,N,,,,*69
$IIDPT,011.2,-1.0,*42
$IIGLL,4613.413,N,00610.030,E,132600,A,A*54
$IIHDG,040,,,01,E*17
$IIMTW,+21.5,C*3E
$IIMWV,178,R,02.4,N,A*1B
$IIMWV,185,T,04.9,N,A*14
$IIRMC,132602,A,4613.414,N,00610.032,E,02.3,064,270614,01,E,A*0B
$IIVHW,,,045,M,02.6,N,,*61
$IIVLW,01554,N,000.2,N*54
$IIVWR,173,R,02.6,N,,,,*60
$IIDPT,011.2,-1.0,*42
$IIGLL,4613.414,N,00610.032,E,132602,A,A*53
$IIHDG,045,,,01,E*12
$IIMTW,+21.5,C*3E
$IIMWV,173,R,02.6,N,A*12
$IIMWV,177,T,05.1,N,A*10
$IIRMC,132603,A,4613.414,N,00610.033,E,02.3,061,270614,01,E,A*0E
$IIVHW,,,050,M,02.5,N,,*66
$IIVLW,01554,N,000.2,N*54
$IIVWR,162,R,02.6,N,,,,*60
$IIDPT,011.2,-1.0,*42
$IIGLL,4613.414,N,00610.033,E,132603,A,A*53
$IIHDG,050,,,01,E*16
$IIMTW,+21.5,C*3E
$IIMWV,147,R,02.6,N,A*15
$IIMWV,171,T,05.0,N,A*17
$IIRMC,132604,A,4613.414,N,00610.033,E,02.3,061,270614,01,E,A*09
$IIVHW,,,055,M,02.5,N,,*63
$IIVLW,01554,N,000.2,N*54
$IIVWR,147,R,02.6,N,,,,*67
$IIDPT,011.3,-1.0,*43
$IIGLL,4613.414,N,00610.033,E,132604,A,A*54
$IIHDG,055,,,01,E*13
$IIMTW,+21.5,C*3E
$IIMWV,140,R,02.9,N,A*1D
$IIMWV,163,T,04.8,N,A*1D
$IIRMC,132604,A,4613.414,N,00610.033,E,02.3,061,270614,01,E,A*09
$IIVHW,,,059,M,02.5,N,,*6F
