$IIVHW,,,009,M,01.3,N,,*6F
$IIGLL,4613.205,N,00609.670,E,104626,A,A*5E
$IIHDG,009,,,01,E*1A
$IIMTW,+21.0,C*3B
$IIMWV,030,R,06.5,N,A*13
$IIMWV,037,T,05.2,N,A*16
$IIRMC,104626,A,4613.205,N,00609.670,E,02.2,000,270614,01,E,A*05
$IIVHW,,,009,M,01.4,N,,*68
$IIVLW,01550,N,000.7,N*55
$IIVWR,030,R,06.5,N,,,,*61
$IIDPT,008.6,-1.0,*4E
$IIGLL,4613.206,N,00609.670,E,104627,A,A*5C
$IIHDG,009,,,01,E*1A
$IIMTW,+21.0,C*3B
$IIMWV,031,R,06.6,N,A*11
$IIMWV,037,T,05.2,N,A*16
$IIRMC,104627,A,4613.206,N,00609.670,E,02.2,359,270614,01,E,A*08
$IIVHW,,,009,M,01.2,N,,*6E
$IIVLW,01550,N,000.7,N*55
$IIVWR,031,R,06.7,N,,,,*62
$IIDPT,008.6,-1.0,*4E
$IIGLL,4613.206,N,00609.670,E,104628,A,A*53
$IIHDG,009,,,01,E*1A
$IIMTW,+21.0,C*3B
$IIMWV,031,R,06.7,N,A*10
$IIMWV,038,T,05.5,N,A*1E
$IIRMC,104628,A,4613.206,N,00609.670,E,02.1,003,270614,01,E,A*08
$IIVHW,,,009,M,01.4,N,,*68
$IIVLW,01550,N,000.7,N*55
$IIVWR,030,R,06.7,N,,,,*63
$IIDPT,008.6,-1.0,*4E
$IIGLL,4613.206,N,00609.670,E,104628,A,A*53
$IIHDG,008,,,01,E*1B
$IIMTW,+21.0,C*3B
$IIMWV,030,R,06.7,N,A*11
$IIMWV,038,T,05.4,N,A*1F
$IIRMC,104628,A,4613.206,N,00609.670,E,02.1,003,270614,01,E,A*08
$IIVHW,,,008,M,01.6,N,,*6B
$IIVLW,01550,N,000.7,N*55
$IIVWR,031,R,06.8,N,,,,*6D
$IIDPT,008.6,-1.0,*4E
$IIGLL,4613.207,N,00609.671,E,104630,A,A*5A
$IIHDG,008,,,01,E*1B
$IIMTW,+21.0,C*3B
$IIMWV,031,R,06.8,N,A*1F
$IIMWV,037,T,05.4,N,A*10
$IIRMC,104631,A,4613.208,N,00609.671,E,02.0,003,270614,01,E,A*0E
$IIVHW,,,008,M,01.7,N,,*6A
$IIVLW,01550,N,000.7,N*55
$IIVWR,031,R,06.9,N,,,,*6C
$IIDPT,008.6,-1.0,*4E
$IIGLL,4613.208,N,00609.671,E,104631,A,A*54
$IIHDG,008,,,01,E*1B
$IIMTW,+21.0,C*3B
$IIMWV,031,R,06.9,N,A*1E
$IIMWV,040,T,05.3,N,A*17
$IIRMC,104632,A,4613.208,N,00609.671,E,02.3,003,270614,01,E,A*0E
$IIVHW,,,009,M,01.8,N,,*64
$IIVLW,01550,N,000.7,N*55
$IIVWR,031,R,06.9,N,,,,*6C
$IIDPT,008.6,-1.0,*4E
$IIGLL,4613.208,N,00609.671,E,104632,A,A*57
$IIHDG,009,,,01,E*1A
$IIMTW,+21.0,C*3B
$IIMWV,031,R,06.9,N,A*1E
$IIMWV,040,T,05.3,N,A*17
$IIRMC,104633,A,4613.209,N,00609.671,E,02.3,001,270614,01,E,A*0C
$IIVHW,,,009,M,01.9,N,,*65
$IIVLW,01550,N,000.7,N*55
$IIVWR,031,R,06.9,N,,,,*6C
$IIDPT,008.6,-1.0,*4E
$IIGLL,4613.209,N,00609.671,E,104633,A,A*57
$IIHDG,009,,,01,E*1A
$IIMTW,+21.0,C*3B
$IIMWV,031,R,07.0,N,A*16
$IIMWV,041,T,05.3,N,A*16
$IIRMC,104633,A,4613.209,N,00609.671,E,02.3,001,270614,01,E,A*0C
$IIVHW,,,009,M,01.9,N,,*65
$IIVLW,01550,N,000.7,N*55
$IIVWR,031,R,07.0,N,,,,*64
$IIDPT,008.6,-1.0,*4E
$IIGLL,4613.209,N,00609.671,E,104633,A,A*57
$IIHDG,009,,,01,E*1A
$IIMTW,+21.0,C*3B
$IIMWV,030,R,07.0,N,A*17
$IIMWV,041,T,05.4,N,A*11
$IIRMC,104635,A,4613.210,N,00609.671,E,02.2,002,270614,01,E,A*00
$IIVHW,,,009,M,01.9,N,,*65
$IIVLW,01550,N,000.7,N*55
$IIVWR,030,R,07.0,N,,,,*65
$IIDPT,008.6,-1.0,*4E
$IIGLL,4613.211,N,00609.671,E,104636,A,A*5B
$IIHDG,008,,,01,E*1B
$IIMTW,+21.0,C*3B
$IIMWV,031,R,07.1,N,A*17
$IIMWV,041,T,05.3,N,A*16
$IIRMC,104636,A,4613.211,N,00609.671,E,02.2,002,270614,01,E,A*02
$IIVHW,,,008,M,02.0,N,,*6E
$IIVLW,01550,N,000.7,N*55
$IIVWR,031,R,07.1,N,,,,*65
$IIDPT,008.6,-1.0,*4E
$IIGLL,4613.211,N,00609.671,E,104637,A,A*5A
$IIHDG,008,,,01,E*1B
$IIMTW,+21.0,C*3B
$IIMWV,031,R,07.1,N,A*17
$IIMWV,041,T,05.4,N,A*11
$IIRMC,104637,A,4613.211,N,00609.671,E,02.2,359,270614,01,E,A*0E
$IIVHW,,,008,M,02.0,N,,*6E
$IIVLW,01550,N,000.7,N*55
$IIVWR,031,R,07.1,N,,,,*65
$IIDPT,008.6,-1.0,*4E
$IIGLL,4613.212,N,00609.672,E,104638,A,A*55
$IIHDG,007,,,01,E*14
$IIMTW,+21.0,C*3B
$IIMWV,031,R,07.1,N,A*17
$IIMWV,041,T,05.4,N,A*11
$IIRMC,104638,A,4613.212,N,00609.672,E,01.8,002,270614,01,E,A*05
$IIVHW,,,007,M,02.0,N,,*61
$IIVLW,01550,N,000.7,N*55
$IIVWR,031,R,07.2,N,,,,*66
$IIDPT,008.6,-1.0,*4E
$IIGLL,4613.213,N,00609.672,E,104639,A,A*55
$IIHDG,007,,,01,E*14
$IIMTW,+21.0,C*3B
$IIMWV,031,R,07.2,N,A*14
$IIMWV,042,T,05.3,N,A*15
$IIRMC,104639,A,4613.213,N,00609.672,E,02.3,359,270614,01,E,A*00
$IIVHW,,,007,M,02.1,N,,*60
$IIVLW,01550,N,000.7,N*55
$IIVWR,030,R,07.1,N,,,,*64
$IIDPT,008.6,-1.0,*4E
$IIGLL,4613.214,N,00609.672,E,104640,A,A*5C
$IIHDG,007,,,01,E*14
$IIMTW,+21.0,C*3B
$IIMWV,030,R,07.1,N,A*16
$IIMWV,043,T,05.4,N,A*13
$IIRMC,104640,A,4613.214,N,00609.672,E,02.0,005,270614,01,E,A*00
$IIVHW,,,007,M,02.1,N,,*60
$IIVLW,01550,N,000.7,N*55
$IIVWR,030,R,07.1,N,,,,*64
$IIDPT,008.6,-1.0,*4E
$IIGLL,4613.214,N,00609.672,E,104640,A,A*5C
$IIHDG,007,,,01,E*14
$IIMTW,+21.0,C*3B
$IIMWV,030,R,07.1,N,A*16
$IIMWV,041,T,05.3,N,A*16
$IIRMC,104642,A,4613.215,N,00609.672,E,02.3,005,270614,01,E,A*00
$IIVHW,,,006,M,02.1,N,,*61
$IIVLW,01550,N,000.7,N*55
$IIVWR,030,R,07.1,N,,,,*64
$IIDPT,008.6,-1.0,*4E
$IIGLL,4613.215,N,00609.672,E,104642,A,A*5F
$IIHDG,006,,,01,E*15
$IIMTW,+21.0,C*3B
$IIMWV,029,R,07.1,N,A*1E
$IIMWV,041,T,05.3,N,A*16
$IIRMC,104643,A,4613.216,N,00609.672,E,02.3,003,270614,01,E,A*04
$IIVHW,,,006,M,02.1,N,,*61
$IIVLW,01550,N,000.7,N*55
$IIVWR,029,R,07.1,N,,,,*6C
$IIDPT,008.6,-1.0,*4E
$IIGLL,4613.216,N,00609.672,E,104643,A,A*5D
$IIHDG,006,,,01,E*15
$IIMTW,+21.0,C*3B
$IIMWV,031,R,07.1,N,A*17
$IIMWV,041,T,05.1,N,A*14
$IIRMC,104643,A,4613.216,N,00609.672,E,02.3,003,270614,01,E,A*04
$IIVHW,,,006,M,02.2,N,,*62
$IIVLW,01550,N,000.7,N*55
$IIVWR,031,R,07.1,N,,,,*65
$IIDPT,008.6,-1.0,*4E
$IIGLL,4613.216,N,00609.672,E,104643,A,A*5D
$IIHDG,006,,,01,E*15
$IIMTW,+21.0,C*3B
$IIMWV,031,R,07.1,N,A*17
$IIMWV,043,T,05.3,N,A*14
$IIRMC,104645,A,4613.217,N,00609.672,E,02.8,354,270614,01,E,A*09
$IIVHW,,,006,M,02.2,N,,*62
$IIVLW,01550,N,000.7,N*55
$IIVWR,031,R,07.1,N,,,,*65
$IIDPT,008.6,-1.0,*4E
$IIGLL,4613.218,N,00609.672,E,104646,A,A*56
$IIHDG,007,,,01,E*14
$IIMTW,+21.0,C*3B
$IIMWV,030,R,07.1,N,A*16
$IIMWV,043,T,05.3,N,A*14
$IIRMC,104646,A,4613.218,N,00609.672,E,01.9,004,270614,01,E,A*01
$IIVHW,,,007,M,02.2,N,,*63
$IIVLW,01550,N,000.7,N*55
$IIVWR,030,R,07.1,N,,,,*64
$IIDPT,008.6,-1.0,*4E
$IIGLL,4613.218,N,00609.672,E,104647,A,A*57
$IIHDG,007,,,01,E*14
$IIMTW,+21.0,C*3B
$IIMWV,031,R,07.2,N,A*14
$IIMWV,042,T,05.2,N,A*14
$IIRMC,104647,A,4613.218,N,00609.672,E,02.5,349,270614,01,E,A*05
$IIVHW,,,007,M,02.2,N,,*63
$IIVLW,01550,N,000.7,N*55
$IIVWR,031,R,07.3,N,,,,*67
$IIDPT,008.6,-1.0,*4E
$IIGLL,4613.219,N,00609.672,E,104648,A,A*59
$IIHDG,008,,,01,E*1B
$IIMTW,+21.0,C*3B
$IIMWV,031,R,07.3,N,A*15
$IIMWV,043,T,05.3,N,A*14
$IIRMC,104648,A,4613.219,N,00609.672,E,03.4,000,270614,01,E,A*05
$IIVHW,,,008,M,02.2,N,,*6C
$IIVLW,01550,N,000.7,N*55
$IIVWR,032,R,07.3,N,,,,*64
$IIDPT,008.6,-1.0,*4E
$IIGLL,4613.219,N,00609.672,E,104648,A,A*59
$IIHDG,008,,,01,E*1B
$IIMTW,+21.5,C*3E
$IIMWV,032,R,07.3,N,A*16
$IIMWV,043,T,05.3,N,A*14
$IIRMC,104648,A,4613.219,N,00609.672,E,03.4,000,270614,01,E,A*05
$IIVHW,,,006,M,02.3,N,,*63
$IIVLW,01550,N,000.7,N*55
$IIVWR,033,R,07.2,N,,,,*64
$IIDPT,008.6,-1.0,*4E
$IIGLL,4613.221,N,00609.673,E,104650,A,A*5A
$IIHDG,006,,,01,E*15
$IIMTW,+21.5,C*3E
$IIMWV,033,R,07.2,N,A*16
$IIMWV,044,T,05.4,N,A*14
$IIRMC,104651,A,4613.222,N,00609.673,E,02.7,005,270614,01,E,A*03
$IIVHW,,,006,M,02.3,N,,*63
$IIVLW,01550,N,000.7,N*55
$IIVWR,033,R,07.3,N,,,,*65
$IIDPT,008.6,-1.0,*4E
$IIGLL,4613.222,N,00609.673,E,104651,A,A*58
$IIHDG,006,,,01,E*15
$IIMTW,+21.5,C*3E
$IIMWV,033,R,07.3,N,A*17
$IIMWV,046,T,05.4,N,A*16
$IIRMC,104652,A,4613.222,N,00609.673,E,02.4,000,270614,01,E,A*06
$IIVHW,,,006,M,02.3,N,,*63
$IIVLW,01550,N,000.7,N*55
$IIVWR,033,R,07.3,N,,,,*65
$IIDPT,008.6,-1.0,*4E
$IIGLL,4613.222,N,00609.673,E,104652,A,A*5B
$IIHDG,006,,,01,E*15
$IIMTW,+21.5,C*3E
$IIMWV,033,R,07.5,N,A*11
$IIMWV,046,T,05.4,N,A*16
$IIRMC,104653,A,4613.223,N,00609.673,E,02.4,004,270614,01,E,A*02
$IIVHW,,,006,M,02.3,N,,*63
$IIVLW,01550,N,000.7,N*55
$IIVWR,033,R,07.5,N,,,,*63
$IIDPT,008.6,-1.0,*4E
$IIGLL,4613.223,N,00609.673,E,104653,A,A*5B
$IIHDG,006,,,01,E*15
$IIMTW,+21.5,C*3E
$IIMWV,033,R,07.5,N,A*11
$IIMWV,046,T,05.5,N,A*17
$IIRMC,104654,A,4613.224,N,00609.673,E,02.6,003,270614,01,E,A*07
$IIVHW,,,006,M,02.4,N,,*64
$IIVLW,01550,N,000.7,N*55
$IIVWR,033,R,07.5,N,,,,*63
$IIDPT,008.6,-1.0,*4E
$IIGLL,4613.224,N,00609.673,E,104654,A,A*5B
$IIHDG,006,,,01,E*15
$IIMTW,+21.5,C*3E
$IIMWV,032,R,07.5,N,A*10
$IIMWV,046,T,05.5,N,A*17
$IIRMC,104655,A,4613.224,N,00609.673,E,02.1,011,270614,01,E,A*02
$IIVHW,,,006,M,02.4,N,,*64
$IIVLW,01550,N,000.7,N*55
$IIVWR,032,R,07.5,N,,,,*62
$IIDPT,008.6,-1.0,*4E
$IIGLL,4613.225,N,00609.673,E,104656,A,A*58
$IIHDG,007,,,01,E*14
$IIMTW,+21.5,C*3E
$IIMWV,031,R,07.5,N,A*13
$IIMWV,045,T,05.5,N,A*14
$IIRMC,104656,A,4613.225,N,00609.673,E,02.6,003,270614,01,E,A*04
$IIVHW,,,007,M,02.4,N,,*65
$IIVLW,01550,N,000.7,N*55
$IIVWR,031,R,07.5,N,,,,*61
$IIDPT,008.6,-1.0,*4E
$IIGLL,4613.226,N,00609.673,E,104657,A,A*5A
$IIHDG,007,,,01,E*14
$IIMTW,+21.5,C*3E
$IIMWV,031,R,07.5,N,A*13
$IIMWV,045,T,05.5,N,A*14
$IIRMC,104657,A,4613.226,N,00609.673,E,02.6,001,270614,01,E,A*04
$IIVHW,,,007,M,02.4,N,,*65
$IIVLW,01550,N,000.7,N*55
$IIVWR,030,R,07.5,N,,,,*60
$IIDPT,008.6,-1.0,*4E
$IIGLL,4613.227,N,00609.673,E,104658,A,A*54
$IIHDG,006,,,01,E*15
$IIMTW,+21.5,C*3E
$IIMWV,030,R,07.5,N,A*12
$IIMWV,045,T,05.5,N,A*14
$IIRMC,104658,A,4613.227,N,00609.673,E,02.6,005,270614,01,E,A*0E
$IIVHW,,,006,M,02.4,N,,*64
$IIVLW,01550,N,000.7,N*55
$IIVWR,030,R,07.5,N,,,,*60
$IIDPT,008.6,-1.0,*4E
$IIGLL,4613.227,N,00609.673,E,104659,A,A*55
$IIHDG,006,,,01,E*15
$IIMTW,+21.5,C*3E
$IIMWV,030,R,07.5,N,A*12
$IIMWV,043,T,05.4,N,A*13
$IIRMC,104659,A,4613.227,N,00609.673,E,02.3,005,270614,01,E,A*0A
$IIVHW,,,006,M,02.4,N,,*64
$IIVLW,01550,N,000.7,N*55
$IIVWR,030,R,07.5,N,,,,*60
$IIDPT,008.7,-1.0,*4F
$IIGLL,4613.228,N,00609.673,E,104700,A,A*57
$IIHDG,006,,,01,E*15
$IIMTW,+21.5,C*3E
$IIMWV,030,R,07.5,N,A*12
$IIMWV,043,T,05.4,N,A*13
$IIRMC,104701,A,4613.229,N,00609.673,E,02.6,004,270614,01,E,A*0C
$IIVHW,,,006,M,02.4,N,,*64
$IIVLW,01550,N,000.7,N*55
$IIVWR,030,R,07.5,N,,,,*60
$IIDPT,008.8,-1.0,*40
$IIGLL,4613.229,N,00609.673,E,104701,A,A*57
$IIHDG,006,,,01,E*15
$IIMTW,+21.5,C*3E
$IIMWV,030,R,07.5,N,A*12
$IIMWV,043,T,05.4,N,A*13
$IIRMC,104702,A,4613.230,N,00609.673,E,02.3,001,270614,01,E,A*07
$IIVHW,,,006,M,02.4,N,,*64
$IIVLW,01550,N,000.7,N*55
$IIVWR,031,R,07.5,N,,,,*61
$IIDPT,008.8,-1.0,*40
$IIGLL,4613.230,N,00609.673,E,104702,A,A*5C
$IIHDG,006,,,01,E*15
$IIMTW,+21.5,C*3E
$IIMWV,030,R,07.5,N,A*12
$IIMWV,045,T,05.5,N,A*14
$IIRMC,104703,A,4613.230,N,00609.673,E,02.3,005,270614,01,E,A*02
$IIVHW,,,006,M,02.4,N,,*64
$IIVLW,01550,N,000.7,N*55
$IIVWR,030,R,07.5,N,,,,*60
$IIDPT,008.8,-1.0,*40
$IIGLL,4613.230,N,00609.673,E,104703,A,A*5D
$IIHDG,006,,,01,E*15
$IIMTW,+21.5,C*3E
$IIMWV,031,R,07.4,N,A*12
$IIMWV,043,T,05.4,N,A*13
$IIRMC,104704,A,4613.231,N,00609.673,E,02.4,002,270614,01,E,A*04
$IIVHW,,,006,M,02.5,N,,*65
$IIVLW,01550,N,000.7,N*55
$IIVWR,031,R,07.4,N,,,,*60
$IIDPT,008.8,-1.0,*40
$IIGLL,4613.231,N,00609.673,E,104704,A,A*5B
$IIHDG,005,,,01,E*16
$IIMTW,+21.5,C*3E
$IIMWV,031,R,07.3,N,A*15
$IIMWV,045,T,05.3,N,A*12
$IIRMC,104705,A,4613.232,N,00609.673,E,02.2,004,270614,01,E,A*06
$IIVHW,,,005,M,02.5,N,,*66
$IIVLW,01550,N,000.7,N*55
$IIVWR,031,R,07.3,N,,,,*67
$IIDPT,008.8,-1.0,*40
$IIGLL,4613.233,N,00609.673,E,104706,A,A*5B
$IIHDG,005,,,01,E*16
$IIMTW,+21.5,C*3E
$IIMWV,031,R,07.3,N,A*15
$IIMWV,045,T,05.2,N,A*13
$IIRMC,104706,A,4613.233,N,00609.673,E,02.5,001,270614,01,E,A*06
$IIVHW,,,005,M,02.5,N,,*66
$IIVLW,01550,N,000.7,N*55
$IIVWR,031,R,07.3,N,,,,*67
$IIDPT,008.8,-1.0,*40
$IIGLL,4613.233,N,00609.672,E,104707,A,A*5B
$IIHDG,004,,,01,E*17
$IIMTW,+21.5,C*3E
$IIMWV,031,R,07.2,N,A*14
$IIMWV,045,T,05.2,N,A*13
$IIRMC,104707,A,4613.233,N,00609.672,E,02.5,356,270614,01,E,A*07
$IIVHW,,,004,M,02.5,N,,*67
$IIVLW,01550,N,000.7,N*55
$IIVWR,031,R,07.2,N,,,,*66
$IIDPT,008.8,-1.0,*40
$IIGLL,4613.234,N,00609.672,E,104708,A,A*53
$IIHDG,003,,,01,E*10
$IIMTW,+21.5,C*3E
$IIMWV,031,R,07.2,N,A*14
$IIMWV,046,T,05.1,N,A*13
$IIRMC,104708,A,4613.234,N,00609.672,E,02.3,358,270614,01,E,A*07
$IIVHW,,,003,M,02.5,N,,*60
$IIVLW,01550,N,000.7,N*55
$IIVWR,030,R,07.3,N,,,,*66
$IIDPT,008.8,-1.0,*40
$IIGLL,4613.235,N,00609.672,E,104709,A,A*53
$IIHDG,003,,,01,E*10
$IIMTW,+21.5,C*3E
$IIMWV,030,R,07.3,N,A*14
$IIMWV,046,T,05.1,N,A*13
$IIRMC,104709,A,4613.235,N,00609.672,E,02.5,357,270614,01,E,A*0E
$IIVHW,,,003,M,02.5,N,,*60
$IIVLW,01550,N,000.7,N*55
$IIVWR,031,R,07.1,N,,,,*65
$IIDPT,008.8,-1.0,*40
$IIGLL,4613.235,N,00609.672,E,104710,A,A*5B
$IIHDG,003,,,01,E*10
$IIMTW,+21.5,C*3E
$IIMWV,031,R,07.1,N,A*17
$IIMWV,043,T,05.2,N,A*15
$IIRMC,104711,A,4613.236,N,00609.671,E,02.7,356,270614,01,E,A*04
$IIVHW,,,003,M,02.5,N,,*60
$IIVLW,01550,N,000.7,N*55
$IIVWR,030,R,07.2,N,,,,*67
$IIDPT,008.8,-1.0,*40
$IIGLL,4613.236,N,00609.671,E,104711,A,A*5A
$IIHDG,003,,,01,E*10
$IIMTW,+21.5,C*3E
$IIMWV,030,R,07.2,N,A*15
$IIMWV,044,T,05.1,N,A*11
$IIRMC,104712,A,4613.237,N,00609.671,E,02.6,000,270614,01,E,A*07
$IIVHW,,,003,M,02.5,N,,*60
$IIVLW,01550,N,000.7,N*55
$IIVWR,030,R,07.2,N,,,,*67
$IIDPT,008.8,-1.0,*40
$IIGLL,4613.237,N,00609.671,E,104712,A,A*58
$IIHDG,003,,,01,E*10
$IIMTW,+21.0,C*3B
$IIMWV,030,R,07.3,N,A*14
$IIMWV,044,T,05.1,N,A*11
$IIRMC,104713,A,4613.238,N,00609.671,E,02.6,359,270614,01,E,A*06
$IIVHW,,,003,M,02.5,N,,*60
$IIVLW,01550,N,000.7,N*55
$IIVWR,030,R,07.3,N,,,,*66
$IIDPT,008.8,-1.0,*40
$IIGLL,4613.238,N,00609.671,E,104713,A,A*56
$IIHDG,003,,,01,E*10
$IIMTW,+21.0,C*3B
$IIMWV,030,R,07.4,N,A*13
$IIMWV,043,T,05.2,N,A*15
$IIRMC,104714,A,4613.239,N,00609.671,E,02.7,000,270614,01,E,A*0E
$IIVHW,,,003,M,02.5,N,,*60
$IIVLW,01550,N,000.7,N*55
$IIVWR,030,R,07.4,N,,,,*61
$IIDPT,008.8,-1.0,*40
$IIGLL,4613.239,N,00609.671,E,104714,A,A*50
$IIHDG,003,,,01,E*10
$IIMTW,+21.0,C*3B
$IIMWV,030,R,07.4,N,A*13
$IIMWV,043,T,05.3,N,A*14
$IIRMC,104715,A,4613.240,N,00609.671,E,02.7,359,270614,01,E,A*0E
$IIVHW,,,003,M,02.5,N,,*60
$IIVLW,01550,N,000.7,N*55
$IIVWR,030,R,07.4,N,,,,*61
$IIDPT,008.8,-1.0,*40
$IIGLL,4613.241,N,00609.671,E,104716,A,A*5D
$IIHDG,003,,,01,E*10
$IIMTW,+21.0,C*3B
$IIMWV,030,R,07.4,N,A*13
$IIMWV,044,T,05.3,N,A*13
$IIRMC,104716,A,4613.241,N,00609.671,E,02.6,000,270614,01,E,A*02
$IIVHW,,,003,M,02.5,N,,*60
$IIVLW,01550,N,000.7,N*55
$IIVWR,030,R,07.4,N,,,,*61
$IIDPT,008.8,-1.0,*40
$IIGLL,4613.242,N,00609.671,E,104717,A,A*5F
$IIHDG,003,,,01,E*10
$IIMTW,+21.0,C*3B
$IIMWV,030,R,07.4,N,A*13
$IIMWV,043,T,05.3,N,A*14
$IIRMC,104717,A,4613.242,N,00609.671,E,02.7,359,270614,01,E,A*0E
$IIVHW,,,003,M,02.5,N,,*60
$IIVLW,01550,N,000.7,N*55
$IIVWR,029,R,07.3,N,,,,*6E
$IIDPT,008.8,-1.0,*40
$IIGLL,4613.244,N,00609.671,E,104720,A,A*5D
$IIHDG,004,,,01,E*17
$IIMTW,+21.0,C*3B
$IIMWV,029,R,07.3,N,A*1C
$IIMWV,044,T,05.1,N,A*11
$IIRMC,104720,A,4613.244,N,00609.671,E,02.6,359,270614,01,E,A*0D
$IIVHW,,,004,M,02.5,N,,*67
$IIVLW,01550,N,000.7,N*55
$IIVWR,029,R,07.4,N,,,,*69
$IIDPT,008.8,-1.0,*40
$IIGLL,4613.245,N,00609.671,E,104721,A,A*5D
$IIHDG,004,,,01,E*17
$IIMTW,+21.0,C*3B
$IIMWV,029,R,07.4,N,A*1B
$IIMWV,043,T,05.0,N,A*17
$IIRMC,104721,A,4613.245,N,00609.671,E,02.7,359,270614,01,E,A*0C
$IIVHW,,,005,M,02.5,N,,*66
$IIVLW,01550,N,000.7,N*55
$IIVWR,030,R,07.5,N,,,,*60
$IIDPT,008.8,-1.0,*40
$IIGLL,4613.246,N,00609.671,E,104722,A,A*5D
$IIHDG,005,,,01,E*16
$IIMTW,+21.0,C*3B
$IIMWV,030,R,07.5,N,A*12
$IIMWV,043,T,05.1,N,A*16
$IIRMC,104723,A,4613.246,N,00609.671,E,02.5,003,270614,01,E,A*03
$IIVHW,,,005,M,02.5,N,,*66
$IIVLW,01550,N,000.8,N*5A
$IIVWR,030,R,07.7,N,,,,*62
$IIDPT,008.8,-1.0,*40
$IIGLL,4613.246,N,00609.671,E,104723,A,A*5C
$IIHDG,005,,,01,E*16
$IIMTW,+21.0,C*3B
$IIMWV,030,R,07.7,N,A*10
$IIMWV,044,T,05.5,N,A*15
$IIRMC,104724,A,4613.247,N,00609.671,E,02.5,001,270614,01,E,A*07
$IIVHW,,,005,M,02.5,N,,*66
$IIVLW,01550,N,000.8,N*5A
$IIVWR,031,R,07.9,N,,,,*6D
$IIDPT,008.8,-1.0,*40
$IIGLL,4613.247,N,00609.671,E,104724,A,A*5A
$IIHDG,005,,,01,E*16
$IIMTW,+21.0,C*3B
$IIMWV,031,R,08.0,N,A*19
$IIMWV,045,T,05.7,N,A*16
$IIRMC,104725,A,4613.247,N,00609.671,E,02.7,000,270614,01,E,A*05
$IIVHW,,,005,M,02.6,N,,*65
$IIVLW,01550,N,000.8,N*5A
$IIVWR,031,R,08.0,N,,,,*6B
$IIDPT,008.8,-1.0,*40
$IIGLL,4613.247,N,00609.671,E,104725,A,A*5B
$IIHDG,005,,,01,E*16
$IIMTW,+21.0,C*3B
$IIMWV,031,R,08.1,N,A*18
$IIMWV,044,T,05.8,N,A*18
$IIRMC,104726,A,4613.248,N,00609.671,E,02.4,000,270614,01,E,A*0A
$IIVHW,,,006,M,02.6,N,,*66
$IIVLW,01550,N,000.8,N*5A
$IIVWR,031,R,08.1,N,,,,*6A
$IIDPT,008.8,-1.0,*40
$IIGLL,4613.248,N,00609.671,E,104726,A,A*57
$IIHDG,007,,,01,E*14
$IIMTW,+21.0,C*3B
$IIMWV,030,R,08.0,N,A*18
$IIMWV,044,T,06.0,N,A*13
$IIRMC,104727,A,4613.249,N,00609.671,E,02.5,007,270614,01,E,A*0C
$IIVHW,,,007,M,02.6,N,,*67
$IIVLW,01550,N,000.8,N*5A
$IIVWR,030,R,08.0,N,,,,*6A
$IIDPT,008.8,-1.0,*40
$IIGLL,4613.249,N,00609.671,E,104728,A,A*58
$IIHDG,008,,,01,E*1B
$IIMTW,+21.0,C*3B
$IIMWV,030,R,08.1,N,A*19
$IIMWV,044,T,05.8,N,A*18
$IIRMC,104728,A,4613.249,N,00609.671,E,02.6,005,270614,01,E,A*02
$IIVHW,,,008,M,02.6,N,,*68
$IIVLW,01550,N,000.8,N*5A
$IIVWR,030,R,08.1,N,,,,*6B
$IIDPT,008.8,-1.0,*40
$IIGLL,4613.250,N,00609.672,E,104729,A,A*52
$IIHDG,009,,,01,E*1A
$IIMTW,+21.0,C*3B
$IIMWV,030,R,08.2,N,A*1A
$IIMWV,042,T,05.9,N,A*1F
$IIRMC,104729,A,4613.250,N,00609.672,E,02.6,011,270614,01,E,A*0D
$IIVHW,,,009,M,02.7,N,,*68
$IIVLW,01550,N,000.8,N*5A
$IIVWR,029,R,08.3,N,,,,*61
$IIDPT,008.8,-1.0,*40
$IIGLL,4613.252,N,00609.672,E,104732,A,A*5A
$IIHDG,011,,,01,E*13
$IIMTW,+21.0,C*3B
$IIMWV,029,R,08.3,N,A*13
$IIMWV,041,T,05.9,N,A*1C
$IIRMC,104732,A,4613.252,N,00609.672,E,02.8,006,270614,01,E,A*0D
$IIVHW,,,011,M,02.7,N,,*61
$IIVLW,01550,N,000.8,N*5A
$IIVWR,028,R,08.4,N,,,,*67
$IIDPT,008.8,-1.0,*40
$IIGLL,4613.253,N,00609.672,E,104733,A,A*5A
$IIHDG,011,,,01,E*13
$IIMTW,+21.0,C*3B
$IIMWV,028,R,08.4,N,A*15
$IIMWV,042,T,05.8,N,A*1E
$IIRMC,104733,A,4613.253,N,00609.672,E,02.5,016,270614,01,E,A*01
$IIVHW,,,011,M,02.7,N,,*61
$IIVLW,01550,N,000.8,N*5A
$IIVWR,028,R,08.4,N,,,,*67
$IIDPT,008.8,-1.0,*40
$IIGLL,4613.253,N,00609.673,E,104734,A,A*5C
$IIHDG,011,,,01,E*13
$IIMTW,+21.0,C*3B
$IIMWV,028,R,08.4,N,A*15
$IIMWV,041,T,05.9,N,A*1C
$IIRMC,104735,A,4613.254,N,00609.673,E,02.8,008,270614,01,E,A*03
$IIVHW,,,011,M,02.7,N,,*61
$IIVLW,01550,N,000.8,N*5A
$IIVWR,028,R,08.4,N,,,,*67
$IIDPT,008.8,-1.0,*40
$IIGLL,4613.254,N,00609.673,E,104735,A,A*5A
$IIHDG,011,,,01,E*13
$IIMTW,+21.0,C*3B
$IIMWV,028,R,08.4,N,A*15
$IIMWV,040,T,06.0,N,A*17
$IIRMC,104736,A,4613.254,N,00609.673,E,02.9,007,270614,01,E,A*0E
$IIVHW,,,011,M,02.7,N,,*61
$IIVLW,01550,N,000.8,N*5A
$IIVWR,028,R,08.4,N,,,,*67
$IIDPT,008.8,-1.0,*40
$IIGLL,4613.254,N,00609.673,E,104736,A,A*59
$IIHDG,011,,,01,E*13
$IIMTW,+21.0,C*3B
$IIMWV,028,R,08.5,N,A*14
$IIMWV,041,T,05.9,N,A*1C
$IIRMC,104737,A,4613.255,N,00609.673,E,02.8,008,270614,01,E,A*00
$IIVHW,,,011,M,02.7,N,,*61
$IIVLW,01550,N,000.8,N*5A
$IIVWR,028,R,08.5,N,,,,*66
$IIDPT,008.8,-1.0,*40
$IIGLL,4613.255,N,00609.673,E,104737,A,A*59
$IIHDG,011,,,01,E*13
$IIMTW,+21.0,C*3B
$IIMWV,028,R,08.7,N,A*16
$IIMWV,040,T,06.0,N,A*17
$IIRMC,104738,A,4613.256,N,00609.674,E,02.8,007,270614,01,E,A*04
$IIVHW,,,012,M,02.7,N,,*62
$IIVLW,01550,N,000.8,N*5A
$IIVWR,028,R,08.7,N,,,,*64
$IIDPT,008.8,-1.0,*40
$IIGLL,4613.256,N,00609.674,E,104738,A,A*52
$IIHDG,012,,,01,E*10
$IIMTW,+21.0,C*3B
$IIMWV,028,R,08.7,N,A*16
$IIMWV,040,T,06.2,N,A*15
$IIRMC,104739,A,4613.256,N,00609.674,E,02.9,008,270614,01,E,A*0B
$IIVHW,,,012,M,02.8,N,,*6D
$IIVLW,01550,N,000.8,N*5A
$IIVWR,028,R,08.7,N,,,,*64
$IIDPT,008.8,-1.0,*40
$IIGLL,4613.257,N,00609.674,E,104740,A,A*5C
$IIHDG,012,,,01,E*10
$IIMTW,+21.0,C*3B
$IIMWV,028,R,08.7,N,A*16
$IIMWV,040,T,06.2,N,A*15
$IIRMC,104740,A,4613.257,N,00609.674,E,02.9,009,270614,01,E,A*05
$IIVHW,,,012,M,02.8,N,,*6D
$IIVLW,01550,N,000.8,N*5A
$IIVWR,028,R,08.7,N,,,,*64
$IIDPT,008.8,-1.0,*40
$IIGLL,4613.258,N,00609.674,E,104741,A,A*52
$IIHDG,012,,,01,E*10
$IIMTW,+21.0,C*3B
$IIMWV,028,R,08.6,N,A*17
$IIMWV,040,T,06.2,N,A*15
$IIRMC,104741,A,4613.258,N,00609.674,E,02.8,009,270614,01,E,A*0A
$IIVHW,,,012,M,02.8,N,,*6D
$IIVLW,01550,N,000.8,N*5A
$IIVWR,028,R,08.6,N,,,,*65
$IIDPT,008.9,-1.0,*41
$IIGLL,4613.259,N,00609.674,E,104742,A,A*50
$IIHDG,011,,,01,E*13
$IIMTW,+21.0,C*3B
$IIMWV,028,R,08.6,N,A*17
$IIMWV,041,T,06.0,N,A*16
$IIRMC,104742,A,4613.259,N,00609.674,E,03.1,004,270614,01,E,A*0D
$IIVHW,,,011,M,02.8,N,,*6E
$IIVLW,01550,N,000.8,N*5A
$IIVWR,028,R,08.6,N,,,,*65
$IIDPT,009.0,-1.0,*49
$IIGLL,4613.260,N,00609.674,E,104743,A,A*5B
$IIHDG,009,,,01,E*1A
$IIMTW,+21.0,C*3B
$IIMWV,028,R,08.6,N,A*17
$IIMWV,041,T,06.0,N,A*16
$IIRMC,104743,A,4613.260,N,00609.674,E,03.1,006,270614,01,E,A*04
$IIVHW,,,009,M,02.8,N,,*67
$IIVLW,01550,N,000.8,N*5A
$IIVWR,028,R,08.6,N,,,,*65
$IIDPT,009.0,-1.0,*49
$IIGLL,4613.260,N,00609.674,E,104744,A,A*5C
$IIHDG,009,,,01,E*1A
$IIMTW,+21.0,C*3B
$IIMWV,028,R,08.6,N,A*17
$IIMWV,041,T,06.0,N,A*16
$IIRMC,104745,A,4613.260,N,00609.675,E,04.1,354,270614,01,E,A*00
$IIVHW,,,008,M,02.8,N,,*66
$IIVLW,01550,N,000.8,N*5A
$IIVWR,028,R,08.3,N,,,,*60
$IIDPT,009.0,-1.0,*49
$IIGLL,4613.260,N,00609.675,E,104745,A,A*5C
$IIHDG,008,,,01,E*1B
$IIMTW,+21.0,C*3B
$IIMWV,028,R,08.3,N,A*12
$IIMWV,042,T,05.8,N,A*1E
$IIRMC,104746,A,4613.262,N,00609.675,E,03.0,001,270614,01,E,A*04
$IIVHW,,,007,M,02.8,N,,*69
$IIVLW,01550,N,000.8,N*5A
$IIVWR,028,R,08.5,N,,,,*66
$IIDPT,009.0,-1.0,*49
$IIGLL,4613.262,N,00609.675,E,104746,A,A*5D
$IIHDG,007,,,01,E*14
$IIMTW,+21.0,C*3B
$IIMWV,029,R,08.5,N,A*15
$IIMWV,041,T,05.9,N,A*1C
$IIRMC,104747,A,4613.262,N,00609.675,E,03.1,000,270614,01,E,A*05
$IIVHW,,,005,M,02.9,N,,*6A
$IIVLW,01550,N,000.8,N*5A
$IIVWR,029,R,08.5,N,,,,*67
$IIDPT,009.0,-1.0,*49
$IIGLL,4613.262,N,00609.675,E,104747,A,A*5C
$IIHDG,005,,,01,E*16
$IIMTW,+21.0,C*3B
$IIMWV,030,R,08.5,N,A*1D
$IIMWV,042,T,05.9,N,A*1F
$IIRMC,104748,A,4613.263,N,00609.674,E,03.1,002,270614,01,E,A*08
$IIVHW,,,005,M,02.9,N,,*6A
$IIVLW,01550,N,000.8,N*5A
$IIVWR,030,R,08.5,N,,,,*6F
$IIDPT,009.0,-1.0,*49
$IIGLL,4613.263,N,00609.674,E,104748,A,A*53
$IIHDG,005,,,01,E*16
$IIMTW,+21.0,C*3B
$IIMWV,031,R,08.5,N,A*1C
$IIMWV,044,T,06.0,N,A*13
$IIRMC,104749,A,4613.264,N,00609.674,E,03.1,359,270614,01,E,A*03
$IIVHW,,,005,M,02.9,N,,*6A
$IIVLW,01550,N,000.8,N*5A
$IIVWR,031,R,08.5,N,,,,*6E
$IIDPT,009.0,-1.0,*49
$IIGLL,4613.265,N,00609.675,E,104750,A,A*5D
$IIHDG,005,,,01,E*16
$IIMTW,+21.0,C*3B
$IIMWV,031,R,08.5,N,A*1C
$IIMWV,045,T,06.2,N,A*10
$IIRMC,104750,A,4613.265,N,00609.675,E,03.1,003,270614,01,E,A*07
$IIVHW,,,005,M,02.9,N,,*6A
$IIVLW,01550,N,000.8,N*5A
$IIVWR,031,R,08.5,N,,,,*6E
$IIDPT,009.0,-1.0,*49
$IIGLL,4613.266,N,00609.675,E,104751,A,A*5F
$IIHDG,005,,,01,E*16
$IIMTW,+21.0,C*3B
$IIMWV,030,R,08.5,N,A*1D
$IIMWV,046,T,06.1,N,A*10
$IIRMC,104751,A,4613.266,N,00609.675,E,02.9,005,270614,01,E,A*0A
$IIVHW,,,005,M,02.9,N,,*6A
$IIVLW,01550,N,000.8,N*5A
$IIVWR,031,R,08.5,N,,,,*6E
$IIDPT,009.0,-1.0,*49
$IIGLL,4613.267,N,00609.675,E,104752,A,A*5D
$IIHDG,005,,,01,E*16
$IIMTW,+21.0,C*3B
$IIMWV,031,R,08.5,N,A*1C
$IIMWV,044,T,06.0,N,A*13
$IIRMC,104752,A,4613.267,N,00609.675,E,03.0,006,270614,01,E,A*03
$IIVHW,,,005,M,03.0,N,,*62
$IIVLW,01550,N,000.8,N*5A
$IIVWR,031,R,08.5,N,,,,*6E
$IIDPT,009.0,-1.0,*49
$IIGLL,4613.269,N,00609.675,E,104753,A,A*52
$IIHDG,005,,,01,E*16
$IIMTW,+21.0,C*3B
$IIMWV,031,R,08.5,N,A*1C
$IIMWV,046,T,06.1,N,A*10
$IIRMC,104753,A,4613.269,N,00609.675,E,03.2,001,270614,01,E,A*09
$IIVHW,,,005,M,03.0,N,,*62
$IIVLW,01550,N,000.8,N*5A
$IIVWR,031,R,08.7,N,,,,*6C
$IIDPT,009.0,-1.0,*49
$IIGLL,4613.269,N,00609.675,E,104754,A,A*55
$IIHDG,005,,,01,E*16
$IIMTW,+21.0,C*3B
$IIMWV,031,R,08.7,N,A*1E
$IIMWV,046,T,06.1,N,A*10
$IIRMC,104755,A,4613.270,N,00609.675,E,03.0,002,270614,01,E,A*06
$IIVHW,,,005,M,03.1,N,,*63
$IIVLW,01550,N,000.8,N*5A
$IIVWR,032,R,08.8,N,,,,*60
$IIDPT,009.0,-1.0,*49
$IIGLL,4613.270,N,00609.675,E,104755,A,A*5C
$IIHDG,005,,,01,E*16
$IIMTW,+21.0,C*3B
$IIMWV,032,R,08.8,N,A*12
$IIMWV,047,T,06.2,N,A*12
$IIRMC,104756,A,4613.271,N,00609.675,E,03.2,003,270614,01,E,A*07
$IIVHW,,,005,M,03.1,N,,*63
$IIVLW,01550,N,000.8,N*5A
$IIVWR,032,R,08.8,N,,,,*60
$IIDPT,009.0,-1.0,*49
$IIGLL,4613.271,N,00609.675,E,104756,A,A*5E
$IIHDG,005,,,01,E*16
$IIMTW,+21.0,C*3B
$IIMWV,032,R,08.9,N,A*13
$IIMWV,047,T,06.2,N,A*12
$IIRMC,104756,A,4613.271,N,00609.675,E,03.2,003,270614,01,E,A*07
$IIVHW,,,005,M,03.1,N,,*63
$IIVLW,01550,N,000.8,N*5A
$IIVWR,032,R,08.9,N,,,,*61
$IIDPT,009.0,-1.0,*49
$IIGLL,4613.271,N,00609.675,E,104756,A,A*5E
$IIHDG,005,,,01,E*16
$IIMTW,+21.0,C*3B
$IIMWV,032,R,08.8,N,A*12
$IIMWV,048,T,06.3,N,A*1C
$IIRMC,104758,A,4613.273,N,00609.675,E,03.3,005,270614,01,E,A*0C
$IIVHW,,,005,M,03.1,N,,*63
$IIVLW,01550,N,000.8,N*5A
$IIVWR,032,R,08.8,N,,,,*60
$IIDPT,009.0,-1.0,*49
$IIGLL,4613.273,N,00609.675,E,104758,A,A*52
$IIHDG,006,,,01,E*15
$IIMTW,+21.0,C*3B
$IIMWV,031,R,08.8,N,A*11
$IIMWV,048,T,06.2,N,A*1D
$IIRMC,104759,A,4613.274,N,00609.675,E,03.3,005,270614,01,E,A*0A
$IIVHW,,,006,M,03.1,N,,*60
$IIVLW,01550,N,000.8,N*5A
$IIVWR,031,R,08.8,N,,,,*63
$IIDPT,009.0,-1.0,*49
$IIGLL,4613.274,N,00609.675,E,104759,A,A*54
$IIHDG,007,,,01,E*14
$IIMTW,+21.0,C*3B
$IIMWV,030,R,08.7,N,A*1F
$IIMWV,046,T,06.2,N,A*13
$IIRMC,104759,A,4613.274,N,00609.675,E,03.3,005,270614,01,E,A*0A
$IIVHW,,,007,M,03.1,N,,*61
$IIVLW,01550,N,000.8,N*5A
$IIVWR,030,R,08.7,N,,,,*6D
$IIDPT,009.0,-1.0,*49
$IIGLL,4613.276,N,00609.675,E,104801,A,A*54
$IIHDG,007,,,01,E*14
$IIMTW,+21.0,C*3B
$IIMWV,030,R,08.5,N,A*1D
$IIMWV,045,T,06.0,N,A*12
$IIRMC,104801,A,4613.276,N,00609.675,E,03.3,007,270614,01,E,A*08
$IIVHW,,,007,M,03.2,N,,*62
$IIVLW,01550,N,000.8,N*5A
$IIVWR,029,R,08.5,N,,,,*67
$IIDPT,009.0,-1.0,*49
$IIGLL,4613.276,N,00609.675,E,104802,A,A*57
$IIHDG,007,,,01,E*14
$IIMTW,+21.0,C*3B
$IIMWV,029,R,08.5,N,A*15
$IIMWV,046,T,05.8,N,A*1A
$IIRMC,104802,A,4613.276,N,00609.675,E,03.4,005,270614,01,E,A*0E
$IIVHW,,,007,M,03.2,N,,*62
$IIVLW,01550,N,000.8,N*5A
$IIVWR,028,R,08.5,N,,,,*66
$IIDPT,009.0,-1.0,*49
$IIGLL,4613.277,N,00609.676,E,104803,A,A*54
$IIHDG,007,,,01,E*14
$IIMTW,+21.0,C*3B
$IIMWV,028,R,08.5,N,A*14
$IIMWV,044,T,05.7,N,A*17
$IIRMC,104803,A,4613.277,N,00609.676,E,03.4,003,270614,01,E,A*0B
$IIVHW,,,005,M,03.2,N,,*60
$IIVLW,01550,N,000.8,N*5A
$IIVWR,028,R,08.3,N,,,,*60
$IIDPT,009.0,-1.0,*49
$IIGLL,4613.278,N,00609.676,E,104804,A,A*5C
$IIHDG,005,,,01,E*16
$IIMTW,+21.0,C*3B
$IIMWV,028,R,08.3,N,A*12
$IIMWV,044,T,05.6,N,A*16
$IIRMC,104805,A,4613.279,N,00609.675,E,03.4,000,270614,01,E,A*03
$IIVHW,,,005,M,03.2,N,,*60
$IIVLW,01550,N,000.8,N*5A
$IIVWR,029,R,08.3,N,,,,*61
$IIDPT,009.0,-1.0,*49
$IIGLL,4613.279,N,00609.675,E,104805,A,A*5F
$IIHDG,005,,,01,E*16
$IIMTW,+21.0,C*3B
$IIMWV,029,R,08.3,N,A*13
$IIMWV,045,T,05.5,N,A*14
$IIRMC,104806,A,4613.280,N,00609.675,E,03.2,352,270614,01,E,A*04
$IIVHW,,,004,M,03.2,N,,*61
$IIVLW,01550,N,000.8,N*5A
$IIVWR,028,R,08.3,N,,,,*60
$IIDPT,009.0,-1.0,*49
$IIGLL,4613.280,N,00609.675,E,104806,A,A*5A
$IIHDG,004,,,01,E*17
$IIMTW,+21.0,C*3B
$IIMWV,029,R,08.3,N,A*13
$IIMWV,044,T,05.5,N,A*15
$IIRMC,104807,A,4613.281,N,00609.675,E,03.4,359,270614,01,E,A*09
$IIVHW,,,004,M,03.2,N,,*61
$IIVLW,01550,N,000.8,N*5A
$IIVWR,029,R,08.3,N,,,,*61
$IIDPT,009.0,-1.0,*49
$IIGLL,4613.281,N,00609.675,E,104807,A,A*5A
$IIHDG,004,,,01,E*17
$IIMTW,+21.0,C*3B
$IIMWV,030,R,08.4,N,A*1C
$IIMWV,045,T,05.5,N,A*14
$IIRMC,104808,A,4613.282,N,00609.675,E,03.4,358,270614,01,E,A*04
$IIVHW,,,004,M,03.2,N,,*61
$IIVLW,01550,N,000.8,N*5A
$IIVWR,030,R,08.4,N,,,,*6E
$IIDPT,009.0,-1.0,*49
$IIGLL,4613.282,N,00609.675,E,104808,A,A*56
$IIHDG,003,,,01,E*10
$IIMTW,+21.5,C*3E
$IIMWV,030,R,08.3,N,A*1B
$IIMWV,046,T,05.8,N,A*1A
$IIRMC,104809,A,4613.283,N,00609.674,E,03.5,359,270614,01,E,A*05
$IIVHW,,,003,M,03.2,N,,*66
$IIVLW,01550,N,000.8,N*5A
$IIVWR,030,R,08.3,N,,,,*69
$IIDPT,009.0,-1.0,*49
$IIGLL,4613.285,N,00609.674,E,104810,A,A*59
$IIHDG,003,,,01,E*10
$IIMTW,+21.5,C*3E
$IIMWV,031,R,08.3,N,A*1A
$IIMWV,046,T,05.6,N,A*14
$IIRMC,104810,A,4613.285,N,00609.674,E,03.5,356,270614,01,E,A*04
$IIVHW,,,003,M,03.2,N,,*66
$IIVLW,01550,N,000.8,N*5A
$IIVWR,031,R,08.3,N,,,,*68
$IIDPT,009.0,-1.0,*49
$IIGLL,4613.285,N,00609.674,E,104810,A,A*59
$IIHDG,003,,,01,E*10
$IIMTW,+21.5,C*3E
$IIMWV,032,R,08.3,N,A*19
$IIMWV,049,T,05.7,N,A*1A
$IIRMC,104810,A,4613.285,N,00609.674,E,03.5,356,270614,01,E,A*04
$IIVHW,,,003,M,03.3,N,,*67
$IIVLW,01550,N,000.8,N*5A
$IIVWR,032,R,08.3,N,,,,*6B
$IIDPT,009.0,-1.0,*49
$IIGLL,4613.287,N,00609.674,E,104812,A,A*59
$IIHDG,003,,,01,E*10
$IIMTW,+21.5,C*3E
$IIMWV,032,R,08.3,N,A*19
$IIMWV,049,T,05.6,N,A*1B
$IIRMC,104812,A,4613.287,N,00609.674,E,03.6,359,270614,01,E,A*08
$IIVHW,,,003,M,03.3,N,,*67
$IIVLW,01550,N,000.8,N*5A
$IIVWR,032,R,08.3,N,,,,*6B
$IIDPT,009.0,-1.0,*49
$IIGLL,4613.288,N,00609.674,E,104813,A,A*57
$IIHDG,004,,,01,E*17
$IIMTW,+21.5,C*3E
$IIMWV,032,R,08.3,N,A*19
$IIMWV,049,T,05.6,N,A*1B
$IIRMC,104813,A,4613.288,N,00609.674,E,03.6,003,270614,01,E,A*0A
$IIVHW,,,004,M,03.3,N,,*60
$IIVLW,01550,N,000.8,N*5A
$IIVWR,031,R,08.4,N,,,,*6F
$IIDPT,009.0,-1.0,*49
$IIGLL,4613.289,N,00609.674,E,104814,A,A*51
$IIHDG,004,,,01,E*17
$IIMTW,+21.5,C*3E
$IIMWV,031,R,08.4,N,A*1D
$IIMWV,049,T,05.6,N,A*1B
$IIRMC,104815,A,4613.290,N,00609.674,E,03.4,001,270614,01,E,A*05
$IIVHW,,,004,M,03.3,N,,*60
$IIVLW,01550,N,000.8,N*5A
$IIVWR,031,R,08.4,N,,,,*6F
$IIDPT,009.0,-1.0,*49
$IIGLL,4613.290,N,00609.674,E,104815,A,A*58
$IIHDG,004,,,01,E*17
$IIMTW,+21.5,C*3E
$IIMWV,031,R,08.4,N,A*1D
$IIMWV,049,T,05.7,N,A*1A
$IIRMC,104816,A,4613.291,N,00609.674,E,03.6,359,270614,01,E,A*0B
$IIVHW,,,004,M,03.3,N,,*60
$IIVLW,01550,N,000.8,N*5A
$IIVWR,030,R,08.6,N,,,,*6C
$IIDPT,009.0,-1.0,*49
$IIGLL,4613.291,N,00609.674,E,104816,A,A*5A
$IIHDG,004,,,01,E*17
$IIMTW,+21.5,C*3E
$IIMWV,030,R,08.6,N,A*1E
$IIMWV,047,T,05.8,N,A*1B
$IIRMC,104817,A,4613.292,N,00609.674,E,03.6,000,270614,01,E,A*06
$IIVHW,,,004,M,03.3,N,,*60
$IIVLW,01550,N,000.8,N*5A
$IIVWR,030,R,08.6,N,,,,*6C
$IIDPT,009.0,-1.0,*49
$IIGLL,4613.292,N,00609.674,E,104817,A,A*58
$IIHDG,004,,,01,E*17
$IIMTW,+21.5,C*3E
$IIMWV,029,R,08.7,N,A*17
$IIMWV,047,T,05.8,N,A*1B
$IIRMC,104818,A,4613.293,N,00609.674,E,03.6,359,270614,01,E,A*07
$IIVHW,,,004,M,03.4,N,,*67
$IIVLW,01550,N,000.8,N*5A
$IIVWR,029,R,08.7,N,,,,*65
$IIDPT,009.0,-1.0,*49
$IIGLL,4613.293,N,00609.674,E,104818,A,A*56
$IIHDG,005,,,01,E*16
$IIMTW,+21.5,C*3E
$IIMWV,029,R,08.7,N,A*17
$IIMWV,045,T,05.7,N,A*16
$IIRMC,104819,A,4613.294,N,00609.674,E,03.6,001,270614,01,E,A*0F
$IIVHW,,,005,M,03.4,N,,*66
$IIVLW,01550,N,000.8,N*5A
$IIVWR,029,R,08.7,N,,,,*65
$IIDPT,009.0,-1.0,*49
$IIGLL,4613.295,N,00609.674,E,104820,A,A*5B
$IIHDG,005,,,01,E*16
$IIMTW,+21.5,C*3E
$IIMWV,029,R,08.9,N,A*19
$IIMWV,045,T,05.7,N,A*16
$IIRMC,104820,A,4613.295,N,00609.674,E,03.6,000,270614,01,E,A*05
$IIVHW,,,005,M,03.4,N,,*66
$IIVLW,01550,N,000.8,N*5A
$IIVWR,029,R,08.9,N,,,,*6B
$IIDPT,009.1,-1.0,*48
$IIGLL,4613.296,N,00609.674,E,104821,A,A*59
$IIHDG,005,,,01,E*16
$IIMTW,+21.5,C*3E
$IIMWV,028,R,09.0,N,A*10
$IIMWV,045,T,05.9,N,A*18
$IIRMC,104821,A,4613.296,N,00609.674,E,03.4,003,270614,01,E,A*06
$IIVHW,,,005,M,03.4,N,,*66
$IIVLW,01550,N,000.8,N*5A
$IIVWR,028,R,08.9,N,,,,*6A
$IIDPT,009.1,-1.0,*48
$IIGLL,4613.297,N,00609.674,E,104822,A,A*5B
$IIHDG,005,,,01,E*16
$IIMTW,+21.5,C*3E
$IIMWV,028,R,08.9,N,A*18
$IIMWV,044,T,06.0,N,A*13
$IIRMC,104822,A,4613.297,N,00609.674,E,03.5,002,270614,01,E,A*04
$IIVHW,,,005,M,03.4,N,,*66
$IIVLW,01550,N,000.8,N*5A
$IIVWR,028,R,08.8,N,,,,*6B
$IIDPT,009.1,-1.0,*48
$IIGLL,4613.298,N,00609.674,E,104823,A,A*55
$IIHDG,005,,,01,E*16
$IIMTW,+21.5,C*3E
$IIMWV,028,R,08.8,N,A*19
$IIMWV,044,T,05.9,N,A*19
$IIRMC,104823,A,4613.298,N,00609.674,E,03.5,004,270614,01,E,A*0C
$IIVHW,,,006,M,03.5,N,,*64
$IIVLW,01550,N,000.8,N*5A
$IIVWR,028,R,08.9,N,,,,*6A
$IIDPT,009.1,-1.0,*48
$IIGLL,4613.298,N,00609.674,E,104824,A,A*52
$IIHDG,006,,,01,E*15
$IIMTW,+21.5,C*3E
$IIMWV,028,R,08.9,N,A*18
$IIMWV,044,T,05.8,N,A*18
$IIRMC,104825,A,4613.299,N,00609.674,E,03.7,002,270614,01,E,A*0F
$IIVHW,,,006,M,03.4,N,,*65
$IIVLW,01550,N,000.8,N*5A
$IIVWR,028,R,08.9,N,,,,*6A
$IIDPT,009.1,-1.0,*48
$IIGLL,4613.299,N,00609.674,E,104825,A,A*52
$IIHDG,006,,,01,E*15
$IIMTW,+21.5,C*3E
$IIMWV,028,R,08.9,N,A*18
$IIMWV,043,T,06.0,N,A*14
$IIRMC,104826,A,4613.300,N,00609.675,E,03.6,003,270614,01,E,A*0C
$IIVHW,,,006,M,03.4,N,,*65
$IIVLW,01550,N,000.8,N*5A
$IIVWR,028,R,08.8,N,,,,*6B
$IIDPT,009.1,-1.0,*48
$IIGLL,4613.300,N,00609.675,E,104826,A,A*51
$IIHDG,006,,,01,E*15
$IIMTW,+21.5,C*3E
$IIMWV,028,R,08.8,N,A*19
$IIMWV,044,T,05.8,N,A*18
$IIRMC,104827,A,4613.302,N,00609.675,E,03.6,002,270614,01,E,A*0E
$IIVHW,,,006,M,03.4,N,,*65
$IIVLW,01550,N,000.8,N*5A
$IIVWR,028,R,08.8,N,,,,*6B
$IIDPT,009.1,-1.0,*48
$IIGLL,4613.302,N,00609.675,E,104827,A,A*52
$IIHDG,006,,,01,E*15
$IIMTW,+21.5,C*3E
$IIMWV,028,R,08.8,N,A*19
$IIMWV,044,T,05.8,N,A*18
$IIRMC,104828,A,4613.303,N,00609.675,E,03.6,002,270614,01,E,A*00
$IIVHW,,,006,M,03.4,N,,*65
$IIVLW,01550,N,000.8,N*5A
$IIVWR,028,R,08.8,N,,,,*6B
$IIDPT,009.1,-1.0,*48
$IIGLL,4613.303,N,00609.675,E,104828,A,A*5C
$IIHDG,005,,,01,E*16
$IIMTW,+21.5,C*3E
$IIMWV,028,R,08.8,N,A*19
$IIMWV,044,T,05.8,N,A*18
$IIRMC,104829,A,4613.304,N,00609.675,E,03.7,002,270614,01,E,A*07
$IIVHW,,,005,M,03.4,N,,*66
$IIVLW,01550,N,000.8,N*5A
$IIVWR,028,R,08.8,N,,,,*6B
$IIDPT,009.1,-1.0,*48
$IIGLL,4613.305,N,00609.675,E,104830,A,A*53
$IIHDG,005,,,01,E*16
$IIMTW,+21.0,C*3B
$IIMWV,027,R,08.7,N,A*19
$IIMWV,044,T,05.8,N,A*18
$IIRMC,104830,A,4613.305,N,00609.675,E,03.7,000,270614,01,E,A*0C
$IIVHW,,,005,M,03.5,N,,*67
$IIVLW,01550,N,000.8,N*5A
$IIVWR,027,R,08.7,N,,,,*6B
$IIDPT,009.1,-1.0,*48
$IIGLL,4613.306,N,00609.675,E,104831,A,A*51
$IIHDG,005,,,01,E*16
$IIMTW,+21.0,C*3B
$IIMWV,028,R,08.8,N,A*19
$IIMWV,043,T,05.7,N,A*10
$IIRMC,104831,A,4613.306,N,00609.675,E,03.7,001,270614,01,E,A*0F
$IIVHW,,,005,M,03.5,N,,*67
$IIVLW,01550,N,000.8,N*5A
$IIVWR,028,R,08.9,N,,,,*6A
$IIDPT,009.1,-1.0,*48
$IIGLL,4613.307,N,00609.675,E,104832,A,A*53
$IIHDG,005,,,01,E*16
$IIMTW,+21.0,C*3B
$IIMWV,028,R,08.9,N,A*18
$IIMWV,044,T,05.8,N,A*18
$IIRMC,104832,A,4613.307,N,00609.675,E,03.7,001,270614,01,E,A*0D
$IIVHW,,,005,M,03.5,N,,*67
$IIVLW,01550,N,000.8,N*5A
$IIVWR,028,R,09.0,N,,,,*62
$IIDPT,009.1,-1.0,*48
$IIGLL,4613.308,N,00609.675,E,104833,A,A*5D
$IIHDG,005,,,01,E*16
$IIMTW,+21.0,C*3B
$IIMWV,028,R,09.0,N,A*10
$IIMWV,044,T,05.9,N,A*19
$IIRMC,104833,A,4613.308,N,00609.675,E,03.6,001,270614,01,E,A*02
$IIVHW,,,005,M,03.5,N,,*67
$IIVLW,01550,N,000.8,N*5A
$IIVWR,028,R,09.2,N,,,,*60
$IIDPT,009.1,-1.0,*48
$IIGLL,4613.308,N,00609.675,E,104833,A,A*5D
$IIHDG,005,,,01,E*16
$IIMTW,+21.0,C*3B
$IIMWV,028,R,09.2,N,A*12
$IIMWV,044,T,06.0,N,A*13
$IIRMC,104835,A,4613.310,N,00609.675,E,03.7,003,270614,01,E,A*0E
$IIVHW,,,005,M,03.5,N,,*67
$IIVLW,01550,N,000.8,N*5A
$IIVWR,029,R,09.2,N,,,,*61
$IIDPT,009.1,-1.0,*48
$IIGLL,4613.310,N,00609.675,E,104835,A,A*52
$IIHDG,005,,,01,E*16
$IIMTW,+21.0,C*3B
$IIMWV,029,R,09.2,N,A*13
$IIMWV,045,T,06.2,N,A*10
$IIRMC,104836,A,4613.311,N,00609.675,E,03.7,002,270614,01,E,A*0D
$IIVHW,,,005,M,03.4,N,,*66
$IIVLW,01550,N,000.8,N*5A
$IIVWR,029,R,09.3,N,,,,*60
$IIDPT,009.2,-1.0,*4B
$IIGLL,4613.311,N,00609.675,E,104836,A,A*50
$IIHDG,005,,,01,E*16
$IIMTW,+21.0,C*3B
$IIMWV,029,R,09.3,N,A*12
$IIMWV,044,T,06.2,N,A*11
$IIRMC,104837,A,4613.312,N,00609.675,E,03.6,004,270614,01,E,A*08
$IIVHW,,,005,M,03.5,N,,*67
$IIVLW,01550,N,000.8,N*5A
$IIVWR,029,R,09.3,N,,,,*60
$IIDPT,009.2,-1.0,*4B
$IIGLL,4613.312,N,00609.675,E,104837,A,A*52
$IIHDG,005,,,01,E*16
$IIMTW,+21.0,C*3B
$IIMWV,028,R,09.3,N,A*13
$IIMWV,044,T,06.2,N,A*11
$IIRMC,104838,A,4613.313,N,00609.675,E,03.6,003,270614,01,E,A*01
$IIVHW,,,006,M,03.5,N,,*64
$IIVLW,01550,N,000.8,N*5A
$IIVWR,028,R,09.3,N,,,,*61
$IIDPT,009.2,-1.0,*4B
$IIGLL,4613.313,N,00609.675,E,104838,A,A*5C
$IIHDG,007,,,01,E*14
$IIMTW,+21.0,C*3B
$IIMWV,028,R,09.3,N,A*13
$IIMWV,043,T,06.2,N,A*16
$IIRMC,104839,A,4613.314,N,00609.675,E,03.6,005,270614,01,E,A*01
$IIVHW,,,007,M,03.5,N,,*65
$IIVLW,01550,N,000.8,N*5A
$IIVWR,028,R,09.3,N,,,,*61
$IIDPT,009.3,-1.0,*4A
$IIGLL,4613.315,N,00609.675,E,104840,A,A*55
$IIHDG,007,,,01,E*14
$IIMTW,+21.0,C*3B
$IIMWV,028,R,09.3,N,A*13
$IIMWV,044,T,06.2,N,A*11
$IIRMC,104840,A,4613.315,N,00609.675,E,03.6,005,270614,01,E,A*0E
$IIVHW,,,007,M,03.5,N,,*65
$IIVLW,01550,N,000.8,N*5A
$IIVWR,028,R,09.3,N,,,,*61
$IIDPT,009.3,-1.0,*4A
$IIGLL,4613.316,N,00609.675,E,104841,A,A*57
$IIHDG,007,,,01,E*14
$IIMTW,+21.0,C*3B
$IIMWV,027,R,09.4,N,A*1B
$IIMWV,044,T,06.2,N,A*11
$IIRMC,104841,A,4613.316,N,00609.675,E,03.6,004,270614,01,E,A*0D
$IIVHW,,,007,M,03.5,N,,*65
$IIVLW,01550,N,000.8,N*5A
$IIVWR,027,R,09.5,N,,,,*68
$IIDPT,009.3,-1.0,*4A
$IIGLL,4613.317,N,00609.676,E,104842,A,A*56
$IIHDG,008,,,01,E*1B
$IIMTW,+21.0,C*3B
$IIMWV,027,R,09.5,N,A*1A
$IIMWV,042,T,06.3,N,A*16
$IIRMC,104842,A,4613.317,N,00609.676,E,03.6,005,270614,01,E,A*0D
$IIVHW,,,008,M,03.5,N,,*6A
$IIVLW,01550,N,000.8,N*5A
$IIVWR,027,R,09.5,N,,,,*68
$IIDPT,009.3,-1.0,*4A
$IIGLL,4613.318,N,00609.676,E,104843,A,A*58
$IIHDG,008,,,01,E*1B
$IIMTW,+21.0,C*3B
$IIMWV,027,R,09.5,N,A*1A
$IIMWV,041,T,06.3,N,A*15
$IIRMC,104843,A,4613.318,N,00609.676,E,03.6,005,270614,01,E,A*03
$IIVHW,,,008,M,03.5,N,,*6A
$IIVLW,01550,N,000.8,N*5A
$IIVWR,028,R,09.4,N,,,,*66
$IIDPT,009.3,-1.0,*4A
$IIGLL,4613.319,N,00609.676,E,104844,A,A*5E
$IIHDG,008,,,01,E*1B
$IIMTW,+21.0,C*3B
$IIMWV,028,R,09.4,N,A*14
$IIMWV,041,T,06.3,N,A*15
$IIRMC,104845,A,4613.319,N,00609.676,E,03.6,004,270614,01,E,A*05
$IIVHW,,,008,M,03.5,N,,*6A
$IIVLW,01550,N,000.8,N*5A
$IIVWR,027,R,09.3,N,,,,*6E
$IIDPT,009.3,-1.0,*4A
$IIGLL,4613.319,N,00609.676,E,104845,A,A*5F
$IIHDG,008,,,01,E*1B
$IIMTW,+21.5,C*3E
$IIMWV,027,R,09.3,N,A*1C
$IIMWV,042,T,06.1,N,A*14
$IIRMC,104846,A,4613.321,N,00609.677,E,03.6,006,270614,01,E,A*0E
$IIVHW,,,008,M,03.5,N,,*6A
$IIVLW,01550,N,000.8,N*5A
$IIVWR,027,R,09.3,N,,,,*6E
$IIDPT,009.3,-1.0,*4A
$IIGLL,4613.321,N,00609.677,E,104846,A,A*56
$IIHDG,008,,,01,E*1B
$IIMTW,+21.5,C*3E
$IIMWV,027,R,09.1,N,A*1E
$IIMWV,042,T,06.1,N,A*14
$IIRMC,104847,A,4613.322,N,00609.677,E,03.6,004,270614,01,E,A*0E
$IIVHW,,,008,M,03.5,N,,*6A
$IIVLW,01550,N,000.8,N*5A
$IIVWR,027,R,09.1,N,,,,*6C
$IIDPT,009.3,-1.0,*4A
$IIGLL,4613.322,N,00609.677,E,104847,A,A*54
$IIHDG,008,,,01,E*1B
$IIMTW,+21.5,C*3E
$IIMWV,028,R,09.2,N,A*12
$IIMWV,042,T,05.9,N,A*1F
$IIRMC,104848,A,4613.323,N,00609.677,E,03.6,002,270614,01,E,A*06
$IIVHW,,,007,M,03.5,N,,*65
$IIVLW,01550,N,000.8,N*5A
$IIVWR,028,R,09.2,N,,,,*60
$IIDPT,009.3,-1.0,*4A
$IIGLL,4613.323,N,00609.677,E,104848,A,A*5A
$IIHDG,006,,,01,E*15
$IIMTW,+21.5,C*3E
$IIMWV,028,R,09.1,N,A*11
$IIMWV,044,T,06.1,N,A*12
$IIRMC,104849,A,4613.324,N,00609.677,E,03.6,002,270614,01,E,A*00
$IIVHW,,,006,M,03.5,N,,*64
$IIVLW,01550,N,000.8,N*5A
$IIVWR,028,R,09.1,N,,,,*63
$IIDPT,009.3,-1.0,*4A
$IIGLL,4613.325,N,00609.677,E,104850,A,A*55
$IIHDG,006,,,01,E*15
$IIMTW,+21.5,C*3E
$IIMWV,028,R,08.9,N,A*18
$IIMWV,044,T,06.0,N,A*13
$IIRMC,104850,A,4613.325,N,00609.677,E,03.3,002,270614,01,E,A*0C
$IIVHW,,,006,M,03.5,N,,*64
$IIVLW,01550,N,000.8,N*5A
$IIVWR,028,R,08.9,N,,,,*6A
$IIDPT,009.3,-1.0,*4A
$IIGLL,4613.325,N,00609.677,E,104850,A,A*55
$IIHDG,005,,,01,E*16
$IIMTW,+21.5,C*3E
$IIMWV,028,R,09.0,N,A*10
$IIMWV,044,T,05.9,N,A*19
$IIRMC,104850,A,4613.325,N,00609.677,E,03.3,002,270614,01,E,A*0C
$IIVHW,,,005,M,03.5,N,,*67
$IIVLW,01550,N,000.8,N*5A
$IIVWR,028,R,09.0,N,,,,*62
$IIDPT,009.4,-1.0,*4D
$IIGLL,4613.326,N,00609.678,E,104852,A,A*5B
$IIHDG,005,,,01,E*16
$IIMTW,+21.5,C*3E
$IIMWV,028,R,09.0,N,A*10
$IIMWV,044,T,06.0,N,A*13
$IIRMC,104852,A,4613.326,N,00609.678,E,03.7,001,270614,01,E,A*05
$IIVHW,,,005,M,03.5,N,,*67
$IIVLW,01550,N,000.8,N*5A
$IIVWR,028,R,09.2,N,,,,*60
$IIDPT,009.4,-1.0,*4D
$IIGLL,4613.328,N,00609.678,E,104853,A,A*54
$IIHDG,005,,,01,E*16
$IIMTW,+21.5,C*3E
$IIMWV,028,R,09.2,N,A*12
$IIMWV,044,T,06.0,N,A*13
$IIRMC,104853,A,4613.328,N,00609.678,E,03.6,002,270614,01,E,A*08
$IIVHW,,,005,M,03.5,N,,*67
$IIVLW,01550,N,000.8,N*5A
$IIVWR,027,R,09.3,N,,,,*6E
$IIDPT,009.4,-1.0,*4D
$IIGLL,4613.328,N,00609.678,E,104854,A,A*53
$IIHDG,005,,,01,E*16
$IIMTW,+21.5,C*3E
$IIMWV,027,R,09.3,N,A*1C
$IIMWV,044,T,06.1,N,A*12
$IIRMC,104855,A,4613.330,N,00609.677,E,03.6,002,270614,01,E,A*08
$IIVHW,,,005,M,03.5,N,,*67
$IIVLW,01550,N,000.8,N*5A
$IIVWR,027,R,09.4,N,,,,*69
$IIDPT,009.4,-1.0,*4D
$IIGLL,4613.330,N,00609.677,E,104855,A,A*54
$IIHDG,005,,,01,E*16
$IIMTW,+21.5,C*3E
$IIMWV,027,R,09.4,N,A*1B
$IIMWV,042,T,06.3,N,A*16
$IIRMC,104856,A,4613.330,N,00609.678,E,03.6,359,270614,01,E,A*09
$IIVHW,,,004,M,03.5,N,,*66
$IIVLW,01550,N,000.8,N*5A
$IIVWR,027,R,09.5,N,,,,*68
$IIDPT,009.4,-1.0,*4D
$IIGLL,4613.330,N,00609.678,E,104856,A,A*58
$IIHDG,004,,,01,E*17
$IIMTW,+21.5,C*3E
$IIMWV,027,R,09.6,N,A*19
$IIMWV,041,T,06.3,N,A*15
$IIRMC,104857,A,4613.331,N,00609.678,E,03.6,000,270614,01,E,A*06
$IIVHW,,,004,M,03.4,N,,*67
$IIVLW,01550,N,000.8,N*5A
$IIVWR,027,R,09.6,N,,,,*6B
$IIDPT,009.4,-1.0,*4D
$IIGLL,4613.331,N,00609.678,E,104857,A,A*58
$IIHDG,004,,,01,E*17
$IIMTW,+21.5,C*3E
$IIMWV,027,R,09.7,N,A*18
$IIMWV,041,T,06.5,N,A*13
$IIRMC,104858,A,4613.332,N,00609.678,E,03.6,000,270614,01,E,A*0A
$IIVHW,,,004,M,03.4,N,,*67
$IIVLW,01550,N,000.8,N*5A
$IIVWR,027,R,09.7,N,,,,*6A
$IIDPT,009.4,-1.0,*4D
$IIGLL,4613.332,N,00609.678,E,104858,A,A*54
$IIHDG,004,,,01,E*17
$IIMTW,+21.5,C*3E
$IIMWV,027,R,09.8,N,A*17
$IIMWV,040,T,06.6,N,A*11
$IIRMC,104859,A,4613.334,N,00609.678,E,03.6,359,270614,01,E,A*02
$IIVHW,,,004,M,03.4,N,,*67
$IIVLW,01550,N,000.8,N*5A
$IIVWR,027,R,09.8,N,,,,*65
$IIDPT,009.4,-1.0,*4D
$IIGLL,4613.335,N,00609.678,E,104900,A,A*5F
$IIHDG,004,,,01,E*17
$IIMTW,+21.5,C*3E
$IIMWV,028,R,09.8,N,A*18
$IIMWV,040,T,06.8,N,A*1F
$IIRMC,104900,A,4613.335,N,00609.678,E,03.6,000,270614,01,E,A*01
$IIVHW,,,004,M,03.4,N,,*67
$IIVLW,01550,N,000.8,N*5A
$IIVWR,028,R,09.8,N,,,,*6A
$IIDPT,009.4,-1.0,*4D
$IIGLL,4613.336,N,00609.677,E,104901,A,A*52
$IIHDG,004,,,01,E*17
$IIMTW,+21.5,C*3E
$IIMWV,028,R,09.8,N,A*18
$IIMWV,042,T,06.8,N,A*1D
$IIRMC,104901,A,4613.336,N,00609.677,E,03.6,000,270614,01,E,A*0C
$IIVHW,,,004,M,03.5,N,,*66
$IIVLW,01550,N,000.8,N*5A
$IIVWR,029,R,09.8,N,,,,*6B
$IIDPT,009.4,-1.0,*4D
$IIGLL,4613.338,N,00609.677,E,104903,A,A*5E
$IIHDG,004,,,01,E*17
$IIMTW,+21.5,C*3E
$IIMWV,029,R,09.8,N,A*19
$IIMWV,043,T,06.8,N,A*1C
$IIRMC,104903,A,4613.338,N,00609.677,E,03.7,000,270614,01,E,A*01
$IIVHW,,,004,M,03.5,N,,*66
$IIVLW,01550,N,000.8,N*5A
$IIVWR,029,R,09.9,N,,,,*6A
$IIDPT,009.4,-1.0,*4D
$IIGLL,4613.339,N,00609.677,E,104904,A,A*58
$IIHDG,004,,,01,E*17
$IIMTW,+21.5,C*3E
$IIMWV,029,R,09.9,N,A*18
$IIMWV,043,T,06.8,N,A*1C
$IIRMC,104904,A,4613.339,N,00609.677,E,03.7,359,270614,01,E,A*08
$IIVHW,,,004,M,03.5,N,,*66
$IIVLW,01550,N,000.8,N*5A
$IIVWR,030,R,09.9,N,,,,*62
$IIDPT,009.4,-1.0,*4D
$IIGLL,4613.340,N,00609.677,E,104905,A,A*57
$IIHDG,004,,,01,E*17
$IIMTW,+21.5,C*3E
$IIMWV,030,R,09.9,N,A*10
$IIMWV,043,T,06.8,N,A*1C
$IIRMC,104906,A,4613.341,N,00609.677,E,03.7,000,270614,01,E,A*0A
$IIVHW,,,004,M,03.6,N,,*65
$IIVLW,01550,N,000.8,N*5A
$IIVWR,029,R,10.0,N,,,,*6B
$IIDPT,009.4,-1.0,*4D
$IIGLL,4613.341,N,00609.677,E,104906,A,A*55
$IIHDG,004,,,01,E*17
$IIMTW,+21.5,C*3E
$IIMWV,029,R,10.0,N,A*19
$IIMWV,043,T,07.0,N,A*15
$IIRMC,104907,A,4613.343,N,00609.677,E,03.7,002,270614,01,E,A*0B
$IIVHW,,,004,M,03.6,N,,*65
$IIVLW,01550,N,000.8,N*5A
$IIVWR,030,R,10.0,N,,,,*63
$IIDPT,009.4,-1.0,*4D
$IIGLL,4613.343,N,00609.677,E,104907,A,A*56
$IIHDG,004,,,01,E*17
$IIMTW,+21.5,C*3E
$IIMWV,029,R,10.2,N,A*1B
$IIMWV,045,T,07.1,N,A*12
$IIRMC,104908,A,4613.344,N,00609.677,E,03.8,001,270614,01,E,A*0F
$IIVHW,,,004,M,03.6,N,,*65
$IIVLW,01550,N,000.8,N*5A
$IIVWR,029,R,10.2,N,,,,*69
$IIDPT,009.4,-1.0,*4D
$IIGLL,4613.344,N,00609.677,E,104908,A,A*5E
$IIHDG,004,,,01,E*17
$IIMTW,+21.5,C*3E
$IIMWV,029,R,10.2,N,A*1B
$IIMWV,043,T,07.0,N,A*15
$IIRMC,104909,A,4613.345,N,00609.677,E,03.8,003,270614,01,E,A*0D
$IIVHW,,,005,M,03.6,N,,*64
$IIVLW,01550,N,000.8,N*5A
$IIVWR,029,R,10.2,N,,,,*69
$IIDPT,009.4,-1.0,*4D
$IIGLL,4613.345,N,00609.677,E,104909,A,A*5E
$IIHDG,005,,,01,E*16
$IIMTW,+21.5,C*3E
$IIMWV,028,R,10.2,N,A*1A
$IIMWV,043,T,07.0,N,A*15
$IIRMC,104910,A,4613.346,N,00609.677,E,03.8,003,270614,01,E,A*06
$IIVHW,,,005,M,03.6,N,,*64
$IIVLW,01550,N,000.8,N*5A
$IIVWR,028,R,10.2,N,,,,*68
$IIDPT,009.4,-1.0,*4D
$IIGLL,4613.346,N,00609.678,E,104911,A,A*5B
$IIHDG,006,,,01,E*15
$IIMTW,+21.5,C*3E
$IIMWV,028,R,10.2,N,A*1A
$IIMWV,042,T,07.0,N,A*14
$IIRMC,104911,A,4613.346,N,00609.678,E,03.8,005,270614,01,E,A*0E
$IIVHW,,,006,M,03.6,N,,*67
$IIVLW,01550,N,000.8,N*5A
$IIVWR,028,R,10.2,N,,,,*68
$IIDPT,009.4,-1.0,*4D
$IIGLL,4613.347,N,00609.678,E,104912,A,A*59
$IIHDG,007,,,01,E*14
$IIMTW,+21.5,C*3E
$IIMWV,027,R,10.2,N,A*15
$IIMWV,042,T,07.0,N,A*14
$IIRMC,104912,A,4613.347,N,00609.678,E,03.6,006,270614,01,E,A*01
$IIVHW,,,007,M,03.6,N,,*66
$IIVLW,01550,N,000.8,N*5A
$IIVWR,027,R,10.2,N,,,,*67
$IIDPT,009.4,-1.0,*4D
$IIGLL,4613.350,N,00609.679,E,104915,A,A*59
$IIHDG,008,,,01,E*1B
$IIMTW,+21.5,C*3E
$IIMWV,027,R,10.2,N,A*15
$IIMWV,040,T,06.9,N,A*1E
$IIRMC,104915,A,4613.350,N,00609.679,E,03.8,004,270614,01,E,A*0D
$IIVHW,,,008,M,03.6,N,,*69
$IIVLW,01550,N,000.9,N*5B
$IIVWR,027,R,10.3,N,,,,*66
$IIDPT,009.4,-1.0,*4D
$IIGLL,4613.351,N,00609.679,E,104916,A,A*5B
$IIHDG,009,,,01,E*1A
$IIMTW,+21.5,C*3E
$IIMWV,027,R,10.3,N,A*14
$IIMWV,040,T,06.9,N,A*1E
$IIRMC,104916,A,4613.351,N,00609.679,E,03.8,005,270614,01,E,A*0E
$IIVHW,,,009,M,03.7,N,,*69
$IIVLW,01550,N,000.9,N*5B
$IIVWR,027,R,10.4,N,,,,*61
$IIDPT,009.4,-1.0,*4D
$IIGLL,4613.352,N,00609.679,E,104917,A,A*59
$IIHDG,009,,,01,E*1A
$IIMTW,+21.5,C*3E
$IIMWV,027,R,10.4,N,A*13
$IIMWV,040,T,07.0,N,A*16
$IIRMC,104918,A,4613.352,N,00609.679,E,03.8,004,270614,01,E,A*02
$IIVHW,,,009,M,03.7,N,,*69
$IIVLW,01550,N,000.9,N*5B
$IIVWR,027,R,10.3,N,,,,*66
$IIDPT,009.4,-1.0,*4D
$IIGLL,4613.352,N,00609.679,E,104918,A,A*56
$IIHDG,009,,,01,E*1A
$IIMTW,+21.5,C*3E
$IIMWV,027,R,10.3,N,A*14
$IIMWV,040,T,07.0,N,A*16
$IIRMC,104919,A,4613.353,N,00609.680,E,03.8,004,270614,01,E,A*04
$IIVHW,,,008,M,03.7,N,,*68
$IIVLW,01550,N,000.9,N*5B
$IIVWR,027,R,10.3,N,,,,*66
$IIDPT,009.4,-1.0,*4D
$IIGLL,4613.353,N,00609.680,E,104919,A,A*50
$IIHDG,008,,,01,E*1B
$IIMTW,+21.5,C*3E
$IIMWV,027,R,10.3,N,A*14
$IIMWV,041,T,07.0,N,A*17
$IIRMC,104919,A,4613.353,N,00609.680,E,03.8,004,270614,01,E,A*04
$IIVHW,,,008,M,03.7,N,,*68
$IIVLW,01550,N,000.9,N*5B
$IIVWR,027,R,10.3,N,,,,*66
$IIDPT,009.5,-1.0,*4C
$IIGLL,4613.353,N,00609.680,E,104919,A,A*50
$IIHDG,008,,,01,E*1B
$IIMTW,+21.5,C*3E
$IIMWV,028,R,10.3,N,A*1B
$IIMWV,041,T,07.0,N,A*17
$IIRMC,104921,A,4613.355,N,00609.680,E,03.9,003,270614,01,E,A*0F
$IIVHW,,,007,M,03.7,N,,*67
$IIVLW,01550,N,000.9,N*5B
$IIVWR,028,R,10.3,N,,,,*69
$IIDPT,009.5,-1.0,*4C
$IIGLL,4613.355,N,00609.680,E,104921,A,A*5D
$IIHDG,006,,,01,E*15
$IIMTW,+21.5,C*3E
$IIMWV,028,R,10.3,N,A*1B
$IIMWV,043,T,07.0,N,A*15
$IIRMC,104921,A,4613.355,N,00609.680,E,03.9,003,270614,01,E,A*0F
$IIVHW,,,006,M,03.8,N,,*69
$IIVLW,01550,N,000.9,N*5B
$IIVWR,028,R,10.3,N,,,,*69
$IIDPT,009.5,-1.0,*4C
$IIGLL,4613.355,N,00609.680,E,104921,A,A*5D
$IIHDG,006,,,01,E*15
$IIMTW,+21.5,C*3E
$IIMWV,028,R,10.2,N,A*1A
$IIMWV,043,T,07.0,N,A*15
$IIRMC,104921,A,4613.355,N,00609.680,E,03.9,003,270614,01,E,A*0F
$IIVHW,,,006,M,03.8,N,,*69
$IIVLW,01550,N,000.9,N*5B
$IIVWR,028,R,10.2,N,,,,*68
$IIDPT,009.5,-1.0,*4C
$IIGLL,4613.358,N,00609.681,E,104924,A,A*54
$IIHDG,006,,,01,E*15
$IIMTW,+21.5,C*3E
$IIMWV,028,R,10.2,N,A*1A
$IIMWV,043,T,06.9,N,A*1D
$IIRMC,104924,A,4613.358,N,00609.681,E,03.9,003,270614,01,E,A*06
$IIVHW,,,006,M,03.8,N,,*69
$IIVLW,01550,N,000.9,N*5B
$IIVWR,028,R,10.2,N,,,,*68
$IIDPT,009.5,-1.0,*4C
$IIGLL,4613.360,N,00609.681,E,104925,A,A*5E
$IIHDG,005,,,01,E*16
$IIMTW,+21.5,C*3E
$IIMWV,028,R,10.2,N,A*1A
$IIMWV,043,T,06.9,N,A*1D
$IIRMC,104925,A,4613.360,N,00609.681,E,04.0,002,270614,01,E,A*03
$IIVHW,,,005,M,03.8,N,,*6A
$IIVLW,01550,N,000.9,N*5B
$IIVWR,028,R,10.2,N,,,,*68
$IIDPT,009.5,-1.0,*4C
$IIGLL,4613.361,N,00609.681,E,104926,A,A*5C
$IIHDG,005,,,01,E*16
$IIMTW,+21.5,C*3E
$IIMWV,028,R,10.2,N,A*1A
$IIMWV,043,T,06.8,N,A*1C
$IIRMC,104926,A,4613.361,N,00609.681,E,04.0,002,270614,01,E,A*01
$IIVHW,,,005,M,03.9,N,,*6B
$IIVLW,01550,N,000.9,N*5B
$IIVWR,028,R,10.1,N,,,,*6B
$IIDPT,009.6,-1.0,*4F
$IIGLL,4613.362,N,00609.681,E,104927,A,A*5E
$IIHDG,005,,,01,E*16
$IIMTW,+21.5,C*3E
$IIMWV,028,R,10.1,N,A*19
$IIMWV,043,T,06.8,N,A*1C
$IIRMC,104928,A,4613.363,N,00609.681,E,04.0,002,270614,01,E,A*0D
$IIVHW,,,005,M,03.9,N,,*6B
$IIVLW,01550,N,000.9,N*5B
$IIVWR,028,R,10.2,N,,,,*68
$IIDPT,009.6,-1.0,*4F
$IIGLL,4613.363,N,00609.681,E,104928,A,A*50
$IIHDG,005,,,01,E*16
$IIMTW,+21.5,C*3E
$IIMWV,028,R,10.2,N,A*1A
$IIMWV,043,T,06.8,N,A*1C
$IIRMC,104929,A,4613.364,N,00609.681,E,04.0,004,270614,01,E,A*0D
$IIVHW,,,005,M,03.9,N,,*6B
$IIVLW,01550,N,000.9,N*5B
$IIVWR,028,R,10.2,N,,,,*68
$IIDPT,009.6,-1.0,*4F
$IIGLL,4613.364,N,00609.681,E,104929,A,A*56
$IIHDG,005,,,01,E*16
$IIMTW,+21.5,C*3E
$IIMWV,028,R,10.2,N,A*1A
$IIMWV,043,T,06.8,N,A*1C
$IIRMC,104930,A,4613.365,N,00609.681,E,04.0,003,270614,01,E,A*03
$IIVHW,,,006,M,03.9,N,,*68
$IIVLW,01550,N,000.9,N*5B
$IIVWR,028,R,10.2,N,,,,*68
$IIDPT,009.6,-1.0,*4F
$IIGLL,4613.365,N,00609.681,E,104930,A,A*5F
$IIHDG,006,,,01,E*15
$IIMTW,+21.5,C*3E
$IIMWV,028,R,10.2,N,A*1A
$IIMWV,043,T,06.8,N,A*1C
$IIRMC,104931,A,4613.366,N,00609.682,E,04.0,005,270614,01,E,A*04
$IIVHW,,,006,M,03.9,N,,*68
$IIVLW,01550,N,000.9,N*5B
$IIVWR,028,R,10.2,N,,,,*68
$IIDPT,009.6,-1.0,*4F
$IIGLL,4613.366,N,00609.682,E,104931,A,A*5E
$IIHDG,006,,,01,E*15
$IIMTW,+21.5,C*3E
$IIMWV,027,R,10.3,N,A*14
$IIMWV,043,T,06.8,N,A*1C
$IIRMC,104932,A,4613.367,N,00609.682,E,04.0,003,270614,01,E,A*00
$IIVHW,,,006,M,03.9,N,,*68
$IIVLW,01550,N,000.9,N*5B
$IIVWR,027,R,10.3,N,,,,*66
$IIDPT,009.6,-1.0,*4F
$IIGLL,4613.367,N,00609.682,E,104932,A,A*5C
$IIHDG,007,,,01,E*14
$IIMTW,+21.5,C*3E
$IIMWV,027,R,10.2,N,A*15
$IIMWV,041,T,06.9,N,A*1F
$IIRMC,104932,A,4613.367,N,00609.682,E,04.0,003,270614,01,E,A*00
$IIVHW,,,007,M,03.9,N,,*69
$IIVLW,01550,N,000.9,N*5B
$IIVWR,027,R,10.2,N,,,,*67
$IIDPT,009.6,-1.0,*4F
$IIGLL,4613.369,N,00609.682,E,104934,A,A*54
$IIHDG,007,,,01,E*14
$IIMTW,+21.5,C*3E
$IIMWV,027,R,10.2,N,A*15
$IIMWV,042,T,06.7,N,A*12
$IIRMC,104934,A,4613.369,N,00609.682,E,04.0,005,270614,01,E,A*0E
$IIVHW,,,007,M,03.9,N,,*69
$IIVLW,01550,N,000.9,N*5B
$IIVWR,026,R,10.2,N,,,,*66
$IIDPT,009.6,-1.0,*4F
$IIGLL,4613.370,N,00609.683,E,104935,A,A*5C
$IIHDG,008,,,01,E*1B
$IIMTW,+21.5,C*3E
$IIMWV,026,R,10.2,N,A*14
$IIMWV,042,T,06.7,N,A*12
$IIRMC,104935,A,4613.370,N,00609.683,E,04.2,011,270614,01,E,A*01
$IIVHW,,,008,M,03.9,N,,*66
$IIVLW,01550,N,000.9,N*5B
$IIVWR,026,R,10.1,N,,,,*65
$IIDPT,009.6,-1.0,*4F
$IIGLL,4613.371,N,00609.683,E,104936,A,A*5E
$IIHDG,008,,,01,E*1B
$IIMTW,+21.5,C*3E
$IIMWV,026,R,10.1,N,A*17
$IIMWV,041,T,06.7,N,A*11
$IIRMC,104936,A,4613.371,N,00609.683,E,04.2,007,270614,01,E,A*04
$IIVHW,,,008,M,04.0,N,,*68
$IIVLW,01550,N,000.9,N*5B
$IIVWR,025,R,09.9,N,,,,*66
$IIDPT,009.6,-1.0,*4F
$IIGLL,4613.372,N,00609.683,E,104937,A,A*5C
$IIHDG,008,,,01,E*1B
$IIMTW,+21.5,C*3E
$IIMWV,025,R,09.9,N,A*14
$IIMWV,041,T,06.6,N,A*10
$IIRMC,104938,A,4613.374,N,00609.684,E,04.4,005,270614,01,E,A*0C
$IIVHW,,,008,M,04.0,N,,*68
$IIVLW,01550,N,000.9,N*5B
$IIVWR,026,R,09.8,N,,,,*64
$IIDPT,009.6,-1.0,*4F
$IIGLL,4613.374,N,00609.684,E,104938,A,A*52
$IIHDG,008,,,01,E*1B
$IIMTW,+21.5,C*3E
$IIMWV,026,R,09.8,N,A*16
$IIMWV,042,T,06.4,N,A*11
$IIRMC,104939,A,4613.375,N,00609.684,E,03.9,006,270614,01,E,A*05
$IIVHW,,,008,M,04.0,N,,*68
$IIVLW,01550,N,000.9,N*5B
$IIVWR,026,R,09.9,N,,,,*65
$IIDPT,009.6,-1.0,*4F
$IIGLL,4613.375,N,00609.684,E,104939,A,A*52
$IIHDG,008,,,01,E*1B
$IIMTW,+21.5,C*3E
$IIMWV,027,R,09.9,N,A*16
$IIMWV,041,T,06.5,N,A*13
$IIRMC,104940,A,4613.376,N,00609.684,E,04.3,005,270614,01,E,A*06
$IIVHW,,,008,M,04.0,N,,*68
$IIVLW,01550,N,000.9,N*5B
$IIVWR,027,R,09.9,N,,,,*64
$IIDPT,009.6,-1.0,*4F
$IIGLL,4613.376,N,00609.684,E,104940,A,A*5F
$IIHDG,008,,,01,E*1B
$IIMTW,+21.5,C*3E
$IIMWV,027,R,09.9,N,A*16
$IIMWV,042,T,06.5,N,A*10
$IIRMC,104941,A,4613.377,N,00609.684,E,04.3,004,270614,01,E,A*07
$IIVHW,,,008,M,04.0,N,,*68
$IIVLW,01550,N,000.9,N*5B
$IIVWR,027,R,09.9,N,,,,*64
$IIDPT,009.7,-1.0,*4E
$IIGLL,4613.377,N,00609.684,E,104941,A,A*5F
$IIHDG,009,,,01,E*1A
$IIMTW,+21.5,C*3E
$IIMWV,027,R,09.9,N,A*16
$IIMWV,043,T,06.4,N,A*10
$IIRMC,104941,A,4613.377,N,00609.684,E,04.3,004,270614,01,E,A*07
$IIVHW,,,009,M,04.0,N,,*69
$IIVLW,01550,N,000.9,N*5B
$IIVWR,027,R,09.9,N,,,,*64
$IIDPT,009.8,-1.0,*41
$IIGLL,4613.379,N,00609.685,E,104943,A,A*52
$IIHDG,009,,,01,E*1A
$IIMTW,+21.5,C*3E
$IIMWV,027,R,09.9,N,A*16
$IIMWV,043,T,06.4,N,A*10
$IIRMC,104943,A,4613.379,N,00609.685,E,04.3,006,270614,01,E,A*08
$IIVHW,,,009,M,04.0,N,,*69
$IIVLW,01550,N,000.9,N*5B
$IIVWR,027,R,09.9,N,,,,*64
$IIDPT,009.8,-1.0,*41
$IIGLL,4613.380,N,00609.685,E,104944,A,A*53
$IIHDG,010,,,01,E*12
$IIMTW,+21.5,C*3E
$IIMWV,027,R,10.0,N,A*17
$IIMWV,043,T,06.4,N,A*10
$IIRMC,104944,A,4613.380,N,00609.685,E,04.1,007,270614,01,E,A*0A
$IIVHW,,,010,M,04.0,N,,*61
$IIVLW,01550,N,000.9,N*5B
$IIVWR,028,R,10.0,N,,,,*6A
$IIDPT,009.8,-1.0,*41
$IIGLL,4613.382,N,00609.685,E,104945,A,A*50
$IIHDG,010,,,01,E*12
$IIMTW,+21.0,C*3B
$IIMWV,028,R,10.0,N,A*18
$IIMWV,043,T,06.5,N,A*11
$IIRMC,104945,A,4613.382,N,00609.685,E,04.1,006,270614,01,E,A*08
$IIVHW,,,010,M,04.1,N,,*60
$IIVLW,01550,N,000.9,N*5B
$IIVWR,028,R,10.1,N,,,,*6B
$IIDPT,009.8,-1.0,*41
$IIGLL,4613.382,N,00609.686,E,104946,A,A*50
$IIHDG,010,,,01,E*12
$IIMTW,+20.5,C*3F
$IIMWV,028,R,10.1,N,A*19
$IIMWV,045,T,06.6,N,A*14
$IIRMC,104946,A,4613.382,N,00609.686,E,04.2,007,270614,01,E,A*0A
$IIVHW,,,010,M,04.1,N,,*60
$IIVLW,01550,N,000.9,N*5B
$IIVWR,028,R,10.1,N,,,,*6B
$IIDPT,009.8,-1.0,*41
$IIGLL,4613.384,N,00609.686,E,104947,A,A*57
$IIHDG,010,,,01,E*12
$IIMTW,+21.5,C*3E
$IIMWV,028,R,10.1,N,A*19
$IIMWV,045,T,06.6,N,A*14
$IIRMC,104948,A,4613.385,N,00609.686,E,04.2,005,270614,01,E,A*01
$IIVHW,,,010,M,04.1,N,,*60
$IIVLW,01550,N,000.9,N*5B
$IIVWR,027,R,10.1,N,,,,*64
$IIDPT,009.8,-1.0,*41
$IIGLL,4613.385,N,00609.686,E,104948,A,A*59
$IIHDG,010,,,01,E*12
$IIMTW,+22.0,C*38
$IIMWV,027,R,10.1,N,A*16
$IIMWV,044,T,06.5,N,A*16
$IIRMC,104949,A,4613.386,N,00609.686,E,04.2,005,270614,01,E,A*03
$IIVHW,,,009,M,04.1,N,,*68
$IIVLW,01550,N,000.9,N*5B
$IIVWR,027,R,10.1,N,,,,*64
$IIDPT,009.8,-1.0,*41
$IIGLL,4613.386,N,00609.686,E,104949,A,A*5B
$IIHDG,009,,,01,E*1A
$IIMTW,+22.0,C*38
$IIMWV,027,R,10.2,N,A*15
$IIMWV,044,T,06.5,N,A*16
$IIRMC,104950,A,4613.388,N,00609.686,E,04.3,005,270614,01,E,A*04
$IIVHW,,,009,M,04.1,N,,*68
$IIVLW,01550,N,000.9,N*5B
$IIVWR,027,R,10.2,N,,,,*67
$IIDPT,009.8,-1.0,*41
$IIGLL,4613.388,N,00609.686,E,104950,A,A*5D
$IIHDG,009,,,01,E*1A
$IIMTW,+22.0,C*38
$IIMWV,027,R,10.2,N,A*15
$IIMWV,043,T,06.5,N,A*11
$IIRMC,104951,A,4613.389,N,00609.686,E,04.3,007,270614,01,E,A*06
$IIVHW,,,009,M,04.1,N,,*68
$IIVLW,01550,N,000.9,N*5B
$IIVWR,027,R,10.2,N,,,,*67
$IIDPT,009.8,-1.0,*41
$IIGLL,4613.389,N,00609.686,E,104951,A,A*5D
$IIHDG,009,,,01,E*1A
$IIMTW,+22.0,C*38
$IIMWV,028,R,10.3,N,A*1B
$IIMWV,043,T,06.5,N,A*11
$IIRMC,104952,A,4613.390,N,00609.687,E,04.3,007,270614,01,E,A*0C
$IIVHW,,,009,M,04.1,N,,*68
$IIVLW,01550,N,000.9,N*5B
$IIVWR,028,R,10.3,N,,,,*69
$IIDPT,009.8,-1.0,*41
$IIGLL,4613.391,N,00609.687,E,104953,A,A*57
$IIHDG,009,,,01,E*1A
$IIMTW,+21.5,C*3E
$IIMWV,028,R,10.1,N,A*19
$IIMWV,045,T,06.7,N,A*15
$IIRMC,104953,A,4613.391,N,00609.687,E,04.3,006,270614,01,E,A*0D
$IIVHW,,,009,M,04.1,N,,*68
$IIVLW,01550,N,000.9,N*5B
$IIVWR,028,R,10.1,N,,,,*6B
$IIDPT,009.9,-1.0,*40
$IIGLL,4613.392,N,00609.687,E,104954,A,A*53
$IIHDG,009,,,01,E*1A
$IIMTW,+21.5,C*3E
$IIMWV,028,R,10.2,N,A*1A
$IIMWV,046,T,06.5,N,A*14
$IIRMC,104954,A,4613.392,N,00609.687,E,04.3,007,270614,01,E,A*08
$IIVHW,,,009,M,04.1,N,,*68
$IIVLW,01550,N,000.9,N*5B
$IIVWR,028,R,10.1,N,,,,*6B
$IIDPT,009.9,-1.0,*40
$IIGLL,4613.392,N,00609.687,E,104954,A,A*53
$IIHDG,009,,,01,E*1A
$IIMTW,+21.5,C*3E
$IIMWV,028,R,10.1,N,A*19
$IIMWV,045,T,06.6,N,A*14
$IIRMC,104954,A,4613.392,N,00609.687,E,04.3,007,270614,01,E,A*08
$IIVHW,,,009,M,04.2,N,,*6B
$IIVLW,01550,N,000.9,N*5B
$IIVWR,028,R,10.0,N,,,,*6A
$IIDPT,009.9,-1.0,*40
$IIGLL,4613.394,N,00609.688,E,104956,A,A*58
$IIHDG,009,,,01,E*1A
$IIMTW,+21.5,C*3E
$IIMWV,028,R,10.0,N,A*18
$IIMWV,046,T,06.5,N,A*14
$IIRMC,104956,A,4613.394,N,00609.688,E,04.3,008,270614,01,E,A*0C
$IIVHW,,,009,M,04.2,N,,*6B
$IIVLW,01550,N,000.9,N*5B
$IIVWR,028,R,10.0,N,,,,*6A
$IIDPT,010.0,-1.0,*41
$IIGLL,4613.395,N,00609.688,E,104957,A,A*58
$IIHDG,009,,,01,E*1A
$IIMTW,+21.5,C*3E
$IIMWV,028,R,10.0,N,A*18
$IIMWV,046,T,06.5,N,A*14
$IIRMC,104958,A,4613.396,N,00609.688,E,04.5,006,270614,01,E,A*08
$IIVHW,,,009,M,04.2,N,,*6B
$IIVLW,01550,N,000.9,N*5B
$IIVWR,028,R,10.0,N,,,,*6A
$IIDPT,010.1,-1.0,*40
$IIGLL,4613.396,N,00609.688,E,104958,A,A*54
$IIHDG,009,,,01,E*1A
$IIMTW,+22.0,C*38
$IIMWV,028,R,10.0,N,A*18
$IIMWV,046,T,06.5,N,A*14
$IIRMC,104959,A,4613.398,N,00609.688,E,04.2,008,270614,01,E,A*0E
$IIVHW,,,009,M,04.2,N,,*6B
$IIVLW,01550,N,000.9,N*5B
$IIVWR,025,R,10.1,N,,,,*66
$IIDPT,010.1,-1.0,*40
$IIGLL,4613.398,N,00609.688,E,104959,A,A*5B
$IIHDG,009,,,01,E*1A
$IIMTW,+22.0,C*38
$IIMWV,024,R,10.1,N,A*15
$IIMWV,041,T,06.3,N,A*15
$IIRMC,105000,A,4613.399,N,00609.689,E,04.3,006,270614,01,E,A*05
$IIVHW,,,009,M,04.2,N,,*6B
$IIVLW,01550,N,000.9,N*5B
$IIVWR,024,R,10.1,N,,,,*67
$IIDPT,010.1,-1.0,*40
$IIGLL,4613.399,N,00609.689,E,105000,A,A*5F
$IIHDG,009,,,01,E*1A
$IIMTW,+21.5,C*3E
$IIMWV,023,R,10.2,N,A*11
$IIMWV,040,T,06.3,N,A*14
$IIRMC,105001,A,4613.400,N,00609.689,E,04.2,007,270614,01,E,A*03
$IIVHW,,,009,M,04.2,N,,*6B
$IIVLW,01550,N,000.9,N*5B
$IIVWR,023,R,10.2,N,,,,*63
$IIDPT,010.1,-1.0,*40
$IIGLL,4613.400,N,00609.689,E,105001,A,A*59
$IIHDG,009,,,01,E*1A
$IIMTW,+21.5,C*3E
$IIMWV,021,R,10.2,N,A*13
$IIMWV,038,T,06.3,N,A*1B
$IIRMC,105002,A,4613.401,N,00609.689,E,04.2,005,270614,01,E,A*03
$IIVHW,,,009,M,04.2,N,,*6B
$IIVLW,01550,N,000.9,N*5B
$IIVWR,021,R,10.2,N,,,,*61
$IIDPT,010.1,-1.0,*40
$IIGLL,4613.402,N,00609.689,E,105003,A,A*59
$IIHDG,009,,,01,E*1A
$IIMTW,+21.0,C*3B
$IIMWV,022,R,10.1,N,A*13
$IIMWV,035,T,06.2,N,A*17
$IIRMC,105003,A,4613.402,N,00609.689,E,04.0,009,270614,01,E,A*0F
$IIVHW,,,009,M,04.2,N,,*6B
$IIVLW,01550,N,000.9,N*5B
$IIVWR,022,R,10.1,N,,,,*61
$IIDPT,010.1,-1.0,*40
$IIGLL,4613.403,N,00609.689,E,105004,A,A*5F
$IIHDG,008,,,01,E*1B
$IIMTW,+22.0,C*38
$IIMWV,022,R,10.0,N,A*12
$IIMWV,037,T,06.2,N,A*15
$IIRMC,105004,A,4613.403,N,00609.689,E,04.0,010,270614,01,E,A*01
$IIVHW,,,008,M,04.2,N,,*6A
$IIVLW,01550,N,000.9,N*5B
$IIVWR,020,R,09.9,N,,,,*63
$IIDPT,010.1,-1.0,*40
$IIGLL,4613.405,N,00609.689,E,105005,A,A*58
$IIHDG,008,,,01,E*1B
$IIMTW,+21.5,C*3E
$IIMWV,020,R,09.9,N,A*11
$IIMWV,037,T,06.2,N,A*15
$IIRMC,105005,A,4613.405,N,00609.689,E,04.3,006,270614,01,E,A*02
$IIVHW,,,008,M,04.2,N,,*6A
$IIVLW,01550,N,000.9,N*5B
$IIVWR,018,R,09.9,N,,,,*68
$IIDPT,010.1,-1.0,*40
$IIGLL,4613.406,N,00609.689,E,105006,A,A*58
$IIHDG,007,,,01,E*14
$IIMTW,+21.0,C*3B
$IIMWV,018,R,09.9,N,A*1A
$IIMWV,033,T,06.0,N,A*13
$IIRMC,105006,A,4613.406,N,00609.689,E,04.0,005,270614,01,E,A*02
$IIVHW,,,005,M,04.1,N,,*64
$IIVLW,01550,N,000.9,N*5B
$IIVWR,016,R,09.8,N,,,,*67
$IIDPT,010.1,-1.0,*40
$IIGLL,4613.407,N,00609.689,E,105007,A,A*58
$IIHDG,005,,,01,E*16
$IIMTW,+21.0,C*3B
$IIMWV,016,R,09.8,N,A*15
$IIMWV,030,T,06.0,N,A*10
$IIRMC,105008,A,4613.408,N,00609.689,E,04.1,354,270614,01,E,A*04
$IIVHW,,,003,M,04.1,N,,*62
$IIVLW,01550,N,000.9,N*5B
$IIVWR,016,R,09.8,N,,,,*67
$IIDPT,010.1,-1.0,*40
$IIGLL,4613.408,N,00609.689,E,105008,A,A*58
$IIHDG,003,,,01,E*10
$IIMTW,+21.0,C*3B
$IIMWV,016,R,09.8,N,A*15
$IIMWV,027,T,05.9,N,A*1C
$IIRMC,105009,A,4613.409,N,00609.689,E,02.9,351,270614,01,E,A*0F
$IIVHW,,,000,M,04.1,N,,*61
$IIVLW,01550,N,000.9,N*5B
$IIVWR,018,R,09.7,N,,,,*66
$IIDPT,010.1,-1.0,*40
$IIGLL,4613.409,N,00609.689,E,105009,A,A*58
$IIHDG,000,,,01,E*13
$IIMTW,+21.5,C*3E
$IIMWV,017,R,09.7,N,A*1B
$IIMWV,031,T,05.9,N,A*1B
$IIRMC,105010,A,4613.410,N,00609.688,E,04.2,347,270614,01,E,A*04
$IIVHW,,,357,M,04.0,N,,*61
$IIVLW,01550,N,000.9,N*5B
$IIVWR,017,R,09.7,N,,,,*69
$IIDPT,010.2,-1.0,*43
$IIGLL,4613.410,N,00609.688,E,105010,A,A*59
$IIHDG,357,,,01,E*12
$IIMTW,+21.5,C*3E
$IIMWV,017,R,09.7,N,A*1B
$IIMWV,028,T,05.9,N,A*13
$IIRMC,105011,A,4613.411,N,00609.688,E,03.8,348,270614,01,E,A*06
$IIVHW,,,355,M,04.0,N,,*63
$IIVLW,01550,N,000.9,N*5B
$IIVWR,017,R,09.7,N,,,,*69
$IIDPT,010.2,-1.0,*43
$IIGLL,4613.411,N,00609.688,E,105011,A,A*59
$IIHDG,352,,,01,E*17
$IIMTW,+21.5,C*3E
$IIMWV,018,R,09.7,N,A*14
$IIMWV,028,T,05.9,N,A*13
$IIRMC,105012,A,4613.412,N,00609.688,E,03.8,345,270614,01,E,A*0B
$IIVHW,,,352,M,03.9,N,,*6A
$IIVLW,01550,N,000.9,N*5B
$IIVWR,018,R,09.7,N,,,,*66
$IIDPT,010.2,-1.0,*43
$IIGLL,4613.413,N,00609.687,E,105013,A,A*56
$IIHDG,350,,,01,E*15
$IIMTW,+21.5,C*3E
$IIMWV,019,R,09.6,N,A*14
$IIMWV,030,T,06.0,N,A*10
$IIRMC,105013,A,4613.413,N,00609.687,E,03.8,344,270614,01,E,A*05
$IIVHW,,,350,M,03.9,N,,*68
$IIVLW,01550,N,000.9,N*5B
$IIVWR,019,R,09.6,N,,,,*66
$IIDPT,010.3,-1.0,*42
$IIGLL,4613.413,N,00609.687,E,105013,A,A*56
$IIHDG,348,,,01,E*1C
$IIMTW,+21.0,C*3B
$IIMWV,021,R,09.6,N,A*1F
$IIMWV,031,T,05.9,N,A*1B
$IIRMC,105013,A,4613.413,N,00609.687,E,03.8,344,270614,01,E,A*05
$IIVHW,,,348,M,03.9,N,,*61
$IIVLW,01550,N,000.9,N*5B
