$IIVHW,,,028,M,,,,*3E
$IIVWR,012,L,04.6,N,,,,*7E
$IIHDG,028,,,,*5D
$IIVHW,,,028,M,00.0,N,,*6E
$IIVLW,53527,N,000.0,N*55
$IIVWR,015,L,10.7,N,,,,*7D
$IIGLL,4612.831,N,00610.249,E,153548,A,A*5D
$IIHDG,028,,,,*5D
$IIMTW,+00.0,C*38
$IIMWV,345,R,10.7,N,A*17
$IIRMC,153548,A,4612.831,N,00610.249,E,00.0,000,270814,,,A*4C
$IIVHW,,,028,M,00.0,N,,*6E
$IIVLW,53527,N,000.0,N*55
$IIVWR,016,L,11.9,N,,,,*71
$IIGLL,4612.831,N,00610.249,E,153549,A,A*5C
$IIHDG,028,,,,*5D
$IIMTW,+18.5,C*34
$IIMWV,344,R,11.9,N,A*19
$IIMWV,345,T,10.7,N,A*11
$IIRMC,153549,A,4612.831,N,00610.249,E,00.0,000,270814,,,A*4D
$IIVHW,,,028,M,00.0,N,,*6E
$IIVLW,53527,N,000.0,N*55
$IIVWR,018,L,13.1,N,,,,*75
$IIGLL,4612.831,N,00610.249,E,153550,A,A*54
$IIHDG,028,,,,*5D
$IIMTW,+18.5,C*34
$IIMWV,342,R,13.1,N,A*15
$IIMWV,344,T,11.9,N,A*1F
$IIRMC,153550,A,4612.831,N,00610.249,E,00.0,000,270814,,,A*45
$IIVHW,,,028,M,00.0,N,,*6E
$IIVLW,53527,N,000.0,N*55
$IIVWR,015,L,12.7,N,,,,*7F
$IIDPT,002.7,+0.7,*45
$IIGLL,4612.831,N,00610.249,E,153551,A,A*55
$IIHDG,028,,,,*5D
$IIMTW,+18.5,C*34
$IIMWV,345,R,12.7,N,A*15
$IIMWV,342,T,13.1,N,A*13
$IIRMC,153552,A,4612.831,N,00610.249,E,00.0,000,270814,,,A*47
$IIVHW,,,028,M,00.0,N,,*6E
$IIVLW,53527,N,000.0,N*55
$IIVWR,012,L,13.2,N,,,,*7C
$IIDPT,002.7,+0.7,*45
$IIGLL,4612.831,N,00610.249,E,153552,A,A*56
$IIHDG,028,,,,*5D
$IIMTW,+18.5,C*34
$IIMWV,348,R,13.2,N,A*1C
$IIMWV,348,T,13.2,N,A*1A
$IIRMC,153553,A,4612.831,N,00610.249,E,00.0,000,270814,,,A*46
$IIVHW,,,028,M,00.0,N,,*6E
$IIVLW,53527,N,000.0,N*55
$IIVWR,014,L,13.6,N,,,,*7E
$IIDPT,002.7,+0.7,*45
$IIGLL,4612.831,N,00610.249,E,153553,A,A*57
$IIHDG,028,,,,*5D
$IIMTW,+18.5,C*34
$IIMWV,349,R,13.6,N,A*19
$IIMWV,346,T,13.6,N,A*10
$IIRMC,153554,A,4612.831,N,00610.249,E,00.0,000,270814,,,A*41
$IIVHW,,,028,M,00.0,N,,*6E
$IIVLW,53527,N,000.0,N*55
$IIVWR,011,L,13.6,N,,,,*7B
$IIDPT,002.7,+0.7,*45
$IIGLL,4612.831,N,00610.249,E,153554,A,A*50
$IIHDG,028,,,,*5D
$IIMTW,+18.5,C*34
$IIMWV,349,R,13.6,N,A*19
$IIMWV,349,T,13.6,N,A*1F
$IIRMC,153555,A,4612.831,N,00610.249,E,00.0,000,270814,,,A*40
$IIVHW,,,028,M,00.0,N,,*6E
$IIVLW,53527,N,000.0,N*55
$IIVWR,011,L,13.6,N,,,,*7B
$IIDPT,002.6,+0.7,*44
$IIGLL,4612.831,N,00610.249,E,153555,A,A*51
$IIHDG,028,,,,*5D
$IIMTW,+18.5,C*34
$IIMWV,346,R,13.6,N,A*16
$IIMWV,349,T,13.6,N,A*1F
$IIRMC,153556,A,4612.831,N,00610.249,E,00.0,000,270814,,,A*43
$IIVHW,,,028,M,00.0,N,,*6E
$IIVLW,53527,N,000.0,N*55
$IIVWR,014,L,13.6,N,,,,*7E
$IIDPT,002.6,+0.7,*44
$IIGLL,4612.831,N,00610.249,E,153557,A,A*53
$IIHDG,028,,,,*5D
$IIMTW,+18.5,C*34
$IIMWV,343,R,13.6,N,A*13
$IIMWV,346,T,13.6,N,A*10
$IIRMC,153557,A,4612.831,N,00610.249,E,00.0,000,270814,,,A*42
$IIVHW,,,028,M,00.0,N,,*6E
$IIVLW,53527,N,000.0,N*55
$IIVWR,017,L,13.6,N,,,,*7D
$IIDPT,002.6,+0.7,*44
$IIGLL,4612.831,N,00610.249,E,153558,A,A*5C
$IIHDG,028,,,,*5D
$IIMTW,+18.5,C*34
$IIMWV,343,R,13.6,N,A*13
$IIMWV,343,T,13.6,N,A*15
$IIRMC,153558,A,4612.831,N,00610.249,E,00.0,000,270814,,,A*4D
$IIVHW,,,028,M,00.0,N,,*6E
$IIVLW,53527,N,000.0,N*55
$IIVWR,017,L,13.7,N,,,,*7C
$IIDPT,002.6,+0.7,*44
$IIGLL,4612.831,N,00610.249,E,153559,A,A*5D
$IIHDG,028,,,,*5D
$IIMTW,+18.5,C*34
$IIMWV,343,R,13.7,N,A*12
$IIMWV,343,T,13.6,N,A*15
$IIRMC,153559,A,4612.831,N,00610.249,E,00.0,000,270814,,,A*4C
$IIVHW,,,028,M,00.0,N,,*6E
$IIVLW,53527,N,000.0,N*55
$IIVWR,018,L,13.7,N,,,,*73
$IIDPT,002.6,+0.7,*44
$IIGLL,4612.831,N,00610.249,E,153600,A,A*52
$IIHDG,028,,,,*5D
$IIMTW,+18.5,C*34
$IIMWV,342,R,13.7,N,A*13
$IIMWV,343,T,13.7,N,A*14
$IIRMC,153600,A,4612.831,N,00610.249,E,00.0,000,270814,,,A*43
$IIVHW,,,028,M,00.0,N,,*6E
$IIVLW,53527,N,000.0,N*55
$IIVWR,017,L,13.2,N,,,,*79
$IIDPT,002.6,+0.7,*44
$IIGLL,4612.831,N,00610.249,E,153601,A,A*53
$IIHDG,028,,,,*5D
$IIMTW,+18.5,C*34
$IIMWV,343,R,13.2,N,A*17
$IIMWV,342,T,13.7,N,A*15
$IIRMC,153602,A,4612.831,N,00610.249,E,00.0,000,270814,,,A*41
$IIVHW,,,029,M,00.0,N,,*6F
$IIVLW,53527,N,000.0,N*55
$IIVWR,017,L,13.0,N,,,,*7B
$IIDPT,002.6,+0.7,*44
$IIGLL,4612.831,N,00610.249,E,153602,A,A*50
$IIHDG,029,,,,*5C
$IIMTW,+18.5,C*34
$IIMWV,343,R,13.0,N,A*15
$IIMWV,343,T,13.0,N,A*13
$IIRMC,153603,A,4612.831,N,00610.249,E,00.0,000,270814,,,A*40
$IIVHW,,,028,M,00.0,N,,*6E
$IIVLW,53527,N,000.0,N*55
$IIVWR,018,L,12.7,N,,,,*72
$IIDPT,002.6,+0.7,*44
$IIGLL,4612.831,N,00610.249,E,153603,A,A*51
$IIHDG,028,,,,*5D
$IIMTW,+18.5,C*34
$IIMWV,341,R,12.6,N,A*10
$IIMWV,342,T,12.7,N,A*14
$IIRMC,153604,A,4612.831,N,00610.249,E,00.0,000,270814,,,A*47
$IIVHW,,,028,M,00.0,N,,*6E
$IIVLW,53527,N,000.0,N*55
$IIVWR,019,L,12.6,N,,,,*72
$IIDPT,002.6,+0.7,*44
$IIGLL,4612.831,N,00610.249,E,153604,A,A*56
$IIHDG,028,,,,*5D
$IIMTW,+18.5,C*34
$IIMWV,340,R,12.0,N,A*17
$IIMWV,341,T,12.6,N,A*16
$IIRMC,153605,A,4612.831,N,00610.249,E,00.0,000,270814,,,A*46
$IIVHW,,,029,M,00.0,N,,*6F
$IIVLW,53527,N,000.0,N*55
$IIVWR,020,L,12.0,N,,,,*7E
$IIDPT,002.6,+0.7,*44
$IIGLL,4612.831,N,00610.249,E,153605,A,A*57
$IIHDG,028,,,,*5D
$IIMTW,+18.5,C*34
$IIMWV,341,R,12.2,N,A*14
$IIMWV,340,T,12.0,N,A*11
$IIRMC,153606,A,4612.831,N,00610.249,E,00.0,000,270814,,,A*45
$IIVHW,,,028,M,00.0,N,,*6E
$IIVLW,53527,N,000.0,N*55
$IIVWR,019,L,12.2,N,,,,*76
$IIDPT,002.6,+0.7,*44
$IIGLL,4612.831,N,00610.249,E,153607,A,A*55
$IIHDG,028,,,,*5D
$IIMTW,+18.5,C*34
$IIMWV,341,R,11.8,N,A*1D
$IIMWV,341,T,12.2,N,A*12
$IIRMC,153607,A,4612.831,N,00610.249,E,00.0,000,270814,,,A*44
$IIVHW,,,028,M,00.0,N,,*6E
$IIVLW,53527,N,000.0,N*55
$IIVWR,019,L,11.8,N,,,,*7F
$IIDPT,002.6,+0.7,*44
$IIGLL,4612.831,N,00610.249,E,153608,A,A*5A
$IIHDG,028,,,,*5D
$IIMTW,+18.5,C*34
$IIMWV,340,R,11.5,N,A*11
$IIMWV,341,T,11.8,N,A*1B
$IIRMC,153608,A,4612.831,N,00610.249,E,00.0,000,270814,,,A*4B
$IIVHW,,,028,M,00.0,N,,*6E
$IIVLW,53527,N,000.0,N*55
$IIVWR,020,L,11.8,N,,,,*75
$IIDPT,002.6,+0.7,*44
$IIGLL,4612.831,N,00610.249,E,153609,A,A*5B
$IIHDG,028,,,,*5D
$IIMTW,+18.5,C*34
$IIMWV,340,R,11.8,N,A*1C
$IIMWV,340,T,11.5,N,A*17
$IIRMC,153609,A,4612.831,N,00610.249,E,00.0,000,270814,,,A*4A
$IIVHW,,,028,M,00.0,N,,*6E
$IIVLW,53527,N,000.0,N*55
$IIVWR,021,L,12.0,N,,,,*7F
$IIDPT,002.6,+0.7,*44
$IIGLL,4612.831,N,00610.249,E,153610,A,A*53
$IIHDG,027,,,,*52
$IIMTW,+18.5,C*34
$IIMWV,339,R,12.0,N,A*19
$IIMWV,340,T,11.8,N,A*1A
$IIRMC,153610,A,4612.831,N,00610.249,E,00.0,000,270814,,,A*42
$IIVHW,,,027,M,00.0,N,,*61
$IIVLW,53527,N,000.0,N*55
$IIVWR,022,L,12.2,N,,,,*7E
$IIDPT,002.6,+0.7,*44
$IIGLL,4612.831,N,00610.249,E,153611,A,A*52
$IIHDG,027,,,,*52
$IIMTW,+18.5,C*34
$IIMWV,338,R,12.2,N,A*1A
$IIMWV,339,T,12.0,N,A*1F
$IIRMC,153612,A,4612.831,N,00610.249,E,00.0,000,270814,,,A*40
$IIVHW,,,028,M,00.0,N,,*6E
$IIVLW,53527,N,000.0,N*55
$IIVWR,021,L,11.8,N,,,,*74
$IIDPT,002.6,+0.7,*44
$IIGLL,4612.831,N,00610.249,E,153612,A,A*51
$IIHDG,028,,,,*5D
$IIMTW,+18.5,C*34
$IIMWV,339,R,11.8,N,A*12
$IIMWV,339,T,11.8,N,A*14
$IIRMC,153613,A,4612.831,N,00610.249,E,00.0,000,270814,,,A*41
$IIVHW,,,028,M,00.0,N,,*6E
$IIVLW,53527,N,000.0,N*55
$IIVWR,022,L,11.9,N,,,,*76
$IIDPT,002.6,+0.7,*44
$IIGLL,4612.831,N,00610.249,E,153613,A,A*50
$IIHDG,028,,,,*5D
$IIMTW,+18.5,C*34
$IIMWV,338,R,12.0,N,A*18
$IIMWV,338,T,11.9,N,A*14
$IIRMC,153614,A,4612.831,N,00610.249,E,00.0,000,270814,,,A*46
$IIVHW,,,028,M,00.0,N,,*6E
$IIVLW,53527,N,000.0,N*55
$IIVWR,022,L,12.0,N,,,,*7C
$IIDPT,002.6,+0.7,*44
$IIGLL,4612.831,N,00610.249,E,153614,A,A*57
$IIHDG,028,,,,*5D
$IIMTW,+18.5,C*34
$IIMWV,338,R,12.4,N,A*1C
$IIMWV,338,T,12.0,N,A*1E
$IIRMC,153615,A,4612.831,N,00610.249,E,00.0,000,270814,,,A*47
$IIVHW,,,027,M,00.0,N,,*61
$IIVLW,53527,N,000.0,N*55
$IIVWR,022,L,12.4,N,,,,*78
$IIDPT,002.6,+0.7,*44
$IIGLL,4612.831,N,00610.249,E,153615,A,A*56
$IIHDG,027,,,,*52
$IIMTW,+18.5,C*34
$IIMWV,339,R,12.4,N,A*1D
$IIMWV,338,T,12.4,N,A*1A
$IIRMC,153616,A,4612.831,N,00610.249,E,00.0,000,270814,,,A*44
$IIVHW,,,027,M,00.0,N,,*61
$IIVLW,53527,N,000.0,N*55
$IIVWR,021,L,12.4,N,,,,*7B
$IIDPT,002.6,+0.7,*44
$IIGLL,4612.831,N,00610.249,E,153618,A,A*5B
$IIHDG,027,,,,*52
$IIMTW,+18.5,C*34
$IIMWV,338,R,12.4,N,A*1C
$IIMWV,339,T,12.4,N,A*1B
$IIRMC,153618,A,4612.831,N,00610.249,E,00.0,000,270814,,,A*4A
$IIVHW,,,027,M,00.0,N,,*61
$IIVLW,53527,N,000.0,N*55
$IIVWR,022,L,12.4,N,,,,*78
$IIDPT,002.6,+0.7,*44
$IIGLL,4612.831,N,00610.249,E,153619,A,A*5A
$IIHDG,027,,,,*52
$IIMTW,+18.5,C*34
$IIMWV,339,R,12.4,N,A*1D
$IIMWV,338,T,12.4,N,A*1A
$IIRMC,153619,A,4612.831,N,00610.249,E,00.0,000,270814,,,A*4B
$IIVHW,,,027,M,00.0,N,,*61
$IIVLW,53527,N,000.0,N*55
$IIVWR,022,L,12.3,N,,,,*7F
$IIDPT,002.6,+0.7,*44
$IIGLL,4612.831,N,00610.249,E,153619,A,A*5A
$IIHDG,027,,,,*52
$IIMTW,+18.5,C*34
$IIMWV,338,R,12.3,N,A*1B
$IIMWV,339,T,12.4,N,A*1B
$IIRMC,153619,A,4612.831,N,00610.249,E,00.0,000,270814,,,A*4B
$IIVHW,,,027,M,00.0,N,,*61
$IIVLW,53527,N,000.0,N*55
$IIVWR,020,L,12.0,N,,,,*7E
$IIDPT,002.6,+0.7,*44
$IIGLL,4612.831,N,00610.249,E,153621,A,A*51
$IIHDG,027,,,,*52
$IIMTW,+18.5,C*34
$IIMWV,340,R,12.0,N,A*17
$IIMWV,338,T,12.3,N,A*1D
$IIRMC,153621,A,4612.831,N,00610.249,E,00.0,000,270814,,,A*40
$IIVHW,,,027,M,00.0,N,,*61
$IIVLW,53527,N,000.0,N*55
$IIVWR,019,L,12.2,N,,,,*76
$IIDPT,002.6,+0.7,*44
$IIGLL,4612.831,N,00610.249,E,153622,A,A*52
$IIHDG,027,,,,*52
$IIMTW,+18.5,C*34
$IIMWV,341,R,12.2,N,A*14
$IIMWV,340,T,12.0,N,A*11
$IIRMC,153623,A,4612.831,N,00610.249,E,00.0,000,270814,,,A*42
$IIVHW,,,028,M,00.0,N,,*6E
$IIVLW,53527,N,000.0,N*55
$IIVWR,020,L,12.2,N,,,,*7C
$IIDPT,002.6,+0.7,*44
$IIGLL,4612.831,N,00610.249,E,153623,A,A*53
$IIHDG,028,,,,*5D
$IIMTW,+18.5,C*34
$IIMWV,340,R,12.2,N,A*15
$IIMWV,340,T,12.2,N,A*13
$IIRMC,153624,A,4612.831,N,00610.249,E,00.0,000,270814,,,A*45
$IIVHW,,,027,M,00.0,N,,*61
$IIVLW,53527,N,000.0,N*55
$IIVWR,020,L,11.9,N,,,,*74
$IIDPT,002.6,+0.7,*44
$IIGLL,4612.831,N,00610.249,E,153624,A,A*54
$IIHDG,027,,,,*52
$IIMTW,+18.5,C*34
$IIMWV,341,R,11.8,N,A*1D
$IIMWV,340,T,11.9,N,A*1B
$IIRMC,153625,A,4612.831,N,00610.249,E,00.0,000,270814,,,A*44
$IIVHW,,,027,M,00.0,N,,*61
$IIVLW,53527,N,000.0,N*55
$IIVWR,019,L,11.8,N,,,,*7F
$IIDPT,002.6,+0.7,*44
$IIGLL,4612.831,N,00610.249,E,153625,A,A*55
$IIHDG,027,,,,*52
$IIMTW,+18.5,C*34
$IIMWV,342,R,11.5,N,A*13
$IIMWV,341,T,11.8,N,A*1B
$IIRMC,153626,A,4612.831,N,00610.249,E,00.0,000,270814,,,A*47
$IIVHW,,,027,M,00.0,N,,*61
$IIVLW,53527,N,000.0,N*55
$IIVWR,018,L,11.5,N,,,,*73
$IIDPT,002.6,+0.7,*44
$IIGLL,4612.831,N,00610.249,E,153626,A,A*56
$IIHDG,028,,,,*5D
$IIMTW,+18.5,C*34
$IIMWV,344,R,11.4,N,A*14
$IIMWV,342,T,11.5,N,A*15
$IIRMC,153627,A,4612.831,N,00610.249,E,00.0,000,270814,,,A*46
$IIVHW,,,028,M,00.0,N,,*6E
$IIVLW,53527,N,000.0,N*55
$IIVWR,016,L,11.4,N,,,,*7C
$IIDPT,002.6,+0.7,*44
$IIGLL,4612.831,N,00610.249,E,153628,A,A*58
$IIHDG,027,,,,*52
$IIMTW,+18.5,C*34
$IIMWV,345,R,11.5,N,A*14
$IIMWV,344,T,11.4,N,A*12
$IIRMC,153628,A,4612.831,N,00610.249,E,00.0,000,270814,,,A*49
$IIVHW,,,027,M,00.0,N,,*61
$IIVLW,53527,N,000.0,N*55
$IIVWR,015,L,11.5,N,,,,*7E
$IIDPT,002.6,+0.7,*44
$IIGLL,4612.831,N,00610.249,E,153629,A,A*59
$IIHDG,027,,,,*52
$IIMTW,+18.5,C*34
$IIMWV,344,R,11.5,N,A*15
$IIMWV,345,T,11.5,N,A*12
$IIRMC,153629,A,4612.831,N,00610.249,E,00.0,000,270814,,,A*48
$IIVHW,,,027,M,00.0,N,,*61
$IIVLW,53527,N,000.0,N*55
$IIVWR,015,L,11.4,N,,,,*7F
$IIDPT,002.6,+0.7,*44
$IIGLL,4612.831,N,00610.249,E,153630,A,A*51
$IIHDG,027,,,,*52
$IIMTW,+18.5,C*34
$IIMWV,345,R,11.4,N,A*15
$IIMWV,344,T,11.5,N,A*13
$IIRMC,153630,A,4612.831,N,00610.249,E,00.0,000,270814,,,A*40
$IIVHW,,,027,M,00.0,N,,*61
$IIVLW,53527,N,000.0,N*55
$IIVWR,016,L,11.4,N,,,,*7C
$IIDPT,002.6,+0.7,*44
$IIGLL,4612.831,N,00610.249,E,153631,A,A*50
$IIHDG,027,,,,*52
$IIMTW,+18.5,C*34
$IIMWV,344,R,11.4,N,A*14
$IIMWV,345,T,11.4,N,A*13
$IIRMC,153631,A,4612.831,N,00610.249,E,00.0,000,270814,,,A*41
$IIVHW,,,028,M,00.0,N,,*6E
$IIVLW,53527,N,000.0,N*55
$IIVWR,016,L,11.3,N,,,,*7B
$IIDPT,002.6,+0.7,*44
$IIGLL,4612.831,N,00610.249,E,153632,A,A*53
$IIHDG,028,,,,*5D
$IIMTW,+18.5,C*34
$IIMWV,344,R,11.3,N,A*13
$IIMWV,344,T,11.4,N,A*12
$IIRMC,153633,A,4612.831,N,00610.249,E,00.0,000,270814,,,A*43
$IIVHW,,,028,M,00.0,N,,*6E
$IIVLW,53527,N,000.0,N*55
$IIVWR,017,L,11.3,N,,,,*7A
$IIDPT,002.6,+0.7,*44
$IIGLL,4612.831,N,00610.249,E,153633,A,A*52
$IIHDG,028,,,,*5D
$IIMTW,+18.5,C*34
$IIMWV,343,R,11.3,N,A*14
$IIMWV,343,T,11.3,N,A*12
$IIRMC,153634,A,4612.831,N,00610.249,E,00.0,000,270814,,,A*44
$IIVHW,,,027,M,00.0,N,,*61
$IIVLW,53527,N,000.0,N*55
$IIVWR,016,L,11.3,N,,,,*7B
$IIDPT,002.6,+0.7,*44
$IIGLL,4612.831,N,00610.249,E,153634,A,A*55
$IIHDG,027,,,,*52
$IIMTW,+18.5,C*34
$IIMWV,345,R,10.9,N,A*19
$IIMWV,344,T,11.3,N,A*15
$IIRMC,153635,A,4612.831,N,00610.249,E,00.0,000,270814,,,A*45
$IIVHW,,,027,M,00.0,N,,*61
$IIVLW,53527,N,000.0,N*55
$IIVWR,015,L,10.9,N,,,,*73
$IIDPT,002.6,+0.7,*44
$IIGLL,4612.831,N,00610.249,E,153635,A,A*54
$IIHDG,027,,,,*52
$IIMTW,+18.5,C*34
$IIMWV,345,R,10.9,N,A*19
$IIMWV,345,T,10.9,N,A*1F
$IIRMC,153636,A,4612.831,N,00610.249,E,00.0,000,270814,,,A*46
$IIVHW,,,028,M,00.0,N,,*6E
$IIVLW,53527,N,000.0,N*55
$IIVWR,015,L,10.9,N,,,,*73
$IIDPT,002.6,+0.7,*44
$IIGLL,4612.831,N,00610.249,E,153636,A,A*57
$IIHDG,028,,,,*5D
$IIMTW,+18.5,C*34
$IIMWV,345,R,10.9,N,A*19
$IIMWV,345,T,10.9,N,A*1F
$IIRMC,153637,A,4612.831,N,00610.249,E,00.0,000,270814,,,A*47
$IIVHW,,,028,M,00.0,N,,*6E
$IIVLW,53527,N,000.0,N*55
$IIVWR,015,L,10.9,N,,,,*73
$IIDPT,002.6,+0.7,*44
$IIGLL,4612.831,N,00610.249,E,153638,A,A*59
$IIHDG,028,,,,*5D
$IIMTW,+18.5,C*34
$IIMWV,345,R,11.0,N,A*11
$IIMWV,345,T,10.9,N,A*1F
$IIRMC,153638,A,4612.831,N,00610.249,E,00.0,000,270814,,,A*48
$IIVHW,,,028,M,00.0,N,,*6E
$IIVLW,53527,N,000.0,N*55
$IIVWR,015,L,11.0,N,,,,*7B
$IIDPT,002.6,+0.7,*44
$IIGLL,4612.831,N,00610.249,E,153639,A,A*58
$IIHDG,028,,,,*5D
$IIMTW,+18.5,C*34
$IIMWV,346,R,11.3,N,A*11
$IIMWV,345,T,11.0,N,A*17
$IIRMC,153639,A,4612.831,N,00610.249,E,00.0,000,270814,,,A*49
$IIVHW,,,028,M,00.0,N,,*6E
$IIVLW,53527,N,000.0,N*55
$IIVWR,015,L,11.3,N,,,,*78
$IIDPT,002.6,+0.7,*44
$IIGLL,4612.831,N,00610.249,E,153639,A,A*58
$IIHDG,027,,,,*52
$IIMTW,+18.5,C*34
$IIMWV,345,R,11.3,N,A*12
$IIMWV,346,T,11.3,N,A*17
$IIRMC,153639,A,4612.831,N,00610.249,E,00.0,000,270814,,,A*49
$IIVHW,,,027,M,00.0,N,,*61
$IIVLW,53527,N,000.0,N*55
$IIVWR,014,L,11.3,N,,,,*79
$IIDPT,002.6,+0.7,*44
$IIGLL,4612.831,N,00610.249,E,153641,A,A*57
$IIHDG,028,,,,*5D
$IIMTW,+18.5,C*34
$IIMWV,346,R,11.3,N,A*11
$IIMWV,345,T,11.3,N,A*14
$IIRMC,153641,A,4612.831,N,00610.249,E,00.0,000,270814,,,A*46
$IIVHW,,,028,M,00.0,N,,*6E
$IIVLW,53527,N,000.0,N*55
$IIVWR,014,L,11.3,N,,,,*79
$IIDPT,002.6,+0.7,*44
$IIGLL,4612.831,N,00610.249,E,153642,A,A*54
$IIHDG,028,,,,*5D
$IIMTW,+18.5,C*34
$IIMWV,346,R,11.3,N,A*11
$IIMWV,346,T,11.3,N,A*17
$IIRMC,153643,A,4612.831,N,00610.249,E,00.0,000,270814,,,A*44
$IIVHW,,,028,M,00.0,N,,*6E
$IIVLW,53527,N,000.0,N*55
$IIVWR,015,L,11.5,N,,,,*7E
$IIDPT,002.6,+0.7,*44
$IIGLL,4612.831,N,00610.249,E,153643,A,A*55
$IIHDG,028,,,,*5D
$IIMTW,+18.5,C*34
$IIMWV,345,R,11.5,N,A*14
$IIMWV,345,T,11.5,N,A*12
$IIRMC,153644,A,4612.831,N,00610.249,E,00.0,000,270814,,,A*43
$IIVHW,,,027,M,00.0,N,,*61
$IIVLW,53527,N,000.0,N*55
$IIVWR,015,L,11.4,N,,,,*7F
$IIDPT,002.6,+0.7,*44
$IIGLL,4612.831,N,00610.249,E,153644,A,A*52
$IIHDG,027,,,,*52
$IIMTW,+18.5,C*34
$IIMWV,345,R,11.4,N,A*15
$IIMWV,345,T,11.4,N,A*13
$IIRMC,153645,A,4612.831,N,00610.249,E,00.0,000,270814,,,A*42
$IIVHW,,,027,M,00.0,N,,*61
$IIVLW,53527,N,000.0,N*55
$IIVWR,015,L,11.4,N,,,,*7F
$IIDPT,002.6,+0.7,*44
$IIGLL,4612.831,N,00610.249,E,153645,A,A*53
$IIHDG,027,,,,*52
$IIMTW,+18.5,C*34
$IIMWV,345,R,11.3,N,A*12
$IIMWV,345,T,11.4,N,A*13
$IIRMC,153646,A,4612.831,N,00610.249,E,00.0,000,270814,,,A*41
$IIVHW,,,027,M,00.0,N,,*61
$IIVLW,53527,N,000.0,N*55
$IIVWR,015,L,11.3,N,,,,*78
$IIDPT,002.6,+0.7,*44
$IIGLL,4612.831,N,00610.249,E,153646,A,A*50
$IIHDG,028,,,,*5D
$IIMTW,+18.5,C*34
$IIMWV,344,R,11.5,N,A*15
$IIMWV,345,T,11.3,N,A*14
$IIRMC,153647,A,4612.831,N,00610.249,E,00.0,000,270814,,,A*40
$IIVHW,,,028,M,00.0,N,,*6E
$IIVLW,53527,N,000.0,N*55
$IIVWR,016,L,11.5,N,,,,*7D
$IIDPT,002.6,+0.7,*44
$IIGLL,4612.831,N,00610.249,E,153649,A,A*5F
$IIHDG,027,,,,*52
$IIMTW,+18.5,C*34
$IIMWV,343,R,11.7,N,A*10
$IIMWV,343,T,11.5,N,A*14
$IIRMC,153649,A,4612.831,N,00610.249,E,00.0,000,270814,,,A*4E
$IIVHW,,,027,M,00.0,N,,*61
$IIVLW,53527,N,000.0,N*55
$IIVWR,017,L,11.7,N,,,,*7E
$IIDPT,002.6,+0.7,*44
$IIGLL,4612.831,N,00610.249,E,153650,A,A*57
$IIHDG,027,,,,*52
$IIMTW,+18.5,C*34
$IIMWV,344,R,11.5,N,A*15
$IIMWV,343,T,11.7,N,A*16
$IIRMC,153650,A,4612.831,N,00610.249,E,00.0,000,270814,,,A*46
$IIVHW,,,027,M,00.0,N,,*61
$IIVLW,53527,N,000.0,N*55
$IIVWR,017,L,11.4,N,,,,*7D
$IIDPT,002.6,+0.7,*44
$IIGLL,4612.831,N,00610.249,E,153651,A,A*56
$IIHDG,028,,,,*5D
$IIMTW,+18.5,C*34
$IIMWV,343,R,11.4,N,A*13
$IIMWV,344,T,11.5,N,A*13
$IIRMC,153651,A,4612.831,N,00610.249,E,00.0,000,270814,,,A*47
$IIVHW,,,028,M,00.0,N,,*6E
$IIVLW,53527,N,000.0,N*55
$IIVWR,018,L,11.4,N,,,,*72
$IIDPT,002.6,+0.7,*44
$IIGLL,4612.831,N,00610.249,E,153652,A,A*55
$IIHDG,028,,,,*5D
$IIMTW,+18.5,C*34
$IIMWV,342,R,11.4,N,A*12
$IIMWV,343,T,11.4,N,A*15
$IIRMC,153652,A,4612.831,N,00610.249,E,00.0,000,270814,,,A*44
$IIVHW,,,028,M,00.0,N,,*6E
$IIVLW,53527,N,000.0,N*55
$IIVWR,018,L,11.3,N,,,,*75
$IIDPT,002.6,+0.7,*44
$IIGLL,4612.831,N,00610.249,E,153653,A,A*54
$IIHDG,028,,,,*5D
$IIMTW,+18.5,C*34
$IIMWV,342,R,11.3,N,A*15
$IIMWV,342,T,11.4,N,A*14
$IIRMC,153654,A,4612.831,N,00610.249,E,00.0,000,270814,,,A*42
$IIVHW,,,028,M,00.0,N,,*6E
$IIVLW,53527,N,000.0,N*55
$IIVWR,018,L,11.5,N,,,,*73
$IIDPT,002.6,+0.7,*44
$IIGLL,4612.831,N,00610.249,E,153654,A,A*53
$IIHDG,028,,,,*5D
$IIMTW,+18.5,C*34
$IIMWV,342,R,11.5,N,A*13
$IIMWV,342,T,11.5,N,A*15
$IIRMC,153655,A,4612.831,N,00610.249,E,00.0,000,270814,,,A*43
$IIVHW,,,028,M,00.0,N,,*6E
$IIVLW,53527,N,000.0,N*55
$IIVWR,018,L,11.5,N,,,,*73
$IIDPT,002.6,+0.7,*44
$IIGLL,4612.831,N,00610.249,E,153655,A,A*52
$IIHDG,028,,,,*5D
$IIMTW,+18.5,C*34
$IIMWV,342,R,11.4,N,A*12
$IIMWV,342,T,11.5,N,A*15
$IIRMC,153656,A,4612.831,N,00610.249,E,00.0,000,270814,,,A*40
$IIVHW,,,027,M,00.0,N,,*61
$IIVLW,53527,N,000.0,N*55
$IIVWR,018,L,11.4,N,,,,*72
$IIDPT,002.6,+0.7,*44
$IIGLL,4612.831,N,00610.249,E,153656,A,A*51
$IIHDG,027,,,,*52
$IIMTW,+18.5,C*34
$IIMWV,342,R,11.3,N,A*15
$IIMWV,342,T,11.4,N,A*14
$IIRMC,153657,A,4612.831,N,00610.249,E,00.0,000,270814,,,A*41
$IIVHW,,,028,M,00.0,N,,*6E
$IIVLW,53527,N,000.0,N*55
$IIVWR,018,L,11.3,N,,,,*75
$IIDPT,002.6,+0.7,*44
$IIGLL,4612.831,N,00610.249,E,153657,A,A*50
$IIHDG,027,,,,*52
$IIMTW,+18.5,C*34
$IIMWV,343,R,11.3,N,A*14
$IIMWV,342,T,11.3,N,A*13
$IIRMC,153658,A,4612.831,N,00610.249,E,00.0,000,270814,,,A*4E
$IIVHW,,,027,M,00.0,N,,*61
$IIVLW,53527,N,000.0,N*55
$IIVWR,017,L,11.3,N,,,,*7A
$IIDPT,002.6,+0.7,*44
$IIGLL,4612.831,N,00610.249,E,153659,A,A*5E
$IIHDG,027,,,,*52
$IIMTW,+18.5,C*34
$IIMWV,343,R,11.3,N,A*14
$IIMWV,343,T,11.3,N,A*12
$IIRMC,153659,A,4612.831,N,00610.249,E,00.0,000,270814,,,A*4F
$IIVHW,,,027,M,00.0,N,,*61
$IIVLW,53527,N,000.0,N*55
$IIVWR,017,L,11.3,N,,,,*7A
$IIDPT,002.6,+0.7,*44
$IIGLL,4612.831,N,00610.249,E,153700,A,A*53
$IIHDG,027,,,,*52
$IIMTW,+18.5,C*34
$IIMWV,344,R,11.5,N,A*15
$IIMWV,343,T,11.3,N,A*12
$IIRMC,153700,A,4612.831,N,00610.249,E,00.0,000,270814,,,A*42
$IIVHW,,,027,M,00.0,N,,*61
$IIVLW,53527,N,000.0,N*55
$IIVWR,016,L,11.4,N,,,,*7C
$IIDPT,002.6,+0.7,*44
$IIGLL,4612.831,N,00610.249,E,153701,A,A*52
$IIHDG,028,,,,*5D
$IIMTW,+18.5,C*34
$IIMWV,344,R,11.4,N,A*14
$IIMWV,344,T,11.5,N,A*13
$IIRMC,153701,A,4612.831,N,00610.249,E,00.0,000,270814,,,A*43
$IIVHW,,,028,M,00.0,N,,*6E
$IIVLW,53527,N,000.0,N*55
$IIVWR,015,L,11.4,N,,,,*7F
$IIDPT,002.6,+0.7,*44
$IIGLL,4612.831,N,00610.249,E,153702,A,A*51
$IIHDG,027,,,,*52
$IIMTW,+18.5,C*34
$IIMWV,345,R,11.4,N,A*15
$IIMWV,344,T,11.4,N,A*12
$IIRMC,153702,A,4612.831,N,00610.249,E,00.0,000,270814,,,A*40
$IIVHW,,,027,M,00.0,N,,*61
$IIVLW,53527,N,000.0,N*55
$IIVWR,015,L,11.7,N,,,,*7C
$IIDPT,002.6,+0.7,*44
$IIGLL,4612.831,N,00610.249,E,153703,A,A*50
$IIHDG,027,,,,*52
$IIMTW,+18.5,C*34
$IIMWV,345,R,11.7,N,A*16
$IIMWV,345,T,11.4,N,A*13
$IIRMC,153704,A,4612.831,N,00610.249,E,00.0,000,270814,,,A*46
$IIVHW,,,028,M,00.0,N,,*6E
$IIVLW,53527,N,000.0,N*55
$IIVWR,016,L,11.5,N,,,,*7D
$IIDPT,002.6,+0.7,*44
$IIGLL,4612.831,N,00610.249,E,153704,A,A*57
$IIHDG,028,,,,*5D
$IIMTW,+18.5,C*34
$IIMWV,344,R,11.5,N,A*15
$IIMWV,344,T,11.5,N,A*13
$IIRMC,153705,A,4612.831,N,00610.249,E,00.0,000,270814,,,A*47
$IIVHW,,,027,M,00.0,N,,*61
$IIVLW,53527,N,000.0,N*55
$IIVWR,014,L,11.4,N,,,,*7E
$IIDPT,002.6,+0.7,*44
$IIGLL,4612.831,N,00610.249,E,153705,A,A*56
$IIHDG,027,,,,*52
$IIMTW,+18.5,C*34
$IIMWV,347,R,11.3,N,A*10
$IIMWV,346,T,11.4,N,A*10
$IIRMC,153706,A,4612.831,N,00610.249,E,00.0,000,270814,,,A*44
$IIVHW,,,027,M,00.0,N,,*61
$IIVLW,53527,N,000.0,N*55
$IIVWR,013,L,11.3,N,,,,*7E
$IIDPT,002.6,+0.7,*44
$IIGLL,4612.831,N,00610.249,E,153706,A,A*55
$IIHDG,027,,,,*52
$IIMTW,+18.5,C*34
$IIMWV,347,R,11.5,N,A*16
$IIMWV,347,T,11.3,N,A*16
$IIRMC,153707,A,4612.831,N,00610.249,E,00.0,000,270814,,,A*45
$IIVHW,,,027,M,00.0,N,,*61
$IIVLW,53527,N,000.0,N*55
$IIVWR,013,L,11.5,N,,,,*78
$IIDPT,002.6,+0.7,*44
$IIGLL,4612.831,N,00610.249,E,153707,A,A*54
$IIHDG,028,,,,*5D
$IIMTW,+18.5,C*34
$IIMWV,346,R,11.5,N,A*17
$IIMWV,347,T,11.5,N,A*10
$IIRMC,153708,A,4612.831,N,00610.249,E,00.0,000,270814,,,A*4A
$IIVHW,,,028,M,00.0,N,,*6E
$IIVLW,53527,N,000.0,N*55
$IIVWR,014,L,11.5,N,,,,*7F
$IIDPT,002.6,+0.7,*44
$IIGLL,4612.831,N,00610.249,E,153709,A,A*5A
$IIHDG,028,,,,*5D
$IIMTW,+18.5,C*34
$IIMWV,345,R,11.7,N,A*16
$IIMWV,346,T,11.5,N,A*11
$IIRMC,153709,A,4612.831,N,00610.249,E,00.0,000,270814,,,A*4B
$IIVHW,,,028,M,00.0,N,,*6E
$IIVLW,53527,N,000.0,N*55
$IIVWR,015,L,11.7,N,,,,*7C
$IIDPT,002.6,+0.7,*44
$IIGLL,4612.831,N,00610.249,E,153710,A,A*52
$IIHDG,028,,,,*5D
$IIMTW,+18.5,C*34
$IIMWV,346,R,11.9,N,A*1B
$IIMWV,345,T,11.7,N,A*10
$IIRMC,153710,A,4612.831,N,00610.249,E,00.0,000,270814,,,A*43
$IIVHW,,,028,M,00.0,N,,*6E
$IIVLW,53527,N,000.0,N*55
$IIVWR,013,L,11.7,N,,,,*7A
$IIDPT,002.6,+0.7,*44
$IIGLL,4612.831,N,00610.249,E,153711,A,A*53
$IIHDG,027,,,,*52
$IIMTW,+18.5,C*34
$IIMWV,347,R,11.7,N,A*14
$IIMWV,346,T,11.9,N,A*1D
$IIRMC,153711,A,4612.831,N,00610.249,E,00.0,000,270814,,,A*42
$IIVHW,,,027,M,00.0,N,,*61
$IIVLW,53527,N,000.0,N*55
$IIVWR,013,L,11.5,N,,,,*78
$IIDPT,002.6,+0.7,*44
$IIGLL,4612.831,N,00610.249,E,153712,A,A*50
$IIHDG,028,,,,*5D
$IIMTW,+18.5,C*34
$IIMWV,347,R,11.5,N,A*16
$IIMWV,347,T,11.7,N,A*12
$IIRMC,153712,A,4612.831,N,00610.249,E,00.0,000,270814,,,A*41
$IIVHW,,,028,M,00.0,N,,*6E
$IIVLW,53527,N,000.0,N*55
$IIVWR,013,L,11.8,N,,,,*75
$IIDPT,002.6,+0.7,*44
$IIGLL,4612.831,N,00610.249,E,153713,A,A*51
$IIHDG,028,,,,*5D
$IIMTW,+18.5,C*34
$IIMWV,347,R,11.8,N,A*1B
$IIMWV,347,T,11.5,N,A*10
$IIRMC,153714,A,4612.831,N,00610.249,E,00.0,000,270814,,,A*47
$IIVHW,,,028,M,00.0,N,,*6E
$IIVLW,53527,N,000.0,N*55
$IIVWR,013,L,11.9,N,,,,*74
$IIDPT,002.6,+0.7,*44
$IIGLL,4612.831,N,00610.249,E,153714,A,A*56
$IIHDG,028,,,,*5D
$IIMTW,+18.5,C*34
$IIMWV,347,R,11.9,N,A*1A
$IIMWV,347,T,11.9,N,A*1C
$IIRMC,153714,A,4612.831,N,00610.249,E,00.0,000,270814,,,A*47
$IIVHW,,,028,M,00.0,N,,*6E
$IIVLW,53527,N,000.0,N*55
$IIVWR,012,L,11.7,N,,,,*7B
$IIDPT,002.6,+0.7,*44
$IIGLL,4612.831,N,00610.249,E,153714,A,A*56
$IIHDG,028,,,,*5D
$IIMTW,+18.5,C*34
$IIMWV,349,R,11.9,N,A*14
$IIMWV,348,T,11.7,N,A*1D
$IIRMC,153716,A,4612.831,N,00610.249,E,00.0,000,270814,,,A*45
$IIVHW,,,028,M,00.0,N,,*6E
$IIVLW,53527,N,000.0,N*55
$IIVWR,011,L,11.9,N,,,,*76
$IIDPT,002.6,+0.7,*44
$IIGLL,4612.831,N,00610.249,E,153716,A,A*54
$IIHDG,028,,,,*5D
$IIMTW,+18.5,C*34
$IIMWV,348,R,12.0,N,A*1F
$IIMWV,349,T,11.9,N,A*12
$IIRMC,153717,A,4612.831,N,00610.249,E,00.0,000,270814,,,A*44
$IIVHW,,,028,M,00.0,N,,*6E
$IIVLW,53527,N,000.0,N*55
$IIVWR,012,L,12.0,N,,,,*7F
$IIDPT,002.6,+0.7,*44
$IIGLL,4612.831,N,00610.249,E,153717,A,A*55
$IIHDG,028,,,,*5D
$IIMTW,+18.5,C*34
$IIMWV,348,R,12.0,N,A*1F
$IIMWV,348,T,12.0,N,A*19
$IIRMC,153718,A,4612.831,N,00610.249,E,00.0,000,270814,,,A*4B
$IIVHW,,,028,M,00.0,N,,*6E
$IIVLW,53527,N,000.0,N*55
$IIVWR,012,L,12.0,N,,,,*7F
$IIDPT,002.6,+0.7,*44
$IIGLL,4612.831,N,00610.249,E,153719,A,A*5B
$IIHDG,028,,,,*5D
$IIMTW,+18.5,C*34
$IIMWV,348,R,11.8,N,A*14
$IIMWV,348,T,12.0,N,A*19
$IIRMC,153719,A,4612.831,N,00610.249,E,00.0,000,270814,,,A*4A
$IIVHW,,,028,M,00.0,N,,*6E
$IIVLW,53527,N,000.0,N*55
$IIVWR,012,L,11.8,N,,,,*74
$IIDPT,002.6,+0.7,*44
$IIGLL,4612.831,N,00610.249,E,153720,A,A*51
$IIHDG,028,,,,*5D
$IIMTW,+18.5,C*34
$IIMWV,348,R,11.9,N,A*15
$IIMWV,348,T,11.8,N,A*12
$IIRMC,153720,A,4612.831,N,00610.249,E,00.0,000,270814,,,A*40
$IIVHW,,,028,M,00.0,N,,*6E
$IIVLW,53527,N,000.0,N*55
$IIVWR,012,L,12.0,N,,,,*7F
$IIDPT,002.6,+0.7,*44
$IIGLL,4612.831,N,00610.249,E,153721,A,A*50
$IIHDG,028,,,,*5D
$IIMTW,+18.5,C*34
$IIMWV,348,R,12.0,N,A*1F
$IIMWV,348,T,11.9,N,A*13
$IIRMC,153721,A,4612.831,N,00610.249,E,00.0,000,270814,,,A*41
$IIVHW,,,028,M,00.0,N,,*6E
$IIVLW,53527,N,000.0,N*55
$IIVWR,012,L,12.2,N,,,,*7D
$IIDPT,002.6,+0.7,*44
$IIGLL,4612.831,N,00610.249,E,153722,A,A*53
$IIHDG,028,,,,*5D
$IIMTW,+18.5,C*34
$IIMWV,348,R,12.2,N,A*1D
$IIMWV,348,T,12.0,N,A*19
$IIRMC,153722,A,4612.831,N,00610.249,E,00.0,000,270814,,,A*42
$IIVHW,,,028,M,00.0,N,,*6E
$IIVLW,53527,N,000.0,N*55
$IIVWR,012,L,12.2,N,,,,*7D
$IIDPT,002.6,+0.7,*44
$IIGLL,4612.831,N,00610.249,E,153723,A,A*52
$IIHDG,028,,,,*5D
$IIMTW,+18.5,C*34
$IIMWV,348,R,12.2,N,A*1D
$IIMWV,348,T,12.2,N,A*1B
$IIRMC,153724,A,4612.831,N,00610.249,E,00.0,000,270814,,,A*44
$IIVHW,,,028,M,00.0,N,,*6E
$IIVLW,53527,N,000.0,N*55
$IIVWR,011,L,11.9,N,,,,*76
$IIDPT,002.6,+0.7,*44
$IIGLL,4612.831,N,00610.249,E,153724,A,A*55
$IIHDG,028,,,,*5D
$IIMTW,+18.5,C*34
$IIMWV,349,R,11.9,N,A*14
$IIMWV,349,T,11.9,N,A*12
$IIRMC,153725,A,4612.831,N,00610.249,E,00.0,000,270814,,,A*45
$IIVHW,,,028,M,00.0,N,,*6E
$IIVLW,53527,N,000.0,N*55
$IIVWR,010,L,12.0,N,,,,*7D
$IIDPT,002.6,+0.7,*44
$IIGLL,4612.831,N,00610.249,E,153725,A,A*54
$IIHDG,028,,,,*5D
$IIMTW,+18.5,C*34
$IIMWV,351,R,11.7,N,A*13
$IIMWV,350,T,12.0,N,A*10
$IIRMC,153726,A,4612.831,N,00610.249,E,00.0,000,270814,,,A*46
$IIVHW,,,028,M,00.0,N,,*6E
$IIVLW,53527,N,000.0,N*55
$IIVWR,009,L,11.7,N,,,,*71
$IIDPT,002.6,+0.7,*44
$IIGLL,4612.831,N,00610.249,E,153726,A,A*57
$IIHDG,028,,,,*5D
$IIMTW,+18.5,C*34
$IIMWV,350,R,11.5,N,A*10
$IIMWV,351,T,11.7,N,A*15
$IIRMC,153727,A,4612.831,N,00610.249,E,00.0,000,270814,,,A*47
$IIVHW,,,028,M,00.0,N,,*6E
$IIVLW,53527,N,000.0,N*55
$IIVWR,010,L,11.5,N,,,,*7B
$IIDPT,002.6,+0.7,*44
$IIGLL,4612.831,N,00610.249,E,153727,A,A*56
$IIHDG,027,,,,*52
$IIMTW,+18.5,C*34
$IIMWV,350,R,11.8,N,A*1D
$IIMWV,350,T,11.5,N,A*16
$IIRMC,153728,A,4612.831,N,00610.249,E,00.0,000,270814,,,A*48
$IIVHW,,,027,M,00.0,N,,*61
$IIVLW,53527,N,000.0,N*55
$IIVWR,010,L,11.8,N,,,,*76
$IIDPT,002.6,+0.7,*44
$IIGLL,4612.831,N,00610.249,E,153729,A,A*58
$IIHDG,028,,,,*5D
$IIMTW,+18.5,C*34
$IIMWV,348,R,11.5,N,A*19
$IIMWV,350,T,11.8,N,A*1B
$IIRMC,153729,A,4612.831,N,00610.249,E,00.0,000,270814,,,A*49
$IIVHW,,,028,M,00.0,N,,*6E
$IIVLW,53527,N,000.0,N*55
$IIVWR,012,L,11.5,N,,,,*79
$IIDPT,002.6,+0.7,*44
$IIGLL,4612.831,N,00610.249,E,153730,A,A*50
$IIHDG,028,,,,*5D
$IIMTW,+18.5,C*34
$IIMWV,347,R,11.8,N,A*1B
$IIMWV,348,T,11.5,N,A*1F
$IIRMC,153730,A,4612.831,N,00610.249,E,00.0,000,270814,,,A*41
$IIVHW,,,028,M,00.0,N,,*6E
$IIVLW,53527,N,000.0,N*55
$IIVWR,012,L,11.9,N,,,,*75
$IIDPT,002.6,+0.7,*44
$IIGLL,4612.831,N,00610.249,E,153731,A,A*51
$IIHDG,028,,,,*5D
$IIMTW,+18.5,C*34
$IIMWV,348,R,11.9,N,A*15
$IIMWV,347,T,11.8,N,A*1D
$IIRMC,153731,A,4612.831,N,00610.249,E,00.0,000,270814,,,A*40
$IIVHW,,,028,M,00.0,N,,*6E
$IIVLW,53527,N,000.0,N*55
$IIVWR,012,L,11.8,N,,,,*74
$IIDPT,002.6,+0.7,*44
$IIGLL,4612.831,N,00610.249,E,153732,A,A*52
$IIHDG,028,,,,*5D
$IIMTW,+18.5,C*34
$IIMWV,348,R,11.8,N,A*14
$IIMWV,348,T,11.9,N,A*13
$IIRMC,153732,A,4612.831,N,00610.249,E,00.0,000,270814,,,A*43
$IIVHW,,,028,M,00.0,N,,*6E
$IIVLW,53527,N,000.0,N*55
$IIVWR,013,L,11.9,N,,,,*74
$IIDPT,002.6,+0.7,*44
$IIGLL,4612.831,N,00610.249,E,153733,A,A*53
$IIHDG,028,,,,*5D
$IIMTW,+18.5,C*34
$IIMWV,347,R,11.9,N,A*1A
$IIMWV,348,T,11.8,N,A*12
$IIRMC,153734,A,4612.831,N,00610.249,E,00.0,000,270814,,,A*45
$IIVHW,,,028,M,00.0,N,,*6E
$IIVLW,53527,N,000.0,N*55
$IIVWR,012,L,12.4,N,,,,*7B
$IIDPT,002.6,+0.7,*44
$IIGLL,4612.831,N,00610.249,E,153734,A,A*54
$IIHDG,028,,,,*5D
$IIMTW,+18.5,C*34
$IIMWV,348,R,12.4,N,A*1B
$IIMWV,348,T,12.4,N,A*1D
$IIRMC,153735,A,4612.831,N,00610.249,E,00.0,000,270814,,,A*44
$IIVHW,,,028,M,00.0,N,,*6E
$IIVLW,53527,N,000.0,N*55
$IIVWR,012,L,12.6,N,,,,*79
$IIDPT,002.6,+0.7,*44
$IIGLL,4612.831,N,00610.249,E,153735,A,A*55
$IIHDG,028,,,,*5D
$IIMTW,+18.5,C*34
$IIMWV,348,R,12.4,N,A*1B
$IIMWV,348,T,12.6,N,A*1F
$IIRMC,153736,A,4612.831,N,00610.249,E,00.0,000,270814,,,A*47
$IIVHW,,,028,M,00.0,N,,*6E
$IIVLW,53527,N,000.0,N*55
$IIVWR,012,L,12.4,N,,,,*7B
$IIDPT,002.6,+0.7,*44
$IIGLL,4612.831,N,00610.249,E,153736,A,A*56
$IIHDG,028,,,,*5D
$IIMTW,+18.5,C*34
$IIMWV,348,R,12.4,N,A*1B
$IIMWV,348,T,12.4,N,A*1D
$IIRMC,153737,A,4612.831,N,00610.249,E,00.0,000,270814,,,A*46
$IIVHW,,,028,M,00.0,N,,*6E
$IIVLW,53527,N,000.0,N*55
$IIVWR,012,L,12.4,N,,,,*7B
$IIDPT,002.6,+0.7,*44
$IIGLL,4612.831,N,00610.249,E,153737,A,A*57
$IIHDG,028,,,,*5D
$IIMTW,+18.5,C*34
$IIMWV,349,R,12.3,N,A*1D
$IIMWV,348,T,12.4,N,A*1D
$IIRMC,153738,A,4612.831,N,00610.249,E,00.0,000,270814,,,A*49
$IIVHW,,,028,M,00.0,N,,*6E
$IIVLW,53527,N,000.0,N*55
$IIVWR,011,L,12.3,N,,,,*7F
$IIDPT,002.6,+0.7,*44
$IIGLL,4612.831,N,00610.249,E,153739,A,A*59
$IIHDG,028,,,,*5D
$IIMTW,+18.5,C*34
$IIMWV,350,R,11.9,N,A*1C
$IIMWV,349,T,12.3,N,A*1B
$IIRMC,153739,A,4612.831,N,00610.249,E,00.0,000,270814,,,A*48
$IIVHW,,,028,M,00.0,N,,*6E
$IIVLW,53527,N,000.0,N*55
$IIVWR,010,L,11.9,N,,,,*77
$IIDPT,002.6,+0.7,*44
$IIGLL,4612.831,N,00610.249,E,153740,A,A*57
$IIHDG,029,,,,*5C
$IIMTW,+18.5,C*34
$IIMWV,349,R,12.0,N,A*1E
$IIMWV,350,T,11.9,N,A*1A
$IIRMC,153740,A,4612.831,N,00610.249,E,00.0,000,270814,,,A*46
$IIVHW,,,029,M,00.0,N,,*6F
$IIVLW,53527,N,000.0,N*55
$IIVWR,013,L,12.2,N,,,,*7C
$IIDPT,002.6,+0.7,*44
$IIGLL,4612.831,N,00610.249,E,153741,A,A*56
$IIHDG,028,,,,*5D
$IIMTW,+18.5,C*34
$IIMWV,347,R,12.2,N,A*12
$IIMWV,349,T,12.0,N,A*18
$IIRMC,153741,A,4612.831,N,00610.249,E,00.0,000,270814,,,A*47
$IIVHW,,,028,M,00.0,N,,*6E
$IIVLW,53527,N,000.0,N*55
$IIVWR,013,L,12.3,N,,,,*7D
$IIDPT,002.6,+0.7,*44
$IIGLL,4612.831,N,00610.249,E,153742,A,A*55
$IIHDG,027,,,,*52
$IIMTW,+18.5,C*34
$IIMWV,347,R,12.3,N,A*13
$IIMWV,347,T,12.2,N,A*14
$IIRMC,153742,A,4612.831,N,00610.249,E,00.0,000,270814,,,A*44
$IIVHW,,,028,M,00.0,N,,*6E
$IIVLW,53527,N,000.0,N*55
$IIVWR,012,L,12.3,N,,,,*7C
$IIDPT,002.6,+0.7,*44
$IIGLL,4612.831,N,00610.249,E,153743,A,A*54
$IIHDG,028,,,,*5D
$IIMTW,+18.5,C*34
$IIMWV,348,R,12.3,N,A*1C
$IIMWV,347,T,12.3,N,A*15
$IIRMC,153744,A,4612.831,N,00610.249,E,00.0,000,270814,,,A*42
$IIVHW,,,028,M,00.0,N,,*6E
$IIVLW,53527,N,000.0,N*55
$IIVWR,013,L,12.3,N,,,,*7D
$IIDPT,002.6,+0.7,*44
$IIGLL,4612.831,N,00610.249,E,153744,A,A*53
$IIHDG,028,,,,*5D
$IIMTW,+18.5,C*34
$IIMWV,347,R,12.3,N,A*13
$IIMWV,347,T,12.3,N,A*15
$IIRMC,153745,A,4612.831,N,00610.249,E,00.0,000,270814,,,A*43
$IIVHW,,,028,M,00.0,N,,*6E
$IIVLW,53527,N,000.0,N*55
$IIVWR,014,L,12.2,N,,,,*7B
$IIDPT,002.6,+0.7,*44
$IIGLL,4612.831,N,00610.249,E,153745,A,A*52
$IIHDG,028,,,,*5D
$IIMTW,+18.5,C*34
$IIMWV,346,R,12.2,N,A*13
$IIMWV,346,T,12.2,N,A*15
$IIRMC,153746,A,4612.831,N,00610.249,E,00.0,000,270814,,,A*40
$IIVHW,,,028,M,00.0,N,,*6E
$IIVLW,53527,N,000.0,N*55
$IIVWR,014,L,12.2,N,,,,*7B
$IIDPT,002.6,+0.7,*44
$IIGLL,4612.831,N,00610.249,E,153746,A,A*51
$IIHDG,028,,,,*5D
$IIMTW,+18.5,C*34
$IIMWV,347,R,12.2,N,A*12
$IIMWV,346,T,12.2,N,A*15
$IIRMC,153747,A,4612.831,N,00610.249,E,00.0,000,270814,,,A*41
$IIVHW,,,028,M,00.0,N,,*6E
$IIVLW,53527,N,000.0,N*55
$IIVWR,013,L,12.2,N,,,,*7C
$IIDPT,002.6,+0.7,*44
$IIGLL,4612.831,N,00610.249,E,153747,A,A*50
$IIHDG,028,,,,*5D
$IIMTW,+18.5,C*34
$IIMWV,347,R,12.2,N,A*12
$IIMWV,347,T,12.2,N,A*14
$IIRMC,153748,A,4612.831,N,00610.249,E,00.0,000,270814,,,A*4E
$IIVHW,,,028,M,00.0,N,,*6E
$IIVLW,53527,N,000.0,N*55
$IIVWR,013,L,12.2,N,,,,*7C
$IIDPT,002.6,+0.7,*44
$IIGLL,4612.831,N,00610.249,E,153748,A,A*5F
$IIHDG,028,,,,*5D
$IIMTW,+18.5,C*34
$IIMWV,346,R,12.2,N,A*13
$IIMWV,347,T,12.2,N,A*14
$IIRMC,153748,A,4612.831,N,00610.249,E,00.0,000,270814,,,A*4E
$IIVHW,,,028,M,00.0,N,,*6E
$IIVLW,53527,N,000.0,N*55
$IIVWR,014,L,12.2,N,,,,*7B
$IIDPT,002.6,+0.7,*44
$IIGLL,4612.831,N,00610.249,E,153750,A,A*56
$IIHDG,029,,,,*5C
$IIMTW,+18.5,C*34
$IIMWV,344,R,12.3,N,A*10
$IIMWV,346,T,12.2,N,A*15
$IIRMC,153750,A,4612.831,N,00610.249,E,00.0,000,270814,,,A*47
$IIVHW,,,029,M,00.0,N,,*6F
$IIVLW,53527,N,000.0,N*55
$IIVWR,015,L,12.3,N,,,,*7B
$IIDPT,002.6,+0.7,*44
$IIGLL,4612.831,N,00610.249,E,153751,A,A*57
$IIHDG,028,,,,*5D
$IIMTW,+18.5,C*34
$IIMWV,345,R,12.3,N,A*11
$IIMWV,344,T,12.3,N,A*16
$IIRMC,153751,A,4612.831,N,00610.249,E,00.0,000,270814,,,A*46
$IIVHW,,,028,M,00.0,N,,*6E
$IIVLW,53527,N,000.0,N*55
$IIVWR,013,L,12.3,N,,,,*7D
$IIDPT,002.6,+0.7,*44
$IIGLL,4612.831,N,00610.249,E,153752,A,A*54
$IIHDG,028,,,,*5D
$IIMTW,+18.5,C*34
$IIMWV,347,R,12.3,N,A*13
$IIMWV,345,T,12.3,N,A*17
$IIRMC,153752,A,4612.831,N,00610.249,E,00.0,000,270814,,,A*45
$IIVHW,,,028,M,00.0,N,,*6E
$IIVLW,53527,N,000.0,N*55
$IIVWR,014,L,11.9,N,,,,*73
$IIDPT,002.6,+0.7,*44
$IIGLL,4612.831,N,00610.249,E,153753,A,A*55
$IIHDG,028,,,,*5D
$IIMTW,+18.5,C*34
$IIMWV,346,R,11.9,N,A*1B
$IIMWV,347,T,12.3,N,A*15
$IIRMC,153754,A,4612.831,N,00610.249,E,00.0,000,270814,,,A*43
$IIVHW,,,028,M,00.0,N,,*6E
$IIVLW,53527,N,000.0,N*55
$IIVWR,015,L,12.0,N,,,,*78
$IIDPT,002.6,+0.7,*44
$IIGLL,4612.831,N,00610.249,E,153754,A,A*52
$IIHDG,028,,,,*5D
$IIMTW,+18.5,C*34
$IIMWV,345,R,12.0,N,A*12
$IIMWV,345,T,12.0,N,A*14
$IIRMC,153755,A,4612.831,N,00610.249,E,00.0,000,270814,,,A*42
$IIVHW,,,028,M,00.0,N,,*6E
$IIVLW,53527,N,000.0,N*55
$IIVWR,015,L,12.2,N,,,,*7A
$IIDPT,002.6,+0.7,*44
$IIGLL,4612.831,N,00610.249,E,153755,A,A*53
$IIHDG,028,,,,*5D
$IIMTW,+18.5,C*34
$IIMWV,345,R,12.2,N,A*10
$IIMWV,345,T,12.2,N,A*16
$IIRMC,153756,A,4612.831,N,00610.249,E,00.0,000,270814,,,A*41
$IIVHW,,,028,M,00.0,N,,*6E
$IIVLW,53527,N,000.0,N*55
$IIVWR,015,L,12.2,N,,,,*7A
$IIDPT,002.6,+0.7,*44
$IIGLL,4612.831,N,00610.249,E,153756,A,A*50
$IIHDG,028,,,,*5D
$IIMTW,+18.5,C*34
$IIMWV,345,R,12.3,N,A*11
$IIMWV,345,T,12.2,N,A*16
$IIRMC,153757,A,4612.831,N,00610.249,E,00.0,000,270814,,,A*40
$IIVHW,,,028,M,00.0,N,,*6E
$IIVLW,53527,N,000.0,N*55
$IIVWR,015,L,12.3,N,,,,*7B
$IIDPT,002.6,+0.7,*44
$IIGLL,4612.831,N,00610.249,E,153757,A,A*51
$IIHDG,028,,,,*5D
$IIMTW,+18.5,C*34
$IIMWV,345,R,11.9,N,A*18
$IIMWV,345,T,12.3,N,A*17
$IIRMC,153758,A,4612.831,N,00610.249,E,00.0,000,270814,,,A*4F
$IIVHW,,,028,M,00.0,N,,*6E
$IIVLW,53527,N,000.0,N*55
$IIVWR,015,L,11.9,N,,,,*72
$IIDPT,002.6,+0.7,*44
$IIGLL,4612.831,N,00610.249,E,153759,A,A*5F
$IIHDG,028,,,,*5D
$IIMTW,+18.5,C*34
$IIMWV,345,R,12.0,N,A*12
$IIMWV,345,T,11.9,N,A*1E
$IIRMC,153759,A,4612.831,N,00610.249,E,00.0,000,270814,,,A*4E
$IIVHW,,,028,M,00.0,N,,*6E
$IIVLW,53527,N,000.0,N*55
$IIVWR,015,L,12.0,N,,,,*78
$IIDPT,002.6,+0.7,*44
$IIGLL,4612.831,N,00610.249,E,153800,A,A*5C
$IIHDG,028,,,,*5D
$IIMTW,+18.5,C*34
$IIMWV,345,R,11.7,N,A*16
$IIMWV,345,T,12.0,N,A*14
$IIRMC,153800,A,4612.831,N,00610.249,E,00.0,000,270814,,,A*4D
$IIVHW,,,028,M,00.0,N,,*6E
$IIVLW,53527,N,000.0,N*55
$IIVWR,016,L,11.9,N,,,,*71
$IIDPT,002.6,+0.7,*44
$IIGLL,4612.831,N,00610.249,E,153801,A,A*5D
$IIHDG,028,,,,*5D
$IIMTW,+18.5,C*34
$IIMWV,344,R,11.9,N,A*19
$IIMWV,345,T,11.7,N,A*10
$IIRMC,153801,A,4612.831,N,00610.249,E,00.0,000,270814,,,A*4C
$IIVHW,,,028,M,00.0,N,,*6E
$IIVLW,53527,N,000.0,N*55
$IIVWR,015,L,12.0,N,,,,*78
$IIDPT,002.6,+0.7,*44
$IIGLL,4612.831,N,00610.249,E,153802,A,A*5E
$IIHDG,028,,,,*5D
$IIMTW,+18.5,C*34
$IIMWV,345,R,12.0,N,A*12
$IIMWV,344,T,11.9,N,A*1F
$IIRMC,153802,A,4612.831,N,00610.249,E,00.0,000,270814,,,A*4F
$IIVHW,,,028,M,00.0,N,,*6E
$IIVLW,53527,N,000.0,N*55
$IIVWR,015,L,12.2,N,,,,*7A
$IIDPT,002.6,+0.7,*44
$IIGLL,4612.831,N,00610.249,E,153803,A,A*5F
$IIHDG,028,,,,*5D
$IIMTW,+18.5,C*34
$IIMWV,345,R,12.2,N,A*10
$IIMWV,345,T,12.0,N,A*14
$IIRMC,153804,A,4612.831,N,00610.249,E,00.0,000,270814,,,A*49
$IIVHW,,,028,M,00.0,N,,*6E
$IIVLW,53527,N,000.0,N*55
$IIVWR,013,L,12.2,N,,,,*7C
$IIDPT,002.6,+0.7,*44
$IIGLL,4612.831,N,00610.249,E,153804,A,A*58
$IIHDG,028,,,,*5D
$IIMTW,+18.5,C*34
$IIMWV,347,R,12.2,N,A*12
$IIMWV,347,T,12.2,N,A*14
$IIRMC,153805,A,4612.831,N,00610.249,E,00.0,000,270814,,,A*48
$IIVHW,,,028,M,00.0,N,,*6E
$IIVLW,53527,N,000.0,N*55
$IIVWR,012,L,12.2,N,,,,*7D
$IIDPT,002.6,+0.7,*44
$IIGLL,4612.831,N,00610.249,E,153805,A,A*59
$IIHDG,028,,,,*5D
$IIMTW,+18.5,C*34
$IIMWV,345,R,12.3,N,A*11
$IIMWV,348,T,12.2,N,A*1B
$IIRMC,153806,A,4612.831,N,00610.249,E,00.0,000,270814,,,A*4B
$IIVHW,,,028,M,00.0,N,,*6E
$IIVLW,53527,N,000.0,N*55
$IIVWR,015,L,12.3,N,,,,*7B
$IIDPT,002.6,+0.7,*44
$IIGLL,4612.831,N,00610.249,E,153806,A,A*5A
$IIHDG,028,,,,*5D
$IIMTW,+18.5,C*34
$IIMWV,344,R,12.3,N,A*10
$IIMWV,345,T,12.3,N,A*17
$IIRMC,153807,A,4612.831,N,00610.249,E,00.0,000,270814,,,A*4A
$IIVHW,,,028,M,00.0,N,,*6E
$IIVLW,53527,N,000.0,N*55
$IIVWR,016,L,12.3,N,,,,*78
$IIDPT,002.6,+0.7,*44
$IIGLL,4612.831,N,00610.249,E,153807,A,A*5B
$IIHDG,027,,,,*52
$IIMTW,+18.5,C*34
$IIMWV,348,R,12.3,N,A*1C
$IIMWV,344,T,12.3,N,A*16
$IIRMC,153808,A,4612.831,N,00610.249,E,00.0,000,270814,,,A*45
$IIVHW,,,027,M,00.0,N,,*61
$IIVLW,53527,N,000.0,N*55
$IIVWR,012,L,12.3,N,,,,*7C
$IIDPT,002.6,+0.7,*44
$IIGLL,4612.831,N,00610.249,E,153809,A,A*55
$IIHDG,028,,,,*5D
$IIMTW,+18.5,C*34
$IIMWV,348,R,12.3,N,A*1C
$IIMWV,348,T,12.3,N,A*1A
$IIRMC,153809,A,4612.831,N,00610.249,E,00.0,000,270814,,,A*44
$IIVHW,,,028,M,00.0,N,,*6E
$IIVLW,53527,N,000.0,N*55
$IIVWR,012,L,12.3,N,,,,*7C
$IIDPT,002.6,+0.7,*44
$IIGLL,4612.831,N,00610.249,E,153810,A,A*5D
$IIHDG,028,,,,*5D
$IIMTW,+18.5,C*34
$IIMWV,345,R,12.3,N,A*11
$IIMWV,348,T,12.3,N,A*1A
$IIRMC,153810,A,4612.831,N,00610.249,E,00.0,000,270814,,,A*4C
$IIVHW,,,028,M,00.0,N,,*6E
$IIVLW,53527,N,000.0,N*55
$IIVWR,015,L,12.3,N,,,,*7B
$IIDPT,002.6,+0.7,*44
$IIGLL,4612.831,N,00610.249,E,153811,A,A*5C
$IIHDG,027,,,,*52
$IIMTW,+18.5,C*34
$IIMWV,345,R,12.3,N,A*11
$IIMWV,345,T,12.3,N,A*17
$IIRMC,153811,A,4612.831,N,00610.249,E,00.0,000,270814,,,A*4D
$IIVHW,,,027,M,00.0,N,,*61
$IIVLW,53527,N,000.0,N*55
$IIVWR,012,L,12.6,N,,,,*79
$IIDPT,002.6,+0.7,*44
$IIGLL,4612.831,N,00610.249,E,153812,A,A*5F
$IIHDG,028,,,,*5D
$IIMTW,+18.5,C*34
$IIMWV,348,R,12.6,N,A*19
$IIMWV,345,T,12.3,N,A*17
$IIRMC,153812,A,4612.831,N,00610.249,E,00.0,000,270814,,,A*4E
$IIVHW,,,029,M,00.0,N,,*6F
$IIVLW,53527,N,000.0,N*55
$IIVWR,012,L,12.6,N,,,,*79
$IIDPT,002.6,+0.7,*44
$IIGLL,4612.831,N,00610.249,E,153813,A,A*5E
$IIHDG,029,,,,*5C
$IIMTW,+18.5,C*34
$IIMWV,348,R,12.6,N,A*19
$IIMWV,348,T,12.6,N,A*1F
$IIRMC,153814,A,4612.831,N,00610.249,E,00.0,000,270814,,,A*48
$IIVHW,,,029,M,00.0,N,,*6F
$IIVLW,53527,N,000.0,N*55
$IIVWR,015,L,12.4,N,,,,*7C
$IIDPT,002.6,+0.7,*44
$IIGLL,4612.831,N,00610.249,E,153814,A,A*59
$IIHDG,029,,,,*5C
$IIMTW,+18.5,C*34
$IIMWV,345,R,12.4,N,A*16
$IIMWV,345,T,12.4,N,A*10
$IIRMC,153815,A,4612.831,N,00610.249,E,00.0,000,270814,,,A*49
$IIVHW,,,028,M,00.0,N,,*6E
$IIVLW,53527,N,000.0,N*55
$IIVWR,015,L,12.6,N,,,,*7E
$IIDPT,002.6,+0.7,*44
$IIGLL,4612.831,N,00610.249,E,153815,A,A*58
$IIHDG,028,,,,*5D
$IIMTW,+18.5,C*34
$IIMWV,345,R,12.4,N,A*16
$IIMWV,345,T,12.6,N,A*12
$IIRMC,153816,A,4612.831,N,00610.249,E,00.0,000,270814,,,A*4A
$IIVHW,,,028,M,00.0,N,,*6E
$IIVLW,53527,N,000.0,N*55
$IIVWR,015,L,12.4,N,,,,*7C
$IIDPT,002.6,+0.7,*44
$IIGLL,4612.831,N,00610.249,E,153816,A,A*5B
$IIHDG,028,,,,*5D
$IIMTW,+18.5,C*34
$IIMWV,344,R,12.2,N,A*11
$IIMWV,345,T,12.4,N,A*10
$IIRMC,153817,A,4612.831,N,00610.249,E,00.0,000,270814,,,A*4B
$IIVHW,,,028,M,00.0,N,,*6E
$IIVLW,53527,N,000.0,N*55
$IIVWR,016,L,12.2,N,,,,*79
$IIDPT,002.6,+0.7,*44
$IIGLL,4612.831,N,00610.249,E,153817,A,A*5A
$IIHDG,028,,,,*5D
$IIMTW,+18.5,C*34
$IIMWV,343,R,12.2,N,A*16
$IIMWV,344,T,12.2,N,A*17
$IIRMC,153818,A,4612.831,N,00610.249,E,00.0,000,270814,,,A*44
$IIVHW,,,028,M,00.0,N,,*6E
$IIVLW,53527,N,000.0,N*55
$IIVWR,017,L,12.2,N,,,,*78
$IIDPT,002.6,+0.7,*44
$IIGLL,4612.830,N,00610.249,E,153820,A,A*5F
$IIHDG,028,,,,*5D
$IIMTW,+18.5,C*34
$IIMWV,344,R,12.2,N,A*11
$IIMWV,343,T,12.2,N,A*10
$IIRMC,153820,A,4612.830,N,00610.249,E,00.0,000,270814,,,A*4E
$IIVHW,,,028,M,00.0,N,,*6E
$IIVLW,53527,N,000.0,N*55
$IIVWR,016,L,12.2,N,,,,*79
$IIDPT,002.6,+0.7,*44
$IIGLL,4612.830,N,00610.249,E,153821,A,A*5E
$IIHDG,028,,,,*5D
$IIMTW,+18.5,C*34
$IIMWV,344,R,11.9,N,A*19
$IIMWV,344,T,12.2,N,A*17
$IIRMC,153821,A,4612.830,N,00610.249,E,00.0,000,270814,,,A*4F
$IIVHW,,,028,M,00.0,N,,*6E
$IIVLW,53527,N,000.0,N*55
$IIVWR,016,L,12.0,N,,,,*7B
$IIDPT,002.6,+0.7,*44
$IIGLL,4612.830,N,00610.249,E,153822,A,A*5D
$IIHDG,028,,,,*5D
$IIMTW,+18.5,C*34
$IIMWV,344,R,12.0,N,A*13
$IIMWV,344,T,11.9,N,A*1F
$IIRMC,153822,A,4612.830,N,00610.249,E,00.0,000,270814,,,A*4C
$IIVHW,,,028,M,00.0,N,,*6E
$IIVLW,53527,N,000.0,N*55
$IIVWR,016,L,11.8,N,,,,*70
$IIDPT,002.6,+0.7,*44
$IIGLL,4612.830,N,00610.249,E,153823,A,A*5C
$IIHDG,028,,,,*5D
$IIMTW,+18.5,C*34
$IIMWV,344,R,11.8,N,A*18
$IIMWV,344,T,12.0,N,A*15
$IIRMC,153823,A,4612.830,N,00610.249,E,00.0,000,270814,,,A*4D
$IIVHW,,,027,M,00.0,N,,*61
$IIVLW,53527,N,000.0,N*55
$IIVWR,015,L,11.9,N,,,,*72
$IIDPT,002.6,+0.7,*44
$IIGLL,4612.830,N,00610.249,E,153824,A,A*5B
$IIHDG,027,,,,*52
$IIMTW,+18.5,C*34
$IIMWV,345,R,11.9,N,A*18
$IIMWV,344,T,11.8,N,A*1E
$IIRMC,153825,A,4612.830,N,00610.249,E,00.0,000,270814,,,A*4B
$IIVHW,,,028,M,00.0,N,,*6E
$IIVLW,53527,N,000.0,N*55
$IIVWR,015,L,12.0,N,,,,*78
$IIDPT,002.6,+0.7,*44
$IIGLL,4612.830,N,00610.249,E,153825,A,A*5A
$IIHDG,028,,,,*5D
$IIMTW,+18.5,C*34
$IIMWV,345,R,12.0,N,A*12
$IIMWV,345,T,12.0,N,A*14
$IIRMC,153826,A,4612.830,N,00610.249,E,00.0,000,270814,,,A*48
$IIVHW,,,028,M,00.0,N,,*6E
$IIVLW,53527,N,000.0,N*55
$IIVWR,016,L,12.2,N,,,,*79
$IIDPT,002.6,+0.7,*44
$IIGLL,4612.830,N,00610.249,E,153826,A,A*59
$IIHDG,028,,,,*5D
$IIMTW,+18.5,C*34
$IIMWV,344,R,12.2,N,A*11
$IIMWV,344,T,12.2,N,A*17
$IIRMC,153827,A,4612.830,N,00610.249,E,00.0,000,270814,,,A*49
$IIVHW,,,027,M,00.0,N,,*61
$IIVLW,53527,N,000.0,N*55
$IIVWR,016,L,12.2,N,,,,*79
$IIDPT,002.6,+0.7,*44
$IIGLL,4612.830,N,00610.249,E,153827,A,A*58
$IIHDG,027,,,,*52
$IIMTW,+18.5,C*34
$IIMWV,345,R,11.9,N,A*18
$IIMWV,344,T,12.2,N,A*17
$IIRMC,153828,A,4612.830,N,00610.249,E,00.0,000,270814,,,A*46
$IIVHW,,,028,M,00.0,N,,*6E
$IIVLW,53527,N,000.0,N*55
$IIVWR,015,L,11.9,N,,,,*72
$IIDPT,002.6,+0.7,*44
$IIGLL,4612.830,N,00610.249,E,153828,A,A*57
$IIHDG,028,,,,*5D
$IIMTW,+18.5,C*34
$IIMWV,346,R,12.0,N,A*11
$IIMWV,345,T,11.9,N,A*1E
$IIRMC,153829,A,4612.830,N,00610.249,E,00.0,000,270814,,,A*47
$IIVHW,,,028,M,00.0,N,,*6E
$IIVLW,53527,N,000.0,N*55
$IIVWR,014,L,12.0,N,,,,*79
$IIDPT,002.6,+0.7,*44
$IIGLL,4612.830,N,00610.249,E,153830,A,A*5E
$IIHDG,028,,,,*5D
$IIMTW,+18.5,C*34
$IIMWV,346,R,12.0,N,A*11
$IIMWV,346,T,12.0,N,A*17
$IIRMC,153830,A,4612.830,N,00610.249,E,00.0,000,270814,,,A*4F
$IIVHW,,,028,M,00.0,N,,*6E
$IIVLW,53527,N,000.0,N*55
$IIVWR,014,L,12.0,N,,,,*79
$IIDPT,002.6,+0.7,*44
$IIGLL,4612.830,N,00610.249,E,153831,A,A*5F
$IIHDG,028,,,,*5D
$IIMTW,+18.5,C*34
$IIMWV,348,R,11.9,N,A*15
$IIMWV,346,T,12.0,N,A*17
$IIRMC,153831,A,4612.830,N,00610.249,E,00.0,000,270814,,,A*4E
$IIVHW,,,028,M,00.0,N,,*6E
$IIVLW,53527,N,000.0,N*55
$IIVWR,013,L,12.0,N,,,,*7E
$IIDPT,002.6,+0.7,*44
$IIGLL,4612.830,N,00610.249,E,153832,A,A*5C
$IIHDG,028,,,,*5D
$IIMTW,+18.5,C*34
$IIMWV,347,R,12.0,N,A*10
$IIMWV,348,T,11.9,N,A*13
$IIRMC,153832,A,4612.830,N,00610.249,E,00.0,000,270814,,,A*4D
$IIVHW,,,028,M,00.0,N,,*6E
$IIVLW,53527,N,000.0,N*55
$IIVWR,014,L,12.0,N,,,,*79
$IIDPT,002.6,+0.7,*44
$IIGLL,4612.830,N,00610.249,E,153833,A,A*5D
$IIHDG,027,,,,*52
$IIMTW,+18.5,C*34
$IIMWV,346,R,12.0,N,A*11
$IIMWV,347,T,12.0,N,A*16
$IIRMC,153833,A,4612.830,N,00610.249,E,00.0,000,270814,,,A*4C
$IIVHW,,,028,M,00.0,N,,*6E
$IIVLW,53527,N,000.0,N*55
$IIVWR,014,L,12.0,N,,,,*79
$IIDPT,002.6,+0.7,*44
$IIGLL,4612.830,N,00610.249,E,153834,A,A*5A
$IIHDG,028,,,,*5D
$IIMTW,+18.5,C*34
$IIMWV,346,R,12.0,N,A*11
$IIMWV,346,T,12.0,N,A*17
$IIRMC,153835,A,4612.830,N,00610.249,E,00.0,000,270814,,,A*4A
$IIVHW,,,028,M,00.0,N,,*6E
$IIVLW,53527,N,000.0,N*55
$IIVWR,014,L,12.2,N,,,,*7B
$IIDPT,002.6,+0.7,*44
$IIGLL,4612.830,N,00610.249,E,153835,A,A*5B
$IIHDG,028,,,,*5D
$IIMTW,+18.5,C*34
$IIMWV,346,R,12.2,N,A*13
$IIMWV,346,T,12.2,N,A*15
$IIRMC,153836,A,4612.830,N,00610.249,E,00.0,000,270814,,,A*49
$IIVHW,,,028,M,00.0,N,,*6E
$IIVLW,53527,N,000.0,N*55
$IIVWR,014,L,11.9,N,,,,*73
$IIDPT,002.6,+0.7,*44
$IIGLL,4612.830,N,00610.249,E,153836,A,A*58
$IIHDG,028,,,,*5D
$IIMTW,+18.5,C*34
$IIMWV,346,R,12.0,N,A*11
$IIMWV,346,T,11.9,N,A*1D
$IIRMC,153837,A,4612.830,N,00610.249,E,00.0,000,270814,,,A*48
$IIVHW,,,028,M,00.0,N,,*6E
$IIVLW,53527,N,000.0,N*55
$IIVWR,014,L,12.0,N,,,,*79
$IIDPT,002.6,+0.7,*44
$IIGLL,4612.830,N,00610.249,E,153837,A,A*59
$IIHDG,028,,,,*5D
$IIMTW,+18.5,C*34
$IIMWV,346,R,12.0,N,A*11
$IIMWV,346,T,12.0,N,A*17
$IIRMC,153838,A,4612.830,N,00610.249,E,00.0,000,270814,,,A*47
$IIVHW,,,028,M,00.0,N,,*6E
$IIVLW,53527,N,000.0,N*55
$IIVWR,014,L,12.0,N,,,,*79
$IIDPT,002.6,+0.7,*44
$IIGLL,4612.830,N,00610.249,E,153838,A,A*56
$IIHDG,028,,,,*5D
$IIMTW,+18.5,C*34
$IIMWV,346,R,12.0,N,A*11
$IIMWV,346,T,12.0,N,A*17
$IIRMC,153839,A,4612.830,N,00610.249,E,00.0,000,270814,,,A*46
$IIVHW,,,028,M,00.0,N,,*6E
$IIVLW,53527,N,000.0,N*55
$IIVWR,014,L,12.0,N,,,,*79
$IIDPT,002.6,+0.7,*44
$IIGLL,4612.830,N,00610.249,E,153839,A,A*57
$IIHDG,028,,,,*5D
$IIMTW,+18.5,C*34
$IIMWV,345,R,12.4,N,A*16
$IIMWV,346,T,12.0,N,A*17
$IIRMC,153839,A,4612.830,N,00610.249,E,00.0,000,270814,,,A*46
$IIVHW,,,028,M,00.0,N,,*6E
$IIVLW,53527,N,000.0,N*55
$IIVWR,015,L,12.4,N,,,,*7C
$IIDPT,002.6,+0.7,*44
$IIGLL,4612.830,N,00610.249,E,153841,A,A*58
$IIHDG,028,,,,*5D
$IIMTW,+18.5,C*34
$IIMWV,346,R,12.4,N,A*15
$IIMWV,345,T,12.4,N,A*10
$IIRMC,153841,A,4612.830,N,00610.249,E,00.0,000,270814,,,A*49
$IIVHW,,,028,M,00.0,N,,*6E
$IIVLW,53527,N,000.0,N*55
$IIVWR,015,L,12.4,N,,,,*7C
$IIDPT,002.6,+0.7,*44
$IIGLL,4612.830,N,00610.249,E,153842,A,A*5B
$IIHDG,028,,,,*5D
$IIMTW,+18.5,C*34
$IIMWV,345,R,12.4,N,A*16
$IIMWV,346,T,12.4,N,A*13
$IIRMC,153842,A,4612.830,N,00610.249,E,00.0,000,270814,,,A*4A
$IIVHW,,,028,M,00.0,N,,*6E
$IIVLW,53527,N,000.0,N*55
$IIVWR,016,L,12.0,N,,,,*7B
$IIDPT,002.6,+0.7,*44
$IIGLL,4612.830,N,00610.249,E,153843,A,A*5A
$IIHDG,028,,,,*5D
$IIMTW,+18.5,C*34
$IIMWV,344,R,12.0,N,A*13
$IIMWV,345,T,12.4,N,A*10
$IIRMC,153843,A,4612.830,N,00610.249,E,00.0,000,270814,,,A*4B
$IIVHW,,,028,M,00.0,N,,*6E
$IIVLW,53527,N,000.0,N*55
$IIVWR,016,L,12.2,N,,,,*79
$IIDPT,002.6,+0.7,*44
$IIGLL,4612.830,N,00610.249,E,153844,A,A*5D
$IIHDG,028,,,,*5D
$IIMTW,+18.5,C*34
$IIMWV,344,R,12.2,N,A*11
$IIMWV,344,T,12.0,N,A*15
$IIRMC,153845,A,4612.830,N,00610.249,E,00.0,000,270814,,,A*4D
$IIVHW,,,028,M,00.0,N,,*6E
$IIVLW,53527,N,000.0,N*55
$IIVWR,016,L,12.2,N,,,,*79
$IIDPT,002.6,+0.7,*44
$IIGLL,4612.830,N,00610.249,E,153845,A,A*5C
$IIHDG,028,,,,*5D
$IIMTW,+18.5,C*34
$IIMWV,344,R,12.2,N,A*11
$IIMWV,344,T,12.2,N,A*17
$IIRMC,153846,A,4612.830,N,00610.249,E,00.0,000,270814,,,A*4E
$IIVHW,,,027,M,00.0,N,,*61
$IIVLW,53527,N,000.0,N*55
$IIVWR,015,L,12.2,N,,,,*7A
$IIDPT,002.6,+0.7,*44
$IIGLL,4612.830,N,00610.249,E,153846,A,A*5F
$IIHDG,027,,,,*52
$IIMTW,+18.5,C*34
$IIMWV,344,R,12.2,N,A*11
$IIMWV,345,T,12.2,N,A*16
$IIRMC,153847,A,4612.830,N,00610.249,E,00.0,000,270814,,,A*4F
$IIVHW,,,027,M,00.0,N,,*61
$IIVLW,53527,N,000.0,N*55
$IIVWR,016,L,12.2,N,,,,*79
$IIDPT,002.6,+0.7,*44
$IIGLL,4612.830,N,00610.249,E,153847,A,A*5E
$IIHDG,027,,,,*52
$IIMTW,+18.5,C*34
$IIMWV,343,R,12.3,N,A*17
$IIMWV,344,T,12.2,N,A*17
$IIRMC,153848,A,4612.830,N,00610.249,E,00.0,000,270814,,,A*40
$IIVHW,,,028,M,00.0,N,,*6E
$IIVLW,53527,N,000.0,N*55
$IIVWR,017,L,12.3,N,,,,*79
$IIDPT,002.6,+0.7,*44
$IIGLL,4612.830,N,00610.249,E,153848,A,A*51
$IIHDG,028,,,,*5D
$IIMTW,+18.5,C*34
$IIMWV,342,R,11.9,N,A*1F
$IIMWV,343,T,12.3,N,A*11
$IIRMC,153849,A,4612.830,N,00610.249,E,00.0,000,270814,,,A*41
$IIVHW,,,028,M,00.0,N,,*6E
$IIVLW,53527,N,000.0,N*55
$IIVWR,018,L,11.9,N,,,,*7F
$IIDPT,002.6,+0.7,*44
$IIGLL,4612.830,N,00610.249,E,153850,A,A*58
$IIHDG,027,,,,*52
$IIMTW,+18.5,C*34
$IIMWV,342,R,12.0,N,A*15
$IIMWV,342,T,11.9,N,A*19
$IIRMC,153850,A,4612.830,N,00610.249,E,00.0,000,270814,,,A*49
$IIVHW,,,027,M,00.0,N,,*61
$IIVLW,53527,N,000.0,N*55
$IIVWR,018,L,12.0,N,,,,*75
$IIDPT,002.6,+0.7,*44
$IIGLL,4612.830,N,00610.249,E,153850,A,A*58
$IIHDG,027,,,,*52
$IIMTW,+18.5,C*34
$IIMWV,343,R,12.0,N,A*14
$IIMWV,342,T,12.0,N,A*13
$IIRMC,153850,A,4612.830,N,00610.249,E,00.0,000,270814,,,A*49
$IIVHW,,,027,M,00.0,N,,*61
$IIVLW,53527,N,000.0,N*55
$IIVWR,016,L,12.2,N,,,,*79
$IIDPT,002.6,+0.7,*44
$IIGLL,4612.830,N,00610.249,E,153852,A,A*5A
$IIHDG,027,,,,*52
$IIMTW,+18.5,C*34
$IIMWV,344,R,12.2,N,A*11
$IIMWV,343,T,12.0,N,A*12
$IIRMC,153852,A,4612.830,N,00610.249,E,00.0,000,270814,,,A*4B
$IIVHW,,,027,M,00.0,N,,*61
$IIVLW,53527,N,000.0,N*55
$IIVWR,015,L,11.8,N,,,,*73
$IIDPT,002.6,+0.7,*44
$IIGLL,4612.830,N,00610.249,E,153853,A,A*5B
$IIHDG,027,,,,*52
$IIMTW,+18.5,C*34
$IIMWV,345,R,11.8,N,A*19
$IIMWV,344,T,12.2,N,A*17
$IIRMC,153853,A,4612.830,N,00610.249,E,00.0,000,270814,,,A*4A
$IIVHW,,,027,M,00.0,N,,*61
$IIVLW,53527,N,000.0,N*55
$IIVWR,015,L,11.9,N,,,,*72
$IIDPT,002.6,+0.7,*44
$IIGLL,4612.830,N,00610.249,E,153854,A,A*5C
$IIHDG,027,,,,*52
$IIMTW,+18.5,C*34
$IIMWV,345,R,11.9,N,A*18
$IIMWV,345,T,11.8,N,A*1F
$IIRMC,153855,A,4612.830,N,00610.249,E,00.0,000,270814,,,A*4C
$IIVHW,,,027,M,00.0,N,,*61
$IIVLW,53527,N,000.0,N*55
$IIVWR,015,L,11.7,N,,,,*7C
$IIDPT,002.6,+0.7,*44
$IIGLL,4612.830,N,00610.249,E,153855,A,A*5D
$IIHDG,027,,,,*52
$IIMTW,+18.5,C*34
$IIMWV,345,R,11.7,N,A*16
$IIMWV,345,T,11.7,N,A*10
$IIRMC,153856,A,4612.830,N,00610.249,E,00.0,000,270814,,,A*4F
$IIVHW,,,028,M,00.0,N,,*6E
$IIVLW,53527,N,000.0,N*55
$IIVWR,016,L,11.8,N,,,,*70
$IIDPT,002.6,+0.7,*44
$IIGLL,4612.830,N,00610.249,E,153856,A,A*5E
$IIHDG,028,,,,*5D
$IIMTW,+18.5,C*34
$IIMWV,344,R,12.0,N,A*13
$IIMWV,344,T,11.8,N,A*1E
$IIRMC,153857,A,4612.830,N,00610.249,E,00.0,000,270814,,,A*4E
$IIVHW,,,027,M,00.0,N,,*61
$IIVLW,53527,N,000.0,N*55
$IIVWR,016,L,12.0,N,,,,*7B
$IIDPT,002.6,+0.7,*44
$IIGLL,4612.830,N,00610.249,E,153857,A,A*5F
$IIHDG,027,,,,*52
$IIMTW,+18.5,C*34
$IIMWV,344,R,11.8,N,A*18
$IIMWV,344,T,12.0,N,A*15
$IIRMC,153858,A,4612.830,N,00610.249,E,00.0,000,270814,,,A*41
$IIVHW,,,027,M,00.0,N,,*61
$IIVLW,53527,N,000.0,N*55
$IIVWR,016,L,11.8,N,,,,*70
$IIDPT,002.6,+0.7,*44
$IIGLL,4612.830,N,00610.249,E,153858,A,A*50
$IIHDG,028,,,,*5D
$IIMTW,+18.5,C*34
$IIMWV,345,R,11.9,N,A*18
$IIMWV,344,T,11.8,N,A*1E
$IIRMC,153859,A,4612.830,N,00610.249,E,00.0,000,270814,,,A*40
$IIVHW,,,028,M,00.0,N,,*6E
$IIVLW,53527,N,000.0,N*55
$IIVWR,015,L,11.9,N,,,,*72
$IIDPT,002.6,+0.7,*44
$IIGLL,4612.830,N,00610.249,E,153859,A,A*51
$IIHDG,028,,,,*5D
$IIMTW,+18.5,C*34
$IIMWV,345,R,11.7,N,A*16
$IIMWV,345,T,11.9,N,A*1E
$IIRMC,153859,A,4612.830,N,00610.249,E,00.0,000,270814,,,A*40
$IIVHW,,,028,M,00.0,N,,*6E
$IIVLW,53527,N,000.0,N*55
$IIVWR,015,L,11.7,N,,,,*7C
$IIDPT,002.6,+0.7,*44
$IIGLL,4612.830,N,00610.249,E,153901,A,A*5D
$IIHDG,028,,,,*5D
$IIMTW,+18.5,C*34
$IIMWV,345,R,11.8,N,A*19
$IIMWV,345,T,11.7,N,A*10
$IIRMC,153901,A,4612.830,N,00610.249,E,00.0,000,270814,,,A*4C
$IIVHW,,,028,M,00.0,N,,*6E
$IIVLW,53527,N,000.0,N*55
$IIVWR,015,L,11.9,N,,,,*72
$IIDPT,002.6,+0.7,*44
$IIGLL,4612.830,N,00610.249,E,153902,A,A*5E
$IIHDG,028,,,,*5D
$IIMTW,+18.5,C*34
$IIMWV,345,R,11.9,N,A*18
$IIMWV,345,T,11.8,N,A*1F
$IIRMC,153902,A,4612.830,N,00610.249,E,00.0,000,270814,,,A*4F
$IIVHW,,,028,M,00.0,N,,*6E
$IIVLW,53527,N,000.0,N*55
$IIVWR,015,L,11.8,N,,,,*73
$IIDPT,002.6,+0.7,*44
$IIGLL,4612.830,N,00610.249,E,153903,A,A*5F
$IIHDG,028,,,,*5D
$IIMTW,+18.5,C*34
$IIMWV,345,R,11.8,N,A*19
$IIMWV,345,T,11.9,N,A*1E
$IIRMC,153903,A,4612.830,N,00610.249,E,00.0,000,270814,,,A*4E
$IIVHW,,,028,M,00.0,N,,*6E
$IIVLW,53527,N,000.0,N*55
$IIVWR,016,L,11.9,N,,,,*71
$IIDPT,002.6,+0.7,*44
$IIGLL,4612.830,N,00610.249,E,153904,A,A*58
$IIHDG,028,,,,*5D
$IIMTW,+18.5,C*34
$IIMWV,344,R,11.9,N,A*19
$IIMWV,345,T,11.8,N,A*1F
$IIRMC,153905,A,4612.830,N,00610.249,E,00.0,000,270814,,,A*48
$IIVHW,,,028,M,00.0,N,,*6E
$IIVLW,53527,N,000.0,N*55
$IIVWR,015,L,12.2,N,,,,*7A
$IIDPT,002.6,+0.7,*44
$IIGLL,4612.830,N,00610.249,E,153905,A,A*59
$IIHDG,028,,,,*5D
$IIMTW,+18.5,C*34
$IIMWV,345,R,12.2,N,A*10
$IIMWV,345,T,12.2,N,A*16
$IIRMC,153906,A,4612.830,N,00610.249,E,00.0,000,270814,,,A*4B
$IIVHW,,,028,M,00.0,N,,*6E
$IIVLW,53527,N,000.0,N*55
$IIVWR,015,L,12.3,N,,,,*7B
$IIDPT,002.6,+0.7,*44
$IIGLL,4612.830,N,00610.249,E,153906,A,A*5A
$IIHDG,028,,,,*5D
$IIMTW,+18.5,C*34
$IIMWV,345,R,12.2,N,A*10
$IIMWV,345,T,12.3,N,A*17
$IIRMC,153907,A,4612.830,N,00610.249,E,00.0,000,270814,,,A*4A
$IIVHW,,,028,M,00.0,N,,*6E
$IIVLW,53527,N,000.0,N*55
$IIVWR,015,L,12.2,N,,,,*7A
$IIDPT,002.6,+0.7,*44
$IIGLL,4612.830,N,00610.249,E,153907,A,A*5B
$IIHDG,028,,,,*5D
$IIMTW,+18.5,C*34
$IIMWV,345,R,11.9,N,A*18
$IIMWV,345,T,12.2,N,A*16
$IIRMC,153908,A,4612.830,N,00610.249,E,00.0,000,270814,,,A*45
$IIVHW,,,028,M,00.0,N,,*6E
$IIVLW,53527,N,000.0,N*55
$IIVWR,015,L,11.9,N,,,,*72
$IIDPT,002.6,+0.7,*44
$IIGLL,4612.830,N,00610.249,E,153908,A,A*54
$IIHDG,028,,,,*5D
$IIMTW,+18.5,C*34
$IIMWV,345,R,12.0,N,A*12
$IIMWV,345,T,11.9,N,A*1E
$IIRMC,153909,A,4612.830,N,00610.249,E,00.0,000,270814,,,A*44
$IIVHW,,,028,M,00.0,N,,*6E
$IIVLW,53527,N,000.0,N*55
$IIVWR,015,L,12.0,N,,,,*78
$IIDPT,002.6,+0.7,*44
$IIGLL,4612.830,N,00610.249,E,153910,A,A*5D
$IIHDG,027,,,,*52
$IIMTW,+18.5,C*34
$IIMWV,346,R,11.8,N,A*1A
$IIMWV,345,T,12.0,N,A*14
$IIRMC,153910,A,4612.830,N,00610.249,E,00.0,000,270814,,,A*4C
$IIVHW,,,027,M,00.0,N,,*61
$IIVLW,53527,N,000.0,N*55
$IIVWR,014,L,11.8,N,,,,*72
$IIDPT,002.6,+0.7,*44
$IIGLL,4612.830,N,00610.249,E,153911,A,A*5C
$IIHDG,028,,,,*5D
$IIMTW,+18.5,C*34
$IIMWV,346,R,11.9,N,A*1B
$IIMWV,346,T,11.8,N,A*1C
$IIRMC,153911,A,4612.830,N,00610.249,E,00.0,000,270814,,,A*4D
$IIVHW,,,028,M,00.0,N,,*6E
$IIVLW,53527,N,000.0,N*55
$IIVWR,015,L,12.0,N,,,,*78
$IIDPT,002.6,+0.7,*44
$IIGLL,4612.830,N,00610.249,E,153912,A,A*5F
$IIHDG,027,,,,*52
$IIMTW,+18.5,C*34
$IIMWV,345,R,12.0,N,A*12
$IIMWV,346,T,11.9,N,A*1D
$IIRMC,153912,A,4612.830,N,00610.249,E,00.0,000,270814,,,A*4E
$IIVHW,,,027,M,00.0,N,,*61
$IIVLW,53527,N,000.0,N*55
$IIVWR,016,L,11.8,N,,,,*70
$IIDPT,002.6,+0.7,*44
$IIGLL,4612.830,N,00610.249,E,153913,A,A*5E
$IIHDG,027,,,,*52
$IIMTW,+18.5,C*34
$IIMWV,344,R,11.8,N,A*18
$IIMWV,345,T,12.0,N,A*14
$IIRMC,153913,A,4612.830,N,00610.249,E,00.0,000,270814,,,A*4F
$IIVHW,,,028,M,00.0,N,,*6E
$IIVLW,53527,N,000.0,N*55
$IIVWR,015,L,11.9,N,,,,*72
$IIDPT,002.6,+0.7,*44
$IIGLL,4612.830,N,00610.249,E,153914,A,A*59
$IIHDG,028,,,,*5D
$IIMTW,+18.5,C*34
$IIMWV,345,R,11.9,N,A*18
$IIMWV,344,T,11.8,N,A*1E
$IIRMC,153915,A,4612.830,N,00610.249,E,00.0,000,270814,,,A*49
$IIVHW,,,027,M,00.0,N,,*61
$IIVLW,53527,N,000.0,N*55
$IIVWR,015,L,12.0,N,,,,*78
$IIDPT,002.6,+0.7,*44
$IIGLL,4612.830,N,00610.249,E,153915,A,A*58
$IIHDG,027,,,,*52
$IIMTW,+18.5,C*34
$IIMWV,345,R,12.0,N,A*12
$IIMWV,345,T,12.0,N,A*14
$IIRMC,153916,A,4612.830,N,00610.249,E,00.0,000,270814,,,A*4A
$IIVHW,,,027,M,00.0,N,,*61
$IIVLW,53527,N,000.0,N*55
$IIVWR,015,L,11.8,N,,,,*73
$IIDPT,002.6,+0.7,*44
$IIGLL,4612.830,N,00610.249,E,153916,A,A*5B
$IIHDG,027,,,,*52
$IIMTW,+18.5,C*34
$IIMWV,345,R,11.9,N,A*18
$IIMWV,345,T,11.8,N,A*1F
$IIRMC,153916,A,4612.830,N,00610.249,E,00.0,000,270814,,,A*4A
$IIVHW,,,027,M,00.0,N,,*61
$IIVLW,53527,N,000.0,N*55
$IIVWR,015,L,11.9,N,,,,*72
$IIDPT,002.6,+0.7,*44
$IIGLL,4612.830,N,00610.249,E,153916,A,A*5B
$IIHDG,027,,,,*52
$IIMTW,+18.5,C*34
$IIMWV,345,R,11.7,N,A*16
$IIMWV,345,T,11.9,N,A*1E
$IIRMC,153918,A,4612.830,N,00610.249,E,00.0,000,270814,,,A*44
$IIVHW,,,027,M,00.0,N,,*61
$IIVLW,53527,N,000.0,N*55
$IIVWR,015,L,11.7,N,,,,*7C
$IIDPT,002.6,+0.7,*44
$IIGLL,4612.830,N,00610.249,E,153918,A,A*55
$IIHDG,028,,,,*5D
$IIMTW,+18.5,C*34
$IIMWV,347,R,11.4,N,A*17
$IIMWV,345,T,11.7,N,A*10
$IIRMC,153919,A,4612.830,N,00610.249,E,00.0,000,270814,,,A*45
$IIVHW,,,028,M,00.0,N,,*6E
$IIVLW,53527,N,000.0,N*55
$IIVWR,013,L,11.4,N,,,,*79
$IIDPT,002.6,+0.7,*44
$IIGLL,4612.830,N,00610.249,E,153920,A,A*5E
$IIHDG,028,,,,*5D
$IIMTW,+18.5,C*34
$IIMWV,347,R,11.8,N,A*1B
$IIMWV,347,T,11.4,N,A*11
$IIRMC,153920,A,4612.830,N,00610.249,E,00.0,000,270814,,,A*4F
$IIVHW,,,028,M,00.0,N,,*6E
$IIVLW,53527,N,000.0,N*55
$IIVWR,013,L,11.8,N,,,,*75
$IIDPT,002.6,+0.7,*44
$IIGLL,4612.830,N,00610.249,E,153921,A,A*5F
$IIHDG,028,,,,*5D
$IIMTW,+18.5,C*34
$IIMWV,346,R,11.5,N,A*17
$IIMWV,347,T,11.8,N,A*1D
$IIRMC,153921,A,4612.830,N,00610.249,E,00.0,000,270814,,,A*4E
$IIVHW,,,028,M,00.0,N,,*6E
$IIVLW,53527,N,000.0,N*55
$IIVWR,012,L,11.8,N,,,,*74
$IIDPT,002.6,+0.7,*44
$IIGLL,4612.830,N,00610.249,E,153922,A,A*5C
$IIHDG,027,,,,*52
$IIMTW,+18.5,C*34
$IIMWV,348,R,11.8,N,A*14
$IIMWV,346,T,11.5,N,A*11
$IIRMC,153922,A,4612.830,N,00610.249,E,00.0,000,270814,,,A*4D
$IIVHW,,,027,M,00.0,N,,*61
$IIVLW,53527,N,000.0,N*55
$IIVWR,012,L,11.5,N,,,,*79
$IIDPT,002.6,+0.7,*44
$IIGLL,4612.830,N,00610.249,E,153923,A,A*5D
$IIHDG,028,,,,*5D
$IIMTW,+18.5,C*34
$IIMWV,348,R,11.5,N,A*19
$IIMWV,348,T,11.8,N,A*12
$IIRMC,153923,A,4612.830,N,00610.249,E,00.0,000,270814,,,A*4C
$IIVHW,,,028,M,00.0,N,,*6E
$IIVLW,53527,N,000.0,N*55
$IIVWR,013,L,11.8,N,,,,*75
$IIDPT,002.6,+0.7,*44
$IIGLL,4612.830,N,00610.249,E,153924,A,A*5A
$IIHDG,028,,,,*5D
$IIMTW,+18.5,C*34
$IIMWV,347,R,11.8,N,A*1B
$IIMWV,348,T,11.5,N,A*1F
$IIRMC,153925,A,4612.830,N,00610.249,E,00.0,000,270814,,,A*4A
$IIVHW,,,028,M,00.0,N,,*6E
$IIVLW,53527,N,000.0,N*55
$IIVWR,014,L,11.5,N,,,,*7F
$IIDPT,002.6,+0.7,*44
$IIGLL,4612.830,N,00610.249,E,153925,A,A*5B
$IIHDG,028,,,,*5D
$IIMTW,+18.5,C*34
$IIMWV,346,R,11.5,N,A*17
$IIMWV,346,T,11.5,N,A*11
$IIRMC,153926,A,4612.830,N,00610.249,E,00.0,000,270814,,,A*49
$IIVHW,,,028,M,00.0,N,,*6E
$IIVLW,53527,N,000.0,N*55
$IIVWR,013,L,11.8,N,,,,*75
$IIDPT,002.6,+0.7,*44
$IIGLL,4612.830,N,00610.249,E,153926,A,A*58
$IIHDG,028,,,,*5D
$IIMTW,+18.5,C*34
$IIMWV,347,R,11.5,N,A*16
$IIMWV,347,T,11.8,N,A*1D
$IIRMC,153927,A,4612.830,N,00610.249,E,00.0,000,270814,,,A*48
$IIVHW,,,028,M,00.0,N,,*6E
$IIVLW,53527,N,000.0,N*55
$IIVWR,013,L,11.5,N,,,,*78
$IIDPT,002.6,+0.7,*44
$IIGLL,4612.830,N,00610.249,E,153927,A,A*59
$IIHDG,028,,,,*5D
$IIMTW,+18.5,C*34
$IIMWV,346,R,11.4,N,A*16
$IIMWV,347,T,11.5,N,A*10
$IIRMC,153928,A,4612.830,N,00610.249,E,00.0,000,270814,,,A*47
$IIVHW,,,028,M,00.0,N,,*6E
$IIVLW,53527,N,000.0,N*55
$IIVWR,014,L,11.4,N,,,,*7E
$IIDPT,002.6,+0.7,*44
$IIGLL,4612.830,N,00610.249,E,153928,A,A*56
$IIHDG,027,,,,*52
$IIMTW,+18.5,C*34
$IIMWV,345,R,11.7,N,A*16
$IIMWV,346,T,11.4,N,A*10
$IIRMC,153929,A,4612.830,N,00610.249,E,00.0,000,270814,,,A*46
$IIVHW,,,027,M,00.0,N,,*61
$IIVLW,53527,N,000.0,N*55
$IIVWR,015,L,11.7,N,,,,*7C
$IIDPT,002.6,+0.7,*44
$IIGLL,4612.830,N,00610.249,E,153930,A,A*5F
$IIHDG,028,,,,*5D
$IIMTW,+18.5,C*34
$IIMWV,346,R,11.5,N,A*17
$IIMWV,345,T,11.7,N,A*10
$IIRMC,153930,A,4612.830,N,00610.249,E,00.0,000,270814,,,A*4E
$IIVHW,,,028,M,00.0,N,,*6E
$IIVLW,53527,N,000.0,N*55
$IIVWR,014,L,11.5,N,,,,*7F
$IIDPT,002.6,+0.7,*44
$IIGLL,4612.830,N,00610.249,E,153931,A,A*5E
$IIHDG,027,,,,*52
$IIMTW,+18.5,C*34
$IIMWV,347,R,11.8,N,A*1B
$IIMWV,346,T,11.5,N,A*11
$IIRMC,153931,A,4612.830,N,00610.249,E,00.0,000,270814,,,A*4F
$IIVHW,,,027,M,00.0,N,,*61
$IIVLW,53527,N,000.0,N*55
$IIVWR,015,L,12.0,N,,,,*78
$IIDPT,002.6,+0.7,*44
$IIGLL,4612.830,N,00610.249,E,153932,A,A*5D
$IIHDG,028,,,,*5D
$IIMTW,+18.5,C*34
$IIMWV,345,R,12.0,N,A*12
$IIMWV,347,T,11.8,N,A*1D
$IIRMC,153932,A,4612.830,N,00610.249,E,00.0,000,270814,,,A*4C
$IIVHW,,,028,M,00.0,N,,*6E
$IIVLW,53527,N,000.0,N*55
$IIVWR,015,L,12.0,N,,,,*78
$IIDPT,002.6,+0.7,*44
$IIGLL,4612.830,N,00610.249,E,153933,A,A*5C
$IIHDG,027,,,,*52
$IIMTW,+18.5,C*34
$IIMWV,345,R,12.0,N,A*12
$IIMWV,345,T,12.0,N,A*14
$IIRMC,153933,A,4612.830,N,00610.249,E,00.0,000,270814,,,A*4D
$IIVHW,,,028,M,00.0,N,,*6E
$IIVLW,53527,N,000.0,N*55
$IIVWR,013,L,11.8,N,,,,*75
$IIDPT,002.6,+0.7,*44
$IIGLL,4612.830,N,00610.249,E,153934,A,A*5B
$IIHDG,028,,,,*5D
$IIMTW,+18.5,C*34
$IIMWV,347,R,11.8,N,A*1B
$IIMWV,345,T,12.0,N,A*14
$IIRMC,153935,A,4612.830,N,00610.249,E,00.0,000,270814,,,A*4B
$IIVHW,,,029,M,00.0,N,,*6F
$IIVLW,53527,N,000.0,N*55
$IIVWR,012,L,11.9,N,,,,*75
$IIDPT,002.6,+0.7,*44
$IIGLL,4612.830,N,00610.249,E,153935,A,A*5A
$IIHDG,029,,,,*5C
$IIMTW,+18.5,C*34
$IIMWV,348,R,11.9,N,A*15
$IIMWV,348,T,11.9,N,A*13
$IIRMC,153936,A,4612.830,N,00610.249,E,00.0,000,270814,,,A*48
$IIVHW,,,028,M,00.0,N,,*6E
$IIVLW,53527,N,000.0,N*55
$IIVWR,012,L,12.0,N,,,,*7F
$IIDPT,002.6,+0.7,*44
$IIGLL,4612.830,N,00610.249,E,153936,A,A*59
$IIHDG,028,,,,*5D
$IIMTW,+18.5,C*34
$IIMWV,348,R,12.0,N,A*1F
$IIMWV,348,T,12.0,N,A*19
$IIRMC,153937,A,4612.830,N,00610.249,E,00.0,000,270814,,,A*49
$IIVHW,,,027,M,00.0,N,,*61
