$IIHDG,340,,,01,E*14
$IIMTW,+08.5,C*35
$IIDPT,010.8,-1.0,*49
$IIGLL,4629.988,N,00640.117,E,164601,A,A*51
$IIHDG,341,,,01,E*15
$IIMTW,+08.5,C*35
$IIMWV,126,R,03.3,N,A*16
$IIMWV,153,T,05.1,N,A*16
$IIRMC,164601,A,4629.988,N,00640.117,E,02.7,350,290415,01,E,A*04
$IIVHW,,,341,M,02.6,N,,*66
$IIVLW,01633,N,000.6,N*52
$IIVWR,126,R,03.3,N,,,,*64
$IIDPT,010.8,-1.0,*49
$IIGLL,4629.989,N,00640.116,E,164602,A,A*52
$IIHDG,341,,,01,E*15
$IIMTW,+08.5,C*35
$IIMWV,125,R,03.5,N,A*13
$IIMWV,150,T,05.1,N,A*15
$IIRMC,164602,A,4629.989,N,00640.116,E,02.8,347,290415,01,E,A*0E
$IIVHW,,,341,M,02.6,N,,*66
$IIVLW,01633,N,000.6,N*52
$IIVWR,127,R,03.3,N,,,,*65
$IIDPT,010.9,-1.0,*48
$IIGLL,4629.989,N,00640.116,E,164603,A,A*53
$IIHDG,341,,,01,E*15
$IIMTW,+08.5,C*35
$IIMWV,127,R,03.3,N,A*17
$IIMWV,148,T,05.3,N,A*1E
$IIRMC,164603,A,4629.989,N,00640.116,E,02.8,343,290415,01,E,A*0B
$IIVHW,,,341,M,02.6,N,,*66
$IIVLW,01633,N,000.6,N*52
$IIVWR,125,R,03.5,N,,,,*61
$IIDPT,010.9,-1.0,*48
$IIGLL,4629.990,N,00640.116,E,164604,A,A*5C
$IIHDG,342,,,01,E*16
$IIMTW,+08.5,C*35
$IIMWV,125,R,03.5,N,A*13
$IIMWV,150,T,05.2,N,A*16
$IIRMC,164604,A,4629.990,N,00640.116,E,02.6,345,290415,01,E,A*0C
$IIVHW,,,343,M,02.6,N,,*64
$IIVLW,01633,N,000.6,N*52
$IIVWR,123,R,03.5,N,,,,*67
$IIDPT,010.9,-1.0,*48
$IIGLL,4629.991,N,00640.115,E,164605,A,A*5F
$IIHDG,343,,,01,E*17
$IIMTW,+08.5,C*35
$IIMWV,123,R,03.5,N,A*15
$IIMWV,148,T,05.3,N,A*1E
$IIRMC,164606,A,4629.992,N,00640.115,E,02.7,347,290415,01,E,A*0C
$IIVHW,,,343,M,02.6,N,,*64
$IIVLW,01633,N,000.6,N*52
$IIVWR,122,R,03.7,N,,,,*64
$IIDPT,010.9,-1.0,*48
$IIGLL,4629.992,N,00640.115,E,164606,A,A*5F
$IIHDG,343,,,01,E*17
$IIMTW,+08.5,C*35
$IIMWV,122,R,03.7,N,A*16
$IIMWV,146,T,05.4,N,A*17
$IIRMC,164607,A,4629.992,N,00640.115,E,02.7,344,290415,01,E,A*0E
$IIVHW,,,343,M,02.6,N,,*64
$IIVLW,01633,N,000.6,N*52
$IIVWR,122,R,03.7,N,,,,*64
$IIDPT,010.9,-1.0,*48
$IIGLL,4629.992,N,00640.115,E,164607,A,A*5E
$IIHDG,343,,,01,E*17
$IIMTW,+08.5,C*35
$IIMWV,122,R,03.6,N,A*17
$IIMWV,146,T,05.4,N,A*17
$IIRMC,164608,A,4629.993,N,00640.115,E,02.8,345,290415,01,E,A*0E
$IIVHW,,,343,M,02.6,N,,*64
$IIVLW,01633,N,000.6,N*52
$IIVWR,122,R,03.6,N,,,,*65
$IIDPT,010.9,-1.0,*48
$IIGLL,4629.993,N,00640.115,E,164608,A,A*50
$IIHDG,343,,,01,E*17
$IIMTW,+08.5,C*35
$IIMWV,122,R,03.7,N,A*16
$IIMWV,146,T,05.4,N,A*17
$IIRMC,164609,A,4629.994,N,00640.114,E,02.8,345,290415,01,E,A*09
$IIVHW,,,343,M,02.6,N,,*64
$IIVLW,01633,N,000.6,N*52
$IIVWR,122,R,03.7,N,,,,*64
$IIDPT,010.9,-1.0,*48
$IIGLL,4629.994,N,00640.114,E,164609,A,A*57
$IIHDG,343,,,01,E*17
$IIMTW,+08.5,C*35
$IIMWV,121,R,03.8,N,A*1A
$IIMWV,146,T,05.4,N,A*17
$IIRMC,164610,A,4629.995,N,00640.114,E,02.8,344,290415,01,E,A*01
$IIVHW,,,343,M,02.6,N,,*64
$IIVLW,01633,N,000.6,N*52
$IIVWR,121,R,03.8,N,,,,*68
$IIDPT,010.9,-1.0,*48
$IIGLL,4629.995,N,00640.114,E,164611,A,A*5F
$IIHDG,342,,,01,E*16
$IIMTW,+09.0,C*31
$IIMWV,120,R,03.7,N,A*14
$IIMWV,145,T,05.5,N,A*15
$IIRMC,164611,A,4629.995,N,00640.114,E,02.8,344,290415,01,E,A*00
$IIVHW,,,342,M,02.5,N,,*66
$IIVLW,01633,N,000.6,N*52
$IIVWR,120,R,03.7,N,,,,*66
$IIDPT,010.8,-1.0,*49
$IIGLL,4629.996,N,00640.114,E,164612,A,A*5F
$IIHDG,342,,,01,E*16
$IIMTW,+09.0,C*31
$IIMWV,122,R,03.9,N,A*18
$IIMWV,144,T,05.4,N,A*15
$IIRMC,164612,A,4629.996,N,00640.114,E,03.4,340,290415,01,E,A*09
$IIVHW,,,342,M,02.6,N,,*65
$IIVLW,01633,N,000.6,N*52
$IIVWR,125,R,03.8,N,,,,*6C
$IIDPT,010.8,-1.0,*49
$IIGLL,4629.997,N,00640.114,E,164613,A,A*5F
$IIHDG,342,,,01,E*16
$IIMTW,+09.0,C*31
$IIMWV,125,R,03.8,N,A*1E
$IIMWV,144,T,05.6,N,A*17
$IIRMC,164613,A,4629.997,N,00640.114,E,03.0,342,290415,01,E,A*0F
$IIVHW,,,342,M,02.5,N,,*66
$IIVLW,01633,N,000.6,N*52
$IIVWR,123,R,03.7,N,,,,*65
$IIDPT,010.8,-1.0,*49
$IIGLL,4629.998,N,00640.113,E,164614,A,A*50
$IIHDG,341,,,01,E*15
$IIMTW,+09.0,C*31
$IIMWV,123,R,03.7,N,A*17
$IIMWV,147,T,05.6,N,A*14
$IIRMC,164614,A,4629.998,N,00640.113,E,02.8,341,290415,01,E,A*0A
$IIVHW,,,340,M,02.6,N,,*67
$IIVLW,01633,N,000.6,N*52
$IIVWR,123,R,03.7,N,,,,*65
$IIDPT,010.6,-1.0,*47
$IIGLL,4629.999,N,00640.113,E,164615,A,A*50
$IIHDG,340,,,01,E*14
$IIMTW,+09.0,C*31
$IIMWV,123,R,03.7,N,A*17
$IIMWV,146,T,05.4,N,A*17
$IIRMC,164616,A,4629.999,N,00640.113,E,03.0,345,290415,01,E,A*04
$IIVHW,,,340,M,02.6,N,,*67
$IIVLW,01633,N,000.6,N*52
$IIVWR,123,R,03.7,N,,,,*65
$IIDPT,010.5,-1.0,*44
$IIGLL,4629.999,N,00640.113,E,164616,A,A*53
$IIHDG,340,,,01,E*14
$IIMTW,+09.0,C*31
$IIMWV,123,R,03.7,N,A*17
$IIMWV,146,T,05.4,N,A*17
$IIRMC,164617,A,4630.000,N,00640.112,E,03.0,342,290415,01,E,A*02
$IIVHW,,,340,M,02.6,N,,*67
$IIVLW,01633,N,000.6,N*52
$IIVWR,123,R,03.6,N,,,,*64
$IIDPT,010.5,-1.0,*44
$IIGLL,4630.000,N,00640.112,E,164617,A,A*52
$IIHDG,340,,,01,E*14
$IIMTW,+09.0,C*31
$IIMWV,121,R,03.8,N,A*1A
$IIMWV,146,T,05.4,N,A*17
$IIRMC,164618,A,4630.001,N,00640.112,E,02.5,346,290415,01,E,A*0C
$IIVHW,,,340,M,02.6,N,,*67
$IIVLW,01633,N,000.6,N*52
$IIVWR,121,R,03.8,N,,,,*68
$IIDPT,010.5,-1.0,*44
$IIGLL,4630.001,N,00640.112,E,164618,A,A*5C
$IIHDG,340,,,01,E*14
$IIMTW,+09.0,C*31
$IIMWV,123,R,03.7,N,A*17
$IIMWV,145,T,05.5,N,A*15
$IIRMC,164619,A,4630.002,N,00640.112,E,03.2,348,290415,01,E,A*06
$IIVHW,,,340,M,02.6,N,,*67
$IIVLW,01633,N,000.6,N*52
$IIVWR,123,R,03.7,N,,,,*65
$IIDPT,010.5,-1.0,*44
$IIGLL,4630.002,N,00640.112,E,164619,A,A*5E
$IIHDG,340,,,01,E*14
$IIMTW,+09.0,C*31
$IIMWV,122,R,03.9,N,A*18
$IIMWV,146,T,05.4,N,A*17
$IIRMC,164620,A,4630.003,N,00640.112,E,02.9,345,290415,01,E,A*0A
$IIVHW,,,340,M,02.6,N,,*67
$IIVLW,01633,N,000.6,N*52
$IIVWR,122,R,03.9,N,,,,*6A
$IIDPT,010.6,-1.0,*47
$IIGLL,4630.004,N,00640.111,E,164621,A,A*50
$IIHDG,340,,,01,E*14
$IIMTW,+09.0,C*31
$IIMWV,125,R,03.8,N,A*1E
$IIMWV,144,T,05.6,N,A*17
$IIRMC,164621,A,4630.004,N,00640.111,E,02.9,340,290415,01,E,A*0A
$IIVHW,,,340,M,02.6,N,,*67
$IIVLW,01633,N,000.6,N*52
$IIVWR,125,R,03.8,N,,,,*6C
$IIDPT,010.7,-1.0,*46
$IIGLL,4630.004,N,00640.111,E,164622,A,A*53
$IIHDG,340,,,01,E*14
$IIMTW,+09.0,C*31
$IIMWV,126,R,03.9,N,A*1C
$IIMWV,147,T,05.6,N,A*14
$IIRMC,164622,A,4630.004,N,00640.111,E,02.6,342,290415,01,E,A*04
$IIVHW,,,340,M,02.6,N,,*67
$IIVLW,01633,N,000.6,N*52
$IIVWR,127,R,03.8,N,,,,*6E
$IIDPT,010.7,-1.0,*46
$IIGLL,4630.005,N,00640.111,E,164623,A,A*53
$IIHDG,340,,,01,E*14
$IIMTW,+09.0,C*31
$IIMWV,127,R,03.8,N,A*1C
$IIMWV,148,T,05.7,N,A*1A
$IIGLL,4629.797,N,00640.422,E,172328,A,A*5B
$IIMWV,176,R,01.9,N,A*1B
$IIMWV,182,T,05.1,N,A*1A
$IIRMC,172328,A,4629.797,N,00640.422,E,03.2,302,290415,01,E,A*0D
$IIVHW,,,290,M,03.1,N,,*6D
$IIVLW,01636,N,003.0,N*52
$IIVWR,176,R,01.9,N,,,,*69
$IIDPT,010.3,-1.0,*42
$IIGLL,4629.798,N,00640.421,E,172329,A,A*56
$IIHDG,293,,,01,E*1B
$IIMTW,+08.5,C*35
$IIMWV,169,R,01.9,N,A*15
$IIMWV,179,T,05.0,N,A*1F
$IIRMC,172329,A,4629.798,N,00640.421,E,03.2,307,290415,01,E,A*05
$IIVHW,,,293,M,03.1,N,,*6E
$IIVLW,01636,N,003.0,N*52
$IIVWR,161,R,02.0,N,,,,*65
$IIDPT,010.3,-1.0,*42
$IIGLL,4629.798,N,00640.420,E,172330,A,A*5F
$IIHDG,297,,,01,E*1F
$IIMTW,+08.5,C*35
$IIMWV,161,R,02.0,N,A*17
$IIMWV,176,T,04.9,N,A*18
$IIRMC,172330,A,4629.798,N,00640.420,E,03.2,310,290415,01,E,A*0A
$IIVHW,,,297,M,03.1,N,,*6A
$IIVLW,01636,N,003.0,N*52
$IIVWR,154,R,02.1,N,,,,*62
$IIDPT,010.3,-1.0,*42
$IIGLL,4629.798,N,00640.419,E,172331,A,A*54
$IIHDG,300,,,01,E*10
$IIMTW,+08.5,C*35
$IIMWV,154,R,02.1,N,A*10
$IIMWV,173,T,05.0,N,A*15
$IIRMC,172331,A,4629.798,N,00640.419,E,03.2,310,290415,01,E,A*01
$IIVHW,,,303,M,03.0,N,,*67
$IIVLW,01636,N,003.0,N*52
$IIVWR,152,R,02.3,N,,,,*66
$IIDPT,010.5,-1.0,*44
$IIGLL,4629.799,N,00640.418,E,172332,A,A*57
$IIHDG,303,,,01,E*13
$IIMTW,+08.5,C*35
$IIMWV,152,R,02.3,N,A*14
$IIMWV,170,T,04.9,N,A*1E
$IIRMC,172333,A,4629.799,N,00640.417,E,03.2,313,290415,01,E,A*0F
$IIVHW,,,305,M,03.0,N,,*61
$IIVLW,01636,N,003.0,N*52
$IIVWR,146,R,02.4,N,,,,*64
$IIDPT,010.5,-1.0,*44
$IIGLL,4629.799,N,00640.417,E,172333,A,A*59
$IIHDG,305,,,01,E*15
$IIMTW,+08.5,C*35
$IIMWV,146,R,02.4,N,A*16
$IIMWV,165,T,05.0,N,A*12
$IIRMC,172334,A,4629.800,N,00640.416,E,03.2,316,290415,01,E,A*03
$IIVHW,,,307,M,03.0,N,,*63
$IIVLW,01636,N,003.0,N*52
$IIVWR,143,R,02.5,N,,,,*60
$IIDPT,010.5,-1.0,*44
$IIGLL,4629.800,N,00640.416,E,172334,A,A*50
$IIHDG,307,,,01,E*17
$IIMTW,+08.5,C*35
$IIMWV,142,R,02.8,N,A*1E
$IIMWV,163,T,05.2,N,A*16
$IIRMC,172335,A,4629.800,N,00640.415,E,02.8,320,290415,01,E,A*0F
$IIVHW,,,310,M,02.9,N,,*6D
$IIVLW,01636,N,003.0,N*52
$IIVWR,142,R,02.8,N,,,,*6C
$IIDPT,010.5,-1.0,*44
$IIGLL,4629.800,N,00640.415,E,172335,A,A*52
$IIHDG,310,,,01,E*11
$IIMTW,+08.5,C*35
$IIMWV,139,R,02.9,N,A*13
$IIMWV,162,T,05.4,N,A*11
$IIRMC,172336,A,4629.801,N,00640.415,E,03.0,322,290415,01,E,A*06
$IIVHW,,,313,M,02.9,N,,*6E
$IIVLW,01636,N,003.0,N*52
$IIVWR,139,R,02.9,N,,,,*61
$IIDPT,010.5,-1.0,*44
$IIGLL,4629.801,N,00640.415,E,172336,A,A*50
$IIHDG,316,,,01,E*17
$IIMTW,+08.5,C*35
$IIMWV,131,R,03.0,N,A*13
$IIMWV,160,T,05.4,N,A*13
$IIRMC,172337,A,4629.802,N,00640.414,E,03.0,325,290415,01,E,A*02
$IIVHW,,,316,M,02.9,N,,*6B
$IIVLW,01636,N,003.0,N*52
$IIVWR,131,R,03.0,N,,,,*61
$IIDPT,010.5,-1.0,*44
$IIGLL,4629.802,N,00640.413,E,172338,A,A*5B
$IIHDG,318,,,01,E*19
$IIMTW,+08.5,C*35
$IIMWV,132,R,03.1,N,A*11
$IIMWV,155,T,05.2,N,A*13
$IIRMC,172338,A,4629.802,N,00640.413,E,02.9,325,290415,01,E,A*02
$IIVHW,,,318,M,02.9,N,,*65
$IIVLW,01636,N,003.0,N*52
$IIVWR,132,R,03.1,N,,,,*63
$IIDPT,010.5,-1.0,*44
$IIGLL,4629.803,N,00640.412,E,172340,A,A*54
$IIHDG,320,,,01,E*12
$IIMTW,+08.5,C*35
$IIMWV,128,R,03.3,N,A*18
$IIMWV,154,T,05.4,N,A*14
$IIRMC,172340,A,4629.803,N,00640.412,E,03.1,324,290415,01,E,A*05
$IIVHW,,,320,M,02.9,N,,*6E
$IIVLW,01636,N,003.0,N*52
$IIVWR,125,R,03.5,N,,,,*61
$IIDPT,010.5,-1.0,*44
$IIGLL,4629.804,N,00640.411,E,172341,A,A*51
$IIHDG,321,,,01,E*13
$IIMTW,+08.5,C*35
$IIMWV,125,R,03.5,N,A*13
$IIMWV,152,T,05.5,N,A*13
$IIRMC,172341,A,4629.804,N,00640.411,E,03.1,324,290415,01,E,A*00
$IIVHW,,,321,M,02.9,N,,*6F
$IIVLW,01636,N,003.1,N*53
$IIVWR,125,R,03.5,N,,,,*61
$IIDPT,010.5,-1.0,*44
$IIGLL,4629.805,N,00640.410,E,172342,A,A*52
$IIHDG,321,,,01,E*13
$IIMTW,+08.5,C*35
$IIMWV,125,R,03.5,N,A*13
$IIMWV,150,T,05.6,N,A*12
$IIRMC,172342,A,4629.805,N,00640.410,E,03.3,323,290415,01,E,A*06
$IIVHW,,,321,M,02.9,N,,*6F
$IIVLW,01636,N,003.1,N*53
$IIVWR,126,R,03.7,N,,,,*60
$IIDPT,010.5,-1.0,*44
$IIGLL,4629.806,N,00640.410,E,172343,A,A*50
$IIHDG,321,,,01,E*13
$IIMTW,+08.5,C*35
$IIMWV,126,R,03.7,N,A*12
$IIMWV,150,T,05.6,N,A*12
$IIRMC,172344,A,4629.806,N,00640.409,E,03.1,322,290415,01,E,A*08
$IIVHW,,,321,M,02.9,N,,*6F
$IIVLW,01636,N,003.1,N*53
$IIVWR,127,R,03.7,N,,,,*61
$IIDPT,010.5,-1.0,*44
$IIGLL,4629.806,N,00640.409,E,172344,A,A*5F
$IIHDG,321,,,01,E*13
$IIMTW,+08.5,C*35
$IIMWV,127,R,03.7,N,A*13
$IIMWV,150,T,05.8,N,A*1C
$IIRMC,172345,A,4629.807,N,00640.408,E,02.9,323,290415,01,E,A*01
$IIVHW,,,321,M,02.9,N,,*6F
$IIVLW,01636,N,003.1,N*53
$IIVWR,126,R,03.8,N,,,,*6F
$IIDPT,010.6,-1.0,*47
$IIGLL,4629.807,N,00640.408,E,172345,A,A*5E
$IIHDG,321,,,01,E*13
$IIMTW,+08.5,C*35
$IIMWV,127,R,03.5,N,A*11
$IIMWV,149,T,05.9,N,A*15
$IIRMC,172346,A,4629.807,N,00640.408,E,03.1,325,290415,01,E,A*0D
$IIVHW,,,321,M,02.9,N,,*6F
$IIVLW,01636,N,003.1,N*53
$IIVWR,127,R,03.5,N,,,,*63
$IIDPT,010.7,-1.0,*46
$IIGLL,4629.807,N,00640.408,E,172346,A,A*5D
$IIHDG,321,,,01,E*13
$IIMTW,+08.5,C*35
$IIMWV,127,R,03.4,N,A*10
$IIMWV,151,T,05.7,N,A*12
$IIRMC,172347,A,4629.808,N,00640.407,E,03.1,325,290415,01,E,A*0C
$IIVHW,,,322,M,02.9,N,,*6C
$IIVLW,01636,N,003.1,N*53
$IIVWR,127,R,03.4,N,,,,*62
$IIDPT,010.8,-1.0,*49
$IIGLL,4629.808,N,00640.407,E,172347,A,A*5C
$IIHDG,322,,,01,E*10
$IIMTW,+08.5,C*35
$IIMWV,125,R,03.5,N,A*13
$IIMWV,151,T,05.5,N,A*10
$IIRMC,172348,A,4629.809,N,00640.406,E,03.1,325,290415,01,E,A*03
$IIVHW,,,322,M,02.8,N,,*6D
$IIVLW,01636,N,003.1,N*53
$IIVWR,125,R,03.5,N,,,,*61
$IIDPT,010.8,-1.0,*49
$IIGLL,4629.809,N,00640.405,E,172349,A,A*51
$IIHDG,322,,,01,E*10
$IIMTW,+08.5,C*35
$IIMWV,131,R,03.4,N,A*17
$IIMWV,150,T,05.5,N,A*11
$IIRMC,172349,A,4629.809,N,00640.405,E,03.1,325,290415,01,E,A*01
$IIVHW,,,322,M,02.8,N,,*6D
$IIVLW,01636,N,003.1,N*53
$IIVWR,131,R,03.4,N,,,,*65
$IIDPT,010.7,-1.0,*46
$IIGLL,4629.810,N,00640.405,E,172350,A,A*51
$IIHDG,322,,,01,E*10
$IIMTW,+08.5,C*35
$IIMWV,129,R,03.4,N,A*1E
$IIMWV,154,T,05.6,N,A*16
$IIRMC,172350,A,4629.810,N,00640.405,E,03.1,325,290415,01,E,A*01
$IIVHW,,,322,M,02.8,N,,*6D
$IIVLW,01636,N,003.1,N*53
$IIVWR,128,R,03.2,N,,,,*6B
$IIDPT,010.6,-1.0,*47
$IIGLL,4629.811,N,00640.404,E,172351,A,A*50
$IIVLW,01636,N,003.3,N*51
$IIVWR,141,R,02.8,N,,,,*6F
$IIMWV,141,R,02.8,N,A*1D
$IIMWV,163,T,06.1,N,A*16
$IIRMC,172748,A,4630.014,N,00640.231,E,03.9,319,290415,01,E,A*0E
$IIVHW,,,314,M,03.6,N,,*67
$IIVLW,01636,N,003.3,N*51
$IIVWR,139,R,02.9,N,,,,*61
$IIDPT,010.5,-1.0,*44
$IIGLL,4630.014,N,00640.231,E,172749,A,A*58
$IIHDG,314,,,01,E*15
$IIMTW,+10.0,C*39
$IIMWV,139,R,02.9,N,A*13
$IIMWV,164,T,06.0,N,A*10
$IIRMC,172750,A,4630.015,N,00640.230,E,03.9,319,290415,01,E,A*07
$IIVHW,,,314,M,03.6,N,,*67
$IIVLW,01636,N,003.3,N*51
$IIVWR,142,R,02.9,N,,,,*6D
$IIDPT,010.5,-1.0,*44
$IIGLL,4630.015,N,00640.230,E,172750,A,A*50
$IIHDG,314,,,01,E*15
$IIMTW,+10.0,C*39
$IIMWV,142,R,02.9,N,A*1F
$IIMWV,164,T,06.1,N,A*11
$IIRMC,172751,A,4630.016,N,00640.229,E,03.9,318,290415,01,E,A*0C
$IIVHW,,,314,M,03.6,N,,*67
$IIVLW,01636,N,003.3,N*51
$IIVWR,142,R,02.8,N,,,,*6C
$IIDPT,010.4,-1.0,*45
$IIGLL,4630.016,N,00640.229,E,172751,A,A*5A
$IIHDG,314,,,01,E*15
$IIMTW,+09.0,C*31
$IIMWV,144,R,02.7,N,A*17
$IIMWV,164,T,06.0,N,A*10
$IIRMC,172752,A,4630.017,N,00640.227,E,03.9,317,290415,01,E,A*0F
$IIVHW,,,314,M,03.6,N,,*67
$IIVLW,01636,N,003.3,N*51
$IIVWR,144,R,02.7,N,,,,*65
$IIDPT,010.4,-1.0,*45
$IIGLL,4630.017,N,00640.227,E,172752,A,A*56
$IIHDG,314,,,01,E*15
$IIMTW,+09.0,C*31
$IIMWV,144,R,02.6,N,A*16
$IIMWV,165,T,05.8,N,A*1A
$IIRMC,172753,A,4630.018,N,00640.226,E,03.9,317,290415,01,E,A*00
$IIVHW,,,314,M,03.5,N,,*64
$IIVLW,01636,N,003.3,N*51
$IIVWR,144,R,02.6,N,,,,*64
$IIDPT,010.4,-1.0,*45
$IIGLL,4630.018,N,00640.226,E,172753,A,A*59
$IIHDG,313,,,01,E*12
$IIMTW,+09.0,C*31
$IIMWV,147,R,02.7,N,A*14
$IIMWV,165,T,05.8,N,A*1A
$IIRMC,172754,A,4630.019,N,00640.225,E,03.9,317,290415,01,E,A*05
$IIVHW,,,313,M,03.5,N,,*63
$IIVLW,01636,N,003.3,N*51
$IIVWR,147,R,02.7,N,,,,*66
$IIDPT,010.4,-1.0,*45
$IIGLL,4630.020,N,00640.224,E,172755,A,A*56
$IIHDG,313,,,01,E*12
$IIMTW,+09.0,C*31
$IIMWV,149,R,02.6,N,A*1B
$IIMWV,166,T,05.9,N,A*18
$IIRMC,172755,A,4630.020,N,00640.224,E,03.9,317,290415,01,E,A*0F
$IIVHW,,,313,M,03.5,N,,*63
$IIVLW,01636,N,003.3,N*51
$IIVWR,149,R,02.6,N,,,,*69
$IIDPT,010.4,-1.0,*45
$IIGLL,4630.021,N,00640.223,E,172756,A,A*53
$IIHDG,313,,,01,E*12
$IIMTW,+09.0,C*31
$IIMWV,153,R,02.7,N,A*11
$IIMWV,168,T,05.9,N,A*16
$IIRMC,172756,A,4630.021,N,00640.223,E,03.9,317,290415,01,E,A*0A
$IIVHW,,,313,M,03.5,N,,*63
$IIVLW,01636,N,003.3,N*51
$IIVWR,156,R,03.1,N,,,,*61
$IIDPT,010.4,-1.0,*45
$IIGLL,4630.022,N,00640.222,E,172757,A,A*50
$IIHDG,313,,,01,E*12
$IIMTW,+09.0,C*31
$IIMWV,156,R,03.1,N,A*13
$IIMWV,169,T,06.1,N,A*1C
$IIRMC,172757,A,4630.022,N,00640.222,E,03.8,316,290415,01,E,A*09
$IIVHW,,,313,M,03.5,N,,*63
$IIVLW,01636,N,003.3,N*51
$IIVWR,151,R,02.9,N,,,,*6F
$IIDPT,010.5,-1.0,*44
$IIGLL,4630.022,N,00640.221,E,172758,A,A*5C
$IIHDG,312,,,01,E*13
$IIMTW,+09.0,C*31
$IIMWV,151,R,02.9,N,A*1D
$IIMWV,169,T,06.5,N,A*18
$IIRMC,172758,A,4630.022,N,00640.221,E,03.8,317,290415,01,E,A*04
$IIVHW,,,312,M,03.5,N,,*62
$IIVLW,01636,N,003.3,N*51
$IIVWR,150,R,02.8,N,,,,*6F
$IIDPT,010.5,-1.0,*44
$IIGLL,4630.023,N,00640.220,E,172759,A,A*5D
$IIHDG,312,,,01,E*13
$IIMTW,+09.0,C*31
$IIMWV,150,R,02.8,N,A*1D
$IIMWV,168,T,06.2,N,A*1E
$IIRMC,172800,A,4630.024,N,00640.219,E,03.9,315,290415,01,E,A*08
$IIVHW,,,312,M,03.5,N,,*62
$IIVLW,01636,N,003.3,N*51
$IIVWR,150,R,02.7,N,,,,*60
$IIDPT,010.5,-1.0,*44
$IIGLL,4630.024,N,00640.219,E,172800,A,A*53
$IIHDG,312,,,01,E*13
$IIMTW,+09.0,C*31
$IIMWV,150,R,02.7,N,A*12
$IIMWV,168,T,06.0,N,A*1C
$IIRMC,172801,A,4630.025,N,00640.218,E,03.8,316,290415,01,E,A*0B
$IIVHW,,,311,M,03.5,N,,*61
$IIVLW,01636,N,003.3,N*51
$IIVWR,152,R,03.0,N,,,,*64
$IIDPT,010.5,-1.0,*44
$IIGLL,4630.025,N,00640.218,E,172801,A,A*52
$IIHDG,311,,,01,E*10
$IIMTW,+09.0,C*31
$IIMWV,151,R,03.3,N,A*16
$IIMWV,167,T,06.2,N,A*11
$IIRMC,172802,A,4630.025,N,00640.217,E,03.8,316,290415,01,E,A*07
$IIVHW,,,311,M,03.5,N,,*61
$IIVLW,01636,N,003.3,N*51
$IIVWR,151,R,03.3,N,,,,*64
$IIDPT,010.5,-1.0,*44
$IIGLL,4630.025,N,00640.217,E,172802,A,A*5E
$IIHDG,311,,,01,E*10
$IIMTW,+09.5,C*34
$IIMWV,153,R,03.5,N,A*12
$IIMWV,167,T,06.5,N,A*16
$IIRMC,172803,A,4630.026,N,00640.216,E,03.8,316,290415,01,E,A*04
$IIVHW,,,311,M,03.5,N,,*61
$IIVLW,01636,N,003.3,N*51
$IIVWR,153,R,03.5,N,,,,*60
$IIDPT,010.5,-1.0,*44
$IIGLL,4630.026,N,00640.216,E,172803,A,A*5D
$IIHDG,311,,,01,E*10
$IIMTW,+09.5,C*34
$IIMWV,153,R,03.3,N,A*14
$IIMWV,167,T,06.7,N,A*14
$IIRMC,172804,A,4630.027,N,00640.215,E,03.8,315,290415,01,E,A*02
$IIVHW,,,311,M,03.5,N,,*61
$IIVLW,01636,N,003.3,N*51
$IIVWR,153,R,03.3,N,,,,*66
$IIDPT,010.5,-1.0,*44
$IIGLL,4630.028,N,00640.213,E,172805,A,A*50
$IIHDG,311,,,01,E*10
$IIMTW,+09.0,C*31
$IIMWV,153,R,03.1,N,A*16
$IIMWV,168,T,06.5,N,A*19
$IIRMC,172805,A,4630.028,N,00640.213,E,03.7,316,290415,01,E,A*06
$IIVHW,,,311,M,03.4,N,,*60
$IIVLW,01636,N,003.3,N*51
$IIVWR,153,R,03.1,N,,,,*64
$IIDPT,010.5,-1.0,*44
$IIGLL,4630.029,N,00640.211,E,172807,A,A*51
$IIHDG,311,,,01,E*10
$IIMTW,+09.0,C*31
$IIMWV,158,R,03.2,N,A*1E
$IIMWV,168,T,06.5,N,A*19
$IIRMC,172807,A,4630.029,N,00640.211,E,03.7,316,290415,01,E,A*07
$IIVHW,,,311,M,03.4,N,,*60
$IIVLW,01636,N,003.3,N*51
$IIVWR,159,R,03.0,N,,,,*6F
$IIDPT,010.5,-1.0,*44
$IIGLL,4630.030,N,00640.210,E,172808,A,A*57
$IIHDG,312,,,01,E*13
$IIMTW,+09.0,C*31
$IIMWV,159,R,03.0,N,A*1D
$IIMWV,170,T,06.3,N,A*16
$IIRMC,172808,A,4630.030,N,00640.210,E,03.7,317,290415,01,E,A*00
$IIVHW,,,312,M,03.4,N,,*63
$IIVLW,01636,N,003.3,N*51
$IIVWR,161,R,02.9,N,,,,*6C
$IIDPT,010.5,-1.0,*44
$IIGLL,4630.031,N,00640.209,E,172809,A,A*5F
$IIHDG,312,,,01,E*13
$IIMTW,+08.5,C*35
$IIMWV,161,R,02.9,N,A*1E
$IIMWV,171,T,06.1,N,A*15
$IIRMC,172809,A,4630.031,N,00640.209,E,03.7,317,290415,01,E,A*08
$IIVHW,,,312,M,03.3,N,,*64
$IIVLW,01636,N,003.3,N*51
$IIVWR,159,R,02.7,N,,,,*69
$IIDPT,010.5,-1.0,*44
$IIGLL,4630.032,N,00640.208,E,172810,A,A*55
$IIHDG,312,,,01,E*13
$IIMTW,+08.5,C*35
$IIMWV,159,R,02.7,N,A*1B
$IIMWV,171,T,06.1,N,A*15
$IIRMC,172811,A,4630.033,N,00640.207,E,03.7,318,290415,01,E,A*02
$IIVHW,,,312,M,03.3,N,,*64
$IIVLW,01636,N,003.3,N*51
$IIVWR,154,R,02.6,N,,,,*65
$IIDPT,010.5,-1.0,*44
$IIVLW,01636,N,003.5,N*57
$IIVWR,024,L,09.8,N,,,,*78
$IIHDG,157,,,01,E*10
$IIMTW,+09.0,C*31
$IIMWV,336,R,09.8,N,A*14
$IIMWV,322,T,05.9,N,A*1A
$IIRMC,173232,A,4629.926,N,00640.160,E,04.1,161,290415,01,E,A*02
$IIVHW,,,157,M,04.1,N,,*62
$IIVLW,01636,N,003.5,N*57
$IIVWR,023,L,09.7,N,,,,*70
$IIDPT,067.4,-1.0,*45
$IIGLL,4629.925,N,00640.161,E,173233,A,A*54
$IIHDG,157,,,01,E*10
$IIMTW,+09.0,C*31
$IIMWV,337,R,09.7,N,A*1A
$IIMWV,320,T,06.1,N,A*13
$IIRMC,173234,A,4629.924,N,00640.161,E,04.1,161,290415,01,E,A*07
$IIVHW,,,157,M,04.2,N,,*61
$IIVLW,01636,N,003.5,N*57
$IIVWR,024,L,09.9,N,,,,*79
$IIDPT,067.4,-1.0,*45
$IIGLL,4629.924,N,00640.161,E,173234,A,A*52
$IIHDG,157,,,01,E*10
$IIMTW,+09.5,C*34
$IIMWV,336,R,09.9,N,A*15
$IIMWV,320,T,06.2,N,A*10
$IIRMC,173235,A,4629.923,N,00640.162,E,04.1,161,290415,01,E,A*02
$IIVHW,,,158,M,04.2,N,,*6E
$IIVLW,01636,N,003.5,N*57
$IIVWR,024,L,09.8,N,,,,*78
$IIDPT,055.5,-1.0,*45
$IIGLL,4629.923,N,00640.162,E,173235,A,A*57
$IIHDG,158,,,01,E*1F
$IIMTW,+09.5,C*34
$IIMWV,337,R,09.9,N,A*14
$IIMWV,320,T,06.1,N,A*13
$IIRMC,173236,A,4629.922,N,00640.162,E,04.1,160,290415,01,E,A*01
$IIVHW,,,157,M,04.2,N,,*61
$IIVLW,01636,N,003.5,N*57
$IIVWR,023,L,09.9,N,,,,*7E
$IIDPT,055.5,-1.0,*45
$IIGLL,4629.922,N,00640.162,E,173236,A,A*55
$IIHDG,157,,,01,E*10
$IIMTW,+09.5,C*34
$IIMWV,337,R,09.8,N,A*15
$IIMWV,322,T,06.2,N,A*12
$IIRMC,173237,A,4629.921,N,00640.163,E,04.1,160,290415,01,E,A*02
$IIVHW,,,157,M,04.2,N,,*61
$IIVLW,01636,N,003.5,N*57
$IIVWR,023,L,09.8,N,,,,*7F
$IIDPT,055.5,-1.0,*45
$IIGLL,4629.921,N,00640.163,E,173237,A,A*56
$IIHDG,157,,,01,E*10
$IIMTW,+09.0,C*31
$IIMWV,337,R,10.0,N,A*15
$IIMWV,322,T,06.1,N,A*11
$IIRMC,173238,A,4629.920,N,00640.163,E,04.1,160,290415,01,E,A*0C
$IIVHW,,,157,M,04.2,N,,*61
$IIVLW,01636,N,003.5,N*57
$IIVWR,023,L,10.0,N,,,,*7F
$IIDPT,055.5,-1.0,*45
$IIGLL,4629.919,N,00640.164,E,173239,A,A*54
$IIHDG,157,,,01,E*10
$IIMTW,+09.5,C*34
$IIMWV,336,R,09.8,N,A*14
$IIMWV,322,T,06.3,N,A*13
$IIRMC,173239,A,4629.919,N,00640.164,E,04.1,161,290415,01,E,A*01
$IIVHW,,,157,M,04.2,N,,*61
$IIVLW,01636,N,003.5,N*57
$IIVWR,024,L,09.8,N,,,,*78
$IIDPT,055.5,-1.0,*45
$IIGLL,4629.918,N,00640.164,E,173240,A,A*5B
$IIHDG,157,,,01,E*10
$IIMTW,+09.5,C*34
$IIMWV,336,R,09.6,N,A*1A
$IIMWV,320,T,06.1,N,A*13
$IIRMC,173240,A,4629.918,N,00640.164,E,04.1,161,290415,01,E,A*0E
$IIVHW,,,157,M,04.2,N,,*61
$IIVLW,01636,N,003.5,N*57
$IIVWR,023,L,09.8,N,,,,*7F
$IIDPT,055.5,-1.0,*45
$IIGLL,4629.917,N,00640.165,E,173241,A,A*54
$IIHDG,157,,,01,E*10
$IIMTW,+09.5,C*34
$IIMWV,337,R,09.8,N,A*15
$IIMWV,318,T,05.8,N,A*12
$IIRMC,173241,A,4629.917,N,00640.165,E,04.1,161,290415,01,E,A*01
$IIVHW,,,157,M,04.2,N,,*61
$IIVLW,01636,N,003.5,N*57
$IIVWR,024,L,09.8,N,,,,*78
$IIDPT,010.2,-1.0,*43
$IIGLL,4629.916,N,00640.165,E,173242,A,A*56
$IIHDG,157,,,01,E*10
$IIMTW,+09.0,C*31
$IIMWV,336,R,09.8,N,A*14
$IIMWV,321,T,06.0,N,A*13
$IIRMC,173242,A,4629.916,N,00640.165,E,04.0,160,290415,01,E,A*03
$IIVHW,,,157,M,04.2,N,,*61
$IIVLW,01636,N,003.5,N*57
$IIVWR,022,L,09.7,N,,,,*71
$IIDPT,010.2,-1.0,*43
$IIGLL,4629.915,N,00640.166,E,173243,A,A*57
$IIHDG,157,,,01,E*10
$IIMTW,+09.0,C*31
$IIMWV,338,R,09.7,N,A*15
$IIMWV,319,T,06.0,N,A*18
$IIRMC,173244,A,4629.914,N,00640.167,E,04.0,160,290415,01,E,A*05
$IIVHW,,,157,M,04.2,N,,*61
$IIVLW,01636,N,003.5,N*57
$IIVWR,023,L,09.5,N,,,,*72
$IIDPT,010.0,-1.0,*41
$IIGLL,4629.914,N,00640.167,E,173244,A,A*50
$IIHDG,157,,,01,E*10
$IIMTW,+10.0,C*39
$IIMWV,337,R,09.5,N,A*18
$IIMWV,320,T,05.7,N,A*16
$IIRMC,173245,A,4629.913,N,00640.167,E,04.0,160,290415,01,E,A*03
$IIVHW,,,157,M,04.2,N,,*61
$IIVLW,01636,N,003.5,N*57
$IIVWR,021,L,09.8,N,,,,*7D
$IIDPT,010.0,-1.0,*41
$IIGLL,4629.913,N,00640.167,E,173245,A,A*56
$IIHDG,157,,,01,E*10
$IIMTW,+09.0,C*31
$IIMWV,340,R,09.6,N,A*1B
$IIMWV,324,T,05.9,N,A*1C
$IIRMC,173246,A,4629.912,N,00640.167,E,04.0,160,290415,01,E,A*01
$IIVHW,,,157,M,04.2,N,,*61
$IIVLW,01636,N,003.5,N*57
$IIVWR,020,L,09.6,N,,,,*72
$IIDPT,010.4,-1.0,*45
$IIGLL,4629.912,N,00640.167,E,173246,A,A*54
$IIHDG,157,,,01,E*10
$IIMTW,+08.5,C*35
$IIMWV,339,R,09.9,N,A*1A
$IIMWV,326,T,05.6,N,A*11
$IIRMC,173247,A,4629.911,N,00640.168,E,03.9,160,290415,01,E,A*02
$IIVHW,,,157,M,04.2,N,,*61
$IIVLW,01636,N,003.5,N*57
$IIVWR,021,L,09.9,N,,,,*7C
$IIDPT,010.2,-1.0,*43
$IIGLL,4629.911,N,00640.168,E,173247,A,A*59
$IIHDG,157,,,01,E*10
$IIMTW,+09.5,C*34
$IIMWV,340,R,09.8,N,A*15
$IIMWV,325,T,06.1,N,A*16
$IIRMC,173248,A,4629.910,N,00640.169,E,03.9,161,290415,01,E,A*0C
$IIVHW,,,157,M,04.2,N,,*61
$IIVLW,01636,N,003.5,N*57
$IIVWR,020,L,09.8,N,,,,*7C
$IIDPT,010.4,-1.0,*45
$IIGLL,4629.909,N,00640.169,E,173249,A,A*5F
$IIHDG,157,,,01,E*10
$IIMTW,+08.5,C*35
$IIMWV,339,R,09.7,N,A*14
$IIMWV,327,T,05.9,N,A*1F
$IIRMC,173249,A,4629.909,N,00640.169,E,03.9,162,290415,01,E,A*06
$IIVHW,,,157,M,04.2,N,,*61
$IIVLW,01636,N,003.5,N*57
$IIVWR,021,L,09.7,N,,,,*72
$IIDPT,010.4,-1.0,*45
$IIGLL,4629.908,N,00640.170,E,173250,A,A*5E
$IIHDG,157,,,01,E*10
$IIMTW,+09.5,C*34
$IIMWV,339,R,09.5,N,A*16
$IIMWV,325,T,05.8,N,A*1C
$IIRMC,173250,A,4629.908,N,00640.170,E,04.3,163,290415,01,E,A*0B
$IIVHW,,,157,M,04.2,N,,*61
$IIVLW,01636,N,003.5,N*57
$IIVWR,022,L,09.3,N,,,,*75
$IIDPT,010.4,-1.0,*45
$IIGLL,4629.907,N,00640.170,E,173251,A,A*50
$IIHDG,157,,,01,E*10
$IIMTW,+10.0,C*39
$IIMWV,338,R,09.3,N,A*11
$IIMWV,323,T,05.7,N,A*15
$IIRMC,173251,A,4629.907,N,00640.170,E,04.0,162,290415,01,E,A*07
$IIVHW,,,157,M,04.2,N,,*61
$IIVLW,01636,N,003.5,N*57
$IIVWR,021,L,09.8,N,,,,*7D
$IIDPT,010.3,-1.0,*42
$IIGLL,4629.906,N,00640.171,E,173252,A,A*53
$IIHDG,157,,,01,E*10
$IIMTW,+09.5,C*34
$IIMWV,339,R,09.8,N,A*1B
$IIMWV,322,T,05.5,N,A*16
$IIRMC,173252,A,4629.906,N,00640.171,E,03.8,160,290415,01,E,A*09
$IIVHW,,,157,M,04.1,N,,*62
$IIVLW,01636,N,003.5,N*57
$IIVWR,020,L,09.2,N,,,,*76
$IIDPT,010.3,-1.0,*42
$IIGLL,4629.905,N,00640.172,E,173253,A,A*52
$IIHDG,157,,,01,E*10
$IIMTW,+09.0,C*31
$IIMWV,340,R,09.2,N,A*1F
$IIMWV,324,T,06.0,N,A*16
$IIRMC,173254,A,4629.904,N,00640.172,E,04.1,161,290415,01,E,A*01
$IIVHW,,,157,M,04.1,N,,*62
$IIVLW,01636,N,003.5,N*57
$IIVWR,021,L,09.2,N,,,,*77
$IIDPT,010.3,-1.0,*42
$IIGLL,4629.904,N,00640.172,E,173254,A,A*54
$IIHDG,157,,,01,E*10
$IIMTW,+10.0,C*39
$IIMWV,339,R,09.2,N,A*11
$IIMWV,323,T,05.4,N,A*16
$IIRMC,173255,A,4629.903,N,00640.173,E,03.9,161,290415,01,E,A*09
$IIVHW,,,157,M,04.1,N,,*62
$IIVLW,01636,N,003.5,N*57
$IIMWV,161,T,10.0,N,A*12
$IIRMC,182847,A,4629.648,N,00642.061,E,05.3,306,290415,01,E,A*01
$IIVHW,,,301,M,05.1,N,,*62
$IIVLW,01640,N,003.3,N*50
$IIVWR,143,R,05.5,N,,,,*67
$IIDPT,009.6,-1.0,*4F
$IIGLL,4629.648,N,00642.061,E,182847,A,A*54
$IIHDG,301,,,01,E*11
$IIMTW,+09.0,C*31
$IIMWV,143,R,05.5,N,A*15
$IIMWV,161,T,10.0,N,A*12
$IIRMC,182848,A,4629.649,N,00642.059,E,05.3,305,290415,01,E,A*07
$IIVHW,,,301,M,05.1,N,,*62
$IIVLW,01640,N,003.3,N*50
$IIVWR,144,R,05.6,N,,,,*63
$IIDPT,009.6,-1.0,*4F
$IIGLL,4629.649,N,00642.059,E,182848,A,A*51
$IIHDG,301,,,01,E*11
$IIMTW,+09.0,C*31
$IIMWV,142,R,05.6,N,A*17
$IIMWV,161,T,10.1,N,A*13
$IIRMC,182849,A,4629.650,N,00642.057,E,05.3,305,290415,01,E,A*00
$IIVHW,,,301,M,05.1,N,,*62
$IIVLW,01640,N,003.3,N*50
$IIVWR,142,R,05.6,N,,,,*65
$IIDPT,009.5,-1.0,*4C
$IIGLL,4629.650,N,00642.057,E,182849,A,A*56
$IIHDG,301,,,01,E*11
$IIMTW,+09.0,C*31
$IIMWV,141,R,05.6,N,A*14
$IIMWV,160,T,10.1,N,A*12
$IIRMC,182850,A,4629.651,N,00642.055,E,05.4,307,290415,01,E,A*0E
$IIVHW,,,301,M,05.1,N,,*62
$IIVLW,01640,N,003.3,N*50
$IIVWR,141,R,05.6,N,,,,*66
$IIDPT,009.5,-1.0,*4C
$IIGLL,4629.651,N,00642.055,E,182850,A,A*5D
$IIHDG,301,,,01,E*11
$IIMTW,+09.0,C*31
$IIMWV,139,R,05.6,N,A*1B
$IIMWV,160,T,10.1,N,A*12
$IIRMC,182851,A,4629.652,N,00642.054,E,05.1,306,290415,01,E,A*09
$IIVHW,,,301,M,05.1,N,,*62
$IIVLW,01640,N,003.3,N*50
$IIVWR,139,R,05.6,N,,,,*69
$IIDPT,009.5,-1.0,*4C
$IIGLL,4629.652,N,00642.053,E,182852,A,A*5A
$IIHDG,301,,,01,E*11
$IIMTW,+09.0,C*31
$IIMWV,139,R,05.8,N,A*15
$IIMWV,159,T,10.0,N,A*19
$IIRMC,182852,A,4629.652,N,00642.053,E,05.4,306,290415,01,E,A*08
$IIVHW,,,301,M,05.2,N,,*61
$IIVLW,01640,N,003.3,N*50
$IIVWR,139,R,05.8,N,,,,*67
$IIDPT,009.1,-1.0,*48
$IIGLL,4629.653,N,00642.051,E,182853,A,A*58
$IIHDG,301,,,01,E*11
$IIMTW,+09.5,C*34
$IIMWV,140,R,06.0,N,A*10
$IIMWV,158,T,10.2,N,A*1A
$IIRMC,182853,A,4629.653,N,00642.051,E,05.3,306,290415,01,E,A*0D
$IIVHW,,,301,M,05.2,N,,*61
$IIVLW,01640,N,003.3,N*50
$IIVWR,140,R,06.2,N,,,,*60
$IIDPT,009.5,-1.0,*4C
$IIGLL,4629.654,N,00642.049,E,182854,A,A*51
$IIHDG,301,,,01,E*11
$IIMTW,+09.5,C*34
$IIMWV,140,R,06.2,N,A*12
$IIMWV,159,T,10.5,N,A*1C
$IIRMC,182854,A,4629.654,N,00642.049,E,05.3,305,290415,01,E,A*07
$IIVHW,,,301,M,05.2,N,,*61
$IIVLW,01640,N,003.3,N*50
$IIVWR,140,R,06.4,N,,,,*66
$IIDPT,011.3,-1.0,*43
$IIGLL,4629.655,N,00642.047,E,182855,A,A*5F
$IIHDG,301,,,01,E*11
$IIMTW,+09.5,C*34
$IIMWV,140,R,06.4,N,A*14
$IIMWV,159,T,10.6,N,A*1F
$IIRMC,182855,A,4629.655,N,00642.047,E,05.3,307,290415,01,E,A*0B
$IIVHW,,,301,M,05.2,N,,*61
$IIVLW,01640,N,003.3,N*50
$IIVWR,140,R,06.7,N,,,,*65
$IIDPT,011.3,-1.0,*43
$IIGLL,4629.656,N,00642.045,E,182856,A,A*5D
$IIHDG,301,,,01,E*11
$IIMTW,+09.0,C*31
$IIMWV,140,R,06.7,N,A*17
$IIMWV,159,T,10.8,N,A*11
$IIRMC,182857,A,4629.657,N,00642.043,E,05.6,310,290415,01,E,A*0C
$IIVHW,,,301,M,05.3,N,,*60
$IIVLW,01640,N,003.3,N*50
$IIVWR,141,R,06.9,N,,,,*6A
$IIDPT,011.4,-1.0,*44
$IIGLL,4629.657,N,00642.043,E,182857,A,A*5B
$IIHDG,301,,,01,E*11
$IIMTW,+09.0,C*31
$IIMWV,141,R,06.9,N,A*18
$IIMWV,158,T,11.4,N,A*1D
$IIRMC,182858,A,4629.658,N,00642.041,E,05.6,310,290415,01,E,A*0E
$IIVHW,,,301,M,05.3,N,,*60
$IIVLW,01640,N,003.3,N*50
$IIVWR,141,R,07.1,N,,,,*63
$IIDPT,015.0,-1.0,*44
$IIGLL,4629.658,N,00642.041,E,182858,A,A*59
$IIHDG,301,,,01,E*11
$IIMTW,+09.0,C*31
$IIMWV,140,R,07.2,N,A*13
$IIMWV,158,T,11.6,N,A*1F
$IIRMC,182859,A,4629.659,N,00642.040,E,05.6,310,290415,01,E,A*0F
$IIVHW,,,302,M,05.3,N,,*63
$IIVLW,01640,N,003.3,N*50
$IIVWR,140,R,07.2,N,,,,*61
$IIDPT,015.0,-1.0,*44
$IIGLL,4629.659,N,00642.040,E,182859,A,A*58
$IIHDG,302,,,01,E*12
$IIMTW,+09.0,C*31
$IIMWV,137,R,07.3,N,A*12
$IIMWV,157,T,11.8,N,A*1E
$IIRMC,182900,A,4629.660,N,00642.038,E,05.6,309,290415,01,E,A*0F
$IIVHW,,,303,M,05.4,N,,*65
$IIVLW,01640,N,003.3,N*50
$IIVWR,137,R,07.3,N,,,,*60
$IIDPT,015.0,-1.0,*44
$IIGLL,4629.660,N,00642.038,E,182900,A,A*50
$IIHDG,303,,,01,E*13
$IIMTW,+09.0,C*31
$IIMWV,137,R,07.3,N,A*12
$IIMWV,155,T,11.7,N,A*13
$IIRMC,182901,A,4629.661,N,00642.036,E,05.6,309,290415,01,E,A*01
$IIVHW,,,303,M,05.4,N,,*65
$IIVLW,01640,N,003.3,N*50
$IIVWR,137,R,07.3,N,,,,*60
$IIDPT,038.1,-1.0,*4A
$IIGLL,4629.662,N,00642.034,E,182902,A,A*5C
$IIHDG,303,,,01,E*13
$IIMTW,+09.0,C*31
$IIMWV,138,R,07.4,N,A*1A
$IIMWV,155,T,11.7,N,A*13
$IIRMC,182902,A,4629.662,N,00642.034,E,05.6,310,290415,01,E,A*0B
$IIVHW,,,303,M,05.4,N,,*65
$IIVLW,01640,N,003.3,N*50
$IIVWR,138,R,07.4,N,,,,*68
$IIDPT,038.1,-1.0,*4A
$IIGLL,4629.663,N,00642.032,E,182903,A,A*5A
$IIHDG,303,,,01,E*13
$IIMTW,+09.0,C*31
$IIMWV,140,R,07.3,N,A*12
$IIMWV,156,T,11.9,N,A*1E
$IIRMC,182903,A,4629.663,N,00642.032,E,05.6,308,290415,01,E,A*04
$IIVHW,,,303,M,05.5,N,,*64
$IIVLW,01640,N,003.3,N*50
$IIVWR,141,R,07.1,N,,,,*63
$IIDPT,038.1,-1.0,*4A
$IIGLL,4629.664,N,00642.031,E,182904,A,A*59
$IIHDG,303,,,01,E*13
$IIMTW,+09.5,C*34
$IIMWV,141,R,07.1,N,A*11
$IIMWV,157,T,12.0,N,A*15
$IIRMC,182904,A,4629.664,N,00642.031,E,05.7,307,290415,01,E,A*09
$IIVHW,,,303,M,05.5,N,,*64
$IIVLW,01640,N,003.3,N*50
$IIVWR,142,R,06.9,N,,,,*69
$IIDPT,038.1,-1.0,*4A
$IIGLL,4629.665,N,00642.029,E,182905,A,A*50
$IIHDG,302,,,01,E*12
$IIMTW,+09.5,C*34
$IIMWV,142,R,06.9,N,A*1B
$IIMWV,158,T,11.8,N,A*11
$IIRMC,182905,A,4629.665,N,00642.029,E,05.7,306,290415,01,E,A*01
$IIVHW,,,302,M,05.5,N,,*65
$IIVLW,01640,N,003.3,N*50
$IIVWR,143,R,06.8,N,,,,*69
$IIDPT,010.1,-1.0,*40
$IIGLL,4629.666,N,00642.027,E,182906,A,A*5E
$IIHDG,302,,,01,E*12
$IIMTW,+09.0,C*31
$IIMWV,143,R,06.8,N,A*1B
$IIMWV,159,T,11.6,N,A*1E
$IIRMC,182907,A,4629.667,N,00642.025,E,05.7,305,290415,01,E,A*0E
$IIVHW,,,302,M,05.5,N,,*65
$IIVLW,01640,N,003.3,N*50
$IIVWR,142,R,06.7,N,,,,*67
$IIDPT,009.9,-1.0,*40
$IIGLL,4629.667,N,00642.025,E,182907,A,A*5C
$IIHDG,302,,,01,E*12
$IIMTW,+09.0,C*31
$IIMWV,142,R,06.7,N,A*15
$IIMWV,159,T,11.5,N,A*1D
$IIRMC,182908,A,4629.668,N,00642.024,E,05.7,305,290415,01,E,A*0F
$IIVHW,,,301,M,05.6,N,,*65
$IIVLW,01640,N,003.3,N*50
$IIVWR,143,R,06.6,N,,,,*67
$IIDPT,009.9,-1.0,*40
$IIGLL,4629.668,N,00642.024,E,182908,A,A*5D
$IIHDG,301,,,01,E*11
$IIMTW,+09.0,C*31
$IIMWV,142,R,06.4,N,A*16
$IIMWV,160,T,11.4,N,A*16
$IIRMC,182909,A,4629.669,N,00642.022,E,05.7,305,290415,01,E,A*09
$IIVHW,,,301,M,05.6,N,,*65
$IIVLW,01640,N,003.3,N*50
$IIVWR,142,R,06.4,N,,,,*64
$IIDPT,009.9,-1.0,*40
$IIGLL,4629.669,N,00642.022,E,182909,A,A*5B
$IIHDG,301,,,01,E*11
