$RRêÅbb25&©Š	Šr3,Š‰IÉ’j*AD
$IIMWV,283,R,04.9,N,A*17
$IIMWV,254,T,05.5,N,A*16
$IIRMC,163350,A,4629.916,N,00640.954,E,03.8,247,290415,01,E,A*03
$IIVHW,,,247,M,02.4,N,,*63
$IIVLW,01633,N,000.0,N*54
$IIVWR,077,L,04.9,N,,,,*72
$IIDPT,013.0,-1.0,*42
$IIGLL,4629.916,N,00640.954,E,163350,A,A*5F
$IIHDG,247,,,01,E*12
$IIMTi	Êr‚b©31*85
$IIVHW,,,247,M,02.6,N,,*61
$IIVWR,079,L,05.1,N,,,,*75
$IIDPT,012.8,-1.0,*4B
$IIGLL,4629.915,N,00640.953,E,163351,A,A*5A
$RRS•IÂš,R	ªr3ÉŠ)©1C*EF
$RRS•IªŠb¢±05.1,N)©17*35
$IIVêÅbb245©Š	’r8,N,IÉ"5*61
$IIVLW,01633,N,000.0,N*54
$IIDPT,012.8,-1.0,*4B
$IIGLŠ‰²’ÊrÊŠ5ÉŠ	‚²¢‚.9MbE,LÓšªšb*B9
$IIVHW,,,&S©Š	’r9,N,,%Ó5*51
$IIVWR,077,L,05.4,N,,,,*7E
$RRS•IÂ‚b’±05.4,Š)©18*AB
$IIVHW,,,245,M,03.1,N,,*65
$IIVLW,01633,N,000.0,N*54
$IIV•Å‚78‰Š	ªrÊbN,‰‰Ié5*1C
$IRSÕi	Êr‚b©31*01
$RRS•IÂ’b’±05.9,Š)©17*B9
$RRS•I¢ºb¢±05.6ÉŠ)©17*2B
$IIVHW,,,245,M,03.2,N,,*66
$IIVêÅ‚1ÓšbN	‚0.br©5SHˆJ%VWR	Â2‰Š	ªr¢,N‰‰‰Iº¢*2A
$IIHÔ±244,,,01©©11*32
$IIMTWi	Êr‚b©31*C7
$IIMWV,250,T,06.0,N,A*14
$IRêÅbb’¢4,S	šršbN,IÉ²j*79
$IIêÅ‚Š²33ÉŠ	‚‚r0ÉJ©¢j*6A
$IRÕ•Å‚ÂŠbb±05‰br±,,Iéºj*B8
$IREÅ‚12IbjŠ.0,%Sj*EB
$IIMWV,279,R,05.4,N,A*1E
$IIMWVI¢¢b¢±05.9,N,A¥5*EB
$RRêÅbb’4©Š	šršbN,IÉ²j*8F
$IIVêÅ‚Š²ššbN	‚‚.0ÉJ©¢j*1A
$IIDEÅ‚Š2.L©)r‚bR¢’j*86
$IIMWV,278,R,05.4,N,A*1F
$IIDEÅ‚Š’rŠbjŠr‚bR¢’j*BE
$IIHDG,244,,,01,E*11
$IRSÕi	Êr‚b©31*01
$IIMWV,277,R,05.3,N,A*17
$IIMWV,245,T,06.2,N,A*12
$IIRMC,163400,A,4629.912,N,00640.941,E,03.7,245,290415,01,E,A*0C
$IIVHW,,,243,M,03.4,N,,*66
$IIVLW,01633,N,000.0,N*54
$IIVWR,083,L,05.3,N,,,,*72
$IIDPT,011.9,-1.0,*49
$IIGLL,4629.912,N,00640.941,E,163400,A,A*5D
$IIHDG,243,,,01,E*16
$IIMTW,+09.0,C*31
$IIMWV,281,R,05.4,N,A*19
$IIMWV,242,T,05.9,N,A*1D
$IIRMC,163401,A,4629.911,N,00640.939,E,03.7,244,290415,01,E,A*00
$IIVHW,,,243,M,03.4,N,,*66
$IIVLW,01633,N,000.0,N*54
$IIVWR,079,L,05.4,N,,,,*70
$IIDPT,011.9,-1.0,*49
$IIGLL,4629.911,N,00640.939,E,163401,A,A*50
$IIHDG,242,,,01,E*17
$IIMTW,+11.0,C*38
$IIMWV,279,R,05.1,N,A*1B
$IIMWV,244,T,05.7,N,A*15
$IIRMC,163402,A,4629.911,N,00640.938,E,03.7,244,290415,01,E,A*02
$IIVHW,,,242,M,03.4,N,,*67
$IIVLW,01633,N,000.0,N*54
$IIVWR,081,L,05.1,N,,,,*72
$IIDPT,011.8,-1.0,*48
$IIGLL,4629.911,N,00640.936,E,163403,A,A*5D
$IIHDG,242,,,01,E*17
$IIMTW,+09.5,C*34
$IIMWV,282,R,04.9,N,A*16
$IIMWV,241,T,05.6,N,A*11
$IIRMC,163403,A,4629.911,N,00640.936,E,03.7,243,290415,01,E,A*0A
$IIVHW,,,242,M,03.5,N,,*66
$IIVLW,01633,N,000.0,N*54
$IIVWR,078,L,04.9,N,,,,*7D
$IIDPT,011.8,-1.0,*48
$IIGLL,4629.910,N,00640.935,E,163404,A,A*58
$IIHDG,242,,,01,E*17
$IIMTW,+11.5,C*3D
$IIMWV,279,R,05.8,N,A*12
$IIMWV,243,T,05.4,N,A*11
$IIRMC,163404,A,4629.910,N,00640.935,E,03.7,244,290415,01,E,A*08
$IIVHW,,,242,M,03.5,N,,*66
$IIVLW,01633,N,000.0,N*54
$IIVWR,076,L,06.1,N,,,,*79
$IIDPT,011.8,-1.0,*48
$IIGLL,4629.910,N,00640.933,E,163405,A,A*5F
$IIHDG,242,,,01,E*17
$IIMTW,+09.5,C*34
$IIMWV,284,R,06.1,N,A*1A
$IIMWV,245,T,06.2,N,A*12
$IIRMC,163405,A,4629.910,N,00640.933,E,03.7,243,290415,01,E,A*08
$IIVHW,,,242,M,03.5,N,,*66
$IIVLW,01633,N,000.0,N*54
$IIVWR,081,L,05.5,N,,,,*76
$IIDPT,011.8,-1.0,*48
$IIGLL,4629.909,N,00640.932,E,163406,A,A*55
$IIHDG,241,,,01,E*14
$IIMTW,+09.5,C*34
$IIMWV,279,R,05.5,N,A*1F
$IIMWV,250,T,06.2,N,A*16
$IIRMC,163406,A,4629.909,N,00640.932,E,03.7,244,290415,01,E,A*05
$IIVHW,,,241,M,03.5,N,,*65
$IIVLW,01633,N,000.0,N*54
$IIVWR,074,L,05.1,N,,,,*78
$IIDPT,011.8,-1.0,*48
$IIGLL,4629.909,N,00640.931,E,163407,A,A*57
$IIHDG,241,,,01,E*14
$IIMTW,+09.5,C*34
$IIMWV,286,R,05.1,N,A*1B
$IIMWV,243,T,06.0,N,A*16
$IIRMC,163408,A,4629.908,N,00640.929,E,03.7,243,290415,01,E,A*07
$IIVHW,,,241,M,03.5,N,,*65
$IIVLW,01633,N,000.0,N*54
$IIVWR,078,L,04.9,N,,,,*7D
$IIDPT,011.8,-1.0,*48
$IIGLL,4629.908,N,00640.929,E,163408,A,A*50
$IIHDG,241,,,01,E*14
$IIMTW,+09.5,C*34
$IIMWV,282,R,04.9,N,A*16
$IIMWV,243,T,05.4,N,A*11
$IIRMC,163409,A,4629.908,N,00640.928,E,03.6,244,290415,01,E,A*01
$IIVHW,,,241,M,03.5,N,,*65
$IIVLW,01633,N,000.0,N*54
$IIVWR,076,L,04.9,N,,,,*73
$IIDPT,011.8,-1.0,*48
$IIGLL,4629.908,N,00640.928,E,163409,A,A*50
$IIHDG,241,,,01,E*14
$IIMTW,+09.5,C*34
$IIMWV,280,R,06.0,N,A*1F
$IIMWV,243,T,05.2,N,A*17
$IIVWR,025,R,10.0,N,,,,*67
$IIDPT,010.9,-1.0,*48
$IIVHW,,,085,M,03.9,N,,*63
$IIVLW,01635,N,002.3,N*53
$IIVWR,024,R,10.0,N,,,,*66
$IIDPT,011.0,-1.0,*40
$IIGLL,4629.908,N,00640.489,E,171139,A,A*53
$IIHDG,085,,,01,E*1E
$IIMTW,+09.0,C*31
$IIMWV,024,R,10.0,N,A*14
$IIMWV,039,T,06.6,N,A*1F
$IIRMC,171139,A,4629.908,N,00640.489,E,02.3,107,290415,01,E,A*02
$IIVHW,,,085,M,03.9,N,,*63
$IIVLW,01635,N,002.3,N*53
$IIVWR,024,R,09.8,N,,,,*66
$IIDPT,011.0,-1.0,*40
$IIGLL,4629.908,N,00640.490,E,171140,A,A*55
$IIHDG,085,,,01,E*1E
$IIMTW,+09.5,C*34
$IIMWV,024,R,09.8,N,A*14
$IIMWV,038,T,06.6,N,A*1E
$IIRMC,171141,A,4629.908,N,00640.492,E,03.4,101,290415,01,E,A*07
$IIVHW,,,085,M,03.9,N,,*63
$IIVLW,01635,N,002.3,N*53
$IIVWR,025,R,09.6,N,,,,*69
$IIDPT,011.0,-1.0,*40
$IIGLL,4629.908,N,00640.492,E,171141,A,A*56
$IIHDG,085,,,01,E*1E
$IIMTW,+09.0,C*31
$IIMWV,025,R,09.6,N,A*1B
$IIMWV,040,T,06.2,N,A*15
$IIRMC,171142,A,4629.908,N,00640.493,E,03.7,088,290415,01,E,A*06
$IIVHW,,,085,M,03.9,N,,*63
$IIVLW,01635,N,002.3,N*53
$IIVWR,025,R,09.8,N,,,,*67
$IIDPT,011.0,-1.0,*40
$IIGLL,4629.908,N,00640.493,E,171142,A,A*54
$IIHDG,085,,,01,E*1E
$IIMTW,+09.0,C*31
$IIMWV,026,R,09.7,N,A*19
$IIMWV,039,T,06.4,N,A*1D
$IIRMC,171143,A,4629.908,N,00640.495,E,03.1,087,290415,01,E,A*08
$IIVHW,,,085,M,03.9,N,,*63
$IIVLW,01635,N,002.3,N*53
$IIVWR,026,R,09.7,N,,,,*6B
$IIDPT,011.0,-1.0,*40
$IIGLL,4629.908,N,00640.495,E,171143,A,A*53
$IIHDG,085,,,01,E*1E
$IIMTW,+09.5,C*34
$IIMWV,025,R,09.5,N,A*18
$IIMWV,041,T,06.3,N,A*15
$IIRMC,171144,A,4629.908,N,00640.496,E,03.5,084,290415,01,E,A*0B
$IIVHW,,,085,M,03.9,N,,*63
$IIVLW,01635,N,002.3,N*53
$IIVWR,025,R,09.5,N,,,,*6A
$IIDPT,010.8,-1.0,*49
$IIGLL,4629.908,N,00640.496,E,171144,A,A*57
$IIHDG,085,,,01,E*1E
$IIMTW,+09.5,C*34
$IIMWV,025,R,09.8,N,A*15
$IIMWV,040,T,06.0,N,A*17
$IIRMC,171145,A,4629.908,N,00640.498,E,04.1,083,290415,01,E,A*00
$IIVHW,,,085,M,03.9,N,,*63
$IIVLW,01635,N,002.3,N*53
$IIVWR,025,R,09.8,N,,,,*67
$IIDPT,010.5,-1.0,*44
$IIGLL,4629.908,N,00640.500,E,171146,A,A*5B
$IIHDG,085,,,01,E*1E
$IIMTW,+09.0,C*31
$IIMWV,025,R,09.7,N,A*1A
$IIMWV,040,T,06.3,N,A*14
$IIRMC,171146,A,4629.908,N,00640.500,E,04.2,091,290415,01,E,A*03
$IIVHW,,,085,M,03.9,N,,*63
$IIVLW,01635,N,002.3,N*53
$IIVWR,025,R,09.7,N,,,,*68
$IIDPT,010.3,-1.0,*42
$IIGLL,4629.908,N,00640.501,E,171147,A,A*5B
$IIHDG,085,,,01,E*1E
$IIMTW,+09.0,C*31
$IIMWV,024,R,09.7,N,A*1B
$IIMWV,039,T,06.3,N,A*1A
$IIRMC,171147,A,4629.908,N,00640.501,E,03.9,085,290415,01,E,A*0A
$IIVHW,,,085,M,03.9,N,,*63
$IIVLW,01635,N,002.3,N*53
$IIVWR,024,R,09.5,N,,,,*6B
$IIDPT,010.3,-1.0,*42
$IIGLL,4629.908,N,00640.503,E,171148,A,A*56
$IIHDG,085,,,01,E*1E
$IIMTW,+09.0,C*31
$IIMWV,024,R,09.5,N,A*19
$IIMWV,039,T,06.1,N,A*18
$IIRMC,171148,A,4629.908,N,00640.503,E,04.1,085,290415,01,E,A*08
$IIVHW,,,085,M,03.9,N,,*63
$IIVLW,01635,N,002.3,N*53
$IIVWR,023,R,09.8,N,,,,*61
$IIDPT,010.4,-1.0,*45
$IIGLL,4629.908,N,00640.505,E,171149,A,A*51
$IIHDG,085,,,01,E*1E
$IIMTW,+09.0,C*31
$IIMWV,023,R,09.8,N,A*13
$IIMWV,040,T,05.9,N,A*1D
$IIRMC,171149,A,4629.908,N,00640.505,E,04.3,095,290415,01,E,A*0C
$IIVHW,,,085,M,03.9,N,,*63
$IIVLW,01635,N,002.3,N*53
$IIVWR,023,R,09.2,N,,,,*6B
$IIDPT,010.4,-1.0,*45
$IIGLL,4629.908,N,00640.507,E,171150,A,A*5B
$IIHDG,085,,,01,E*1E
$IIMTW,+09.0,C*31
$IIMWV,023,R,09.2,N,A*19
$IIMWV,037,T,06.3,N,A*14
$IIRMC,171151,A,4629.909,N,00640.508,E,04.7,073,290415,01,E,A*05
$IIVHW,,,085,M,03.9,N,,*63
$IIVLW,01635,N,002.3,N*53
$IIVWR,022,R,09.2,N,,,,*6A
$IIDPT,010.6,-1.0,*47
$IIGLL,4629.909,N,00640.508,E,171151,A,A*54
$IIHDG,085,,,01,E*1E
$IIMTW,+09.5,C*34
$IIMWV,022,R,09.2,N,A*18
$IIMWV,037,T,05.6,N,A*12
$IIRMC,171152,A,4629.909,N00640.510,E,04.3,074,290415,01,E,A*0C
$IIVHW,,,084,M,03.9,N,,*62
$IIVLW,01635,N,002.3,N*53
$IIVWR,024,R,09.2,N,,,,*6C
$IIDPT,010.6,-1.0,*47
$IIGLL,4629.909,N,00640.510,E,171152,A,A*5E
$IIHDG,084,,,01,E*1F
$IIMTW,+09.0,C*31
$IIMWV,024,R,09.2,N,A*1E
$IIMWV,040,T,05.7,N,A*13
$IIRMC,171153,A,4629.909,N,00640.512,E,03.9,083,290415,01,E,A*0A
$IIVHW,,,084,M,03.9,N,,*62
$IIVLW,01635,N,002.3,N*53
$IIVWR,024,R,09.2,N,,,,*6C
$IIDPT,010.6,-1.0,*47
$IIGLL,4629.909,N,00640.512,E,171153,A,A*5D
$IIHDG,084,,,01,E*1F
$IIMTW,+08.5,C*35
$IIMWV,024,R,09.2,N,A*1E
$IIMWV,040,T,05.7,N,A*13
$IIRMC,171154,A,4629.910,N,00640.514,E,03.9,082,290415,01,E,A*02
$IIVHW,,,083,M,03.9,N,,*65
$IIVLW,01635,N,002.3,N*53
$IIVWR,024,R,09.2,N,,,,*6C
$IIDPT,010.6,-1.0,*47
$IIGLL,4629.910,N,00640.514,E,171154,A,A*54
$IIHDG,083,,,01,E*18
$IIMTW,+10.5,C*3C
$IIMWV,024,R,09.3,N,A*1F
$IIMWV,040,T,05.7,N,A*13
$IIRMC,171155,A,4629.911,N,00640.516,E,03.7,085,290415,01,E,A*09
$IIVHW,,,083,M,03.9,N,,*65
$IIVLW,01635,N,002.3,N*53
$IIVWR,024,R,09.3,N,,,,*6D
$IIDPT,010.6,-1.0,*47
$IIGLL,4629.911,N,00640.517,E,171156,A,A*54
$IIHDG,082,,,01,E*19
$IIMTW,+09.5,C*34
$IIMWV,024,R,09.3,N,A*1F
$IIMWV,040,T,05.8,N,A*1C
$IIRMC,171156,A,4629.911,N,00640.517,E,03.9,065,290415,01,E,A*0B
$IIVHW,,,082,M,03.9,N,,*64
$IIVLW,01635,N,002.3,N*53
$IIVWR,024,R,09.3,N,,,,*6D
$IIDPT,010.6,-1.0,*47
$IIGLL,4629.911,N,00640.519,E,171157,A,A*5B
$IIHDG,082,,,01,E*19
$IIMTW,+08.5,C*35
$IIMWV,024,R,09.3,N,A*1F
$IIMWV,041,T,05.8,N,A*1D
$IIRMC,171157,A,4629.911,N,00640.519,E,03.8,082,290415,01,E,A*0C
$IIVHW,,,082,M,03.9,N,,*64
$IIVLW,01635,N,002.4,N*54
$IIVWR,023,R,09.2,N,,,,*6B
$IIDPT,010.6,-1.0,*47
$IIGLL,4629.911,N,00640.520,E,171158,A,A*5E
$IIHDG,082,,,01,E*19
$IIMTW,+09.5,C*34
$IIMWV,023,R,09.2,N,A*19
$IIMWV,040,T,05.8,N,A*1C
$IIRMC,171158,A,4629.911,N,00640.520,E,03.7,085,290415,01,E,A*01
$IIVHW,,,082,M,03.9,N,,*64
$IIVLW,01635,N,002.4,N*54
$IIVWR,024,R,09.7,N,,,,*69
$IIDPT,010.6,-1.0,*47
$IIGLL,4629.911,N,00640.522,E,171159,A,A*5D
$IIHDG,082,,,01,E*19
$IIMTW,+09.0,C*31
$IIMWV,024,R,09.7,N,A*1B
$IIMWV,038,T,05.7,N,A*1C
$IIRMC,171159,A,4629.911,N,00640.522,E,03.7,088,290415,01,E,A*0F
$IIVHW,,,083,M,03.8,N,,*64
$IIVLW,01635,N,002.4,N*54
$IIVWR,024,R,09.7,N,,,,*69
$IIDPT,010.6,-1.0,*47
$IIGLL,4629.911,N,00640.523,E,171200,A,A*53
$IIHDG,083,,,01,E*18
$IIMTW,+09.5,C*34
$IIMWV,024,R,09.7,N,A*1B
$IIMWV,038,T,06.2,N,A*1A
$IIRMC,171201,A,4629.911,N,00640.525,E,03.4,088,290415,01,E,A*05
$IIVHW,,,083,M,03.8,N,,*64
$IIVLW,01635,N,002.4,N*54
$IIVWR,024,R,09.6,N,,,,*68
$IIGLL,4629.840,N,00640.592,E,171336,A,A*58
$IIHDG,149,,,01,E*1F
$IIMTW,+09.0,C*31
$IIMWV,339,R,08.6,N,A*14
$IIMWV,326,T,04.9,N,A*1F
$IIRMC,171336,A,4629.840,N,00640.592,E,03.7,154,290415,01,E,A*0A
$IIVHW,,,149,M,03.9,N,,*62
$IIVLW,01635,N,002.5,N*55
$IIVWR,021,L,08.6,N,,,,*72
$IIDPT,031.6,-1.0,*44
$IIGLL,4629.838,N,00640.593,E,171338,A,A*58
$IIHDG,150,,,01,E*17
$IIMTW,+08.5,C*35
$IIMWV,339,R,08.5,N,A*17
$IIMWV,322,T,04.9,N,A*1B
$IIRMC,171338,A,4629.838,N,00640.593,E,03.7,153,290415,01,E,A*0D
$IIVHW,,,150,M,03.9,N,,*6A
$IIVLW,01635,N,002.5,N*55
$IIVWR,021,L,08.5,N,,,,*71
$IIDPT,033.8,-1.0,*48
$IIGLL,4629.837,N,00640.594,E,171339,A,A*51
$IIHDG,151,,,01,E*16
$IIMTW,+08.5,C*35
$IIMWV,339,R,08.5,N,A*17
$IIMWV,322,T,04.9,N,A*1B
$IIRMC,171339,A,4629.837,N,00640.594,E,03.7,155,290415,01,E,A*02
$IIVHW,,,151,M,03.9,N,,*6B
$IIVLW,01635,N,002.5,N*55
$IIVWR,022,L,08.5,N,,,,*72
$IIDPT,033.8,-1.0,*48
$IIGLL,4629.836,N,00640.594,E,171340,A,A*5E
$IIHDG,151,,,01,E*16
$IIMTW,+10.0,C*39
$IIMWV,338,R,08.5,N,A*16
$IIMWV,322,T,04.9,N,A*1B
$IIRMC,171340,A,4629.836,N,00640.594,E,03.7,155,290415,01,E,A*0D
$IIVHW,,,151,M,03.9,N,,*6B
$IIVLW,01635,N,002.5,N*55
$IIVWR,020,L,08.9,N,,,,*7C
$IIDPT,033.8,-1.0,*48
$IIGLL,4629.835,N,00640.595,E,171341,A,A*5D
$IIHDG,151,,,01,E*16
$IIMTW,+10.5,C*3C
$IIMWV,340,R,08.9,N,A*15
$IIMWV,322,T,04.9,N,A*1B
$IIRMC,171342,A,4629.834,N,00640.596,E,03.4,149,290415,01,E,A*01
$IIVHW,,,150,M,03.9,N,,*6A
$IIVLW,01635,N,002.5,N*55
$IIVWR,022,L,08.8,N,,,,*7F
$IIDPT,010.7,-1.0,*46
$IIGLL,4629.834,N,00640.596,E,171342,A,A*5C
$IIHDG,150,,,01,E*17
$IIMTW,+09.0,C*31
$IIMWV,338,R,08.8,N,A*1B
$IIMWV,323,T,05.2,N,A*10
$IIRMC,171343,A,4629.833,N,00640.596,E,03.9,157,290415,01,E,A*05
$IIVHW,,,150,M,03.9,N,,*6A
$IIVLW,01635,N,002.5,N*55
$IIVWR,022,L,08.7,N,,,,*70
$IIDPT,010.7,-1.0,*46
$IIGLL,4629.833,N,00640.596,E,171343,A,A*5A
$IIHDG,150,,,01,E*17
$IIMTW,+09.0,C*31
$IIMWV,339,R,08.6,N,A*14
$IIMWV,322,T,05.2,N,A*11
$IIRMC,171344,A,4629.832,N,00640.597,E,03.9,154,290415,01,E,A*01
$IIVHW,,,150,M,03.8,N,,*6B
$IIVLW,01635,N,002.5,N*55
$IIVWR,021,L,08.6,N,,,,*72
$IIDPT,010.7,-1.0,*46
$IIGLL,4629.832,N,00640.597,E,171344,A,A*5D
$IIHDG,150,,,01,E*17
$IIMTW,+09.0,C*31
$IIMWV,340,R,08.6,N,A*1A
$IIMWV,323,T,05.0,N,A*12
$IIRMC,171345,A,4629.831,N,00640.597,E,03.9,152,290415,01,E,A*05
$IIVHW,,,150,M,03.8,N,,*6B
$IIVLW,01635,N,002.5,N*55
$IIVWR,020,L,08.6,N,,,,*73
$IIDPT,010.6,-1.0,*47
$IIGLL,4629.831,N,00640.597,E,171345,A,A*5F
$IIHDG,150,,,01,E*17
$IIMTW,+09.0,C*31
$IIMWV,340,R,08.5,N,A*19
$IIMWV,325,T,05.0,N,A*14
$IIRMC,171346,A,4629.830,N,00640.598,E,03.6,154,290415,01,E,A*01
$IIVHW,,,150,M,03.8,N,,*6B
$IIVLW,01635,N,002.5,N*55
$IIVWR,020,L,08.5,N,,,,*70
$IIDPT,010.6,-1.0,*47
$IIGLL,4629.830,N,00640.598,E,171347,A,A*53
$IIHDG,150,,,01,E*17
$IIMTW,+09.0,C*31
$IIMWV,339,R,08.5,N,A*17
$IIMWV,325,T,04.8,N,A*1D
$IIRMC,171347,A,4629.830,N,00640.598,E,03.6,155,290415,01,E,A*01
$IIVHW,,,150,M,03.8,N,,*6B
$IIVLW,01635,N,002.5,N*55
$IIVWR,021,L,08.5,N,,,,*71
$IIDPT,010.6,-1.0,*47
$IIGLL,4629.828,N,00640.599,E,171348,A,A*54
$IIHDG,151,,,01,E*16
$IIMTW,+09.0,C*31
$IIMWV,341,R,08.5,N,A*18
$IIMWV,324,T,05.0,N,A*15
$IIRMC,171348,A,4629.828,N,00640.599,E,03.6,154,290415,01,E,A*07
$IIVHW,,,151,M,03.8,N,,*6A
$IIVLW,01635,N,002.5,N*55
$IIVWR,020,L,08.5,N,,,,*70
$IIDPT,010.6,-1.0,*47
$IIGLL,4629.828,N,00640.600,E,171349,A,A*56
$IIHDG,152,,,01,E*15
$IIMTW,+09.0,C*31
$IIMWV,340,R,08.5,N,A*19
$IIMWV,326,T,05.0,N,A*17
$IIRMC,171349,A,4629.828,N,00640.600,E,03.4,156,290415,01,E,A*05
$IIVHW,,,152,M,03.7,N,,*66
$IIVLW,01635,N,002.5,N*55
$IIVWR,022,L,08.5,N,,,,*72
$IIDPT,010.6,-1.0,*47
$IIGLL,4629.827,N,00640.600,E,171350,A,A*51
$IIHDG,153,,,01,E*14
$IIMTW,+09.0,C*31
$IIMWV,338,R,08.5,N,A*16
$IIMWV,326,T,04.9,N,A*1F
$IIRMC,171350,A,4629.827,N,00640.600,E,03.5,159,290415,01,E,A*0C
$IIVHW,,,153,M,03.7,N,,*67
$IIVLW,01635,N,002.5,N*55
$IIVWR,022,L,08.1,N,,,,*76
$IIDPT,010.6,-1.0,*47
$IIGLL,4629.826,N,00640.601,E,171351,A,A*50
$IIHDG,153,,,01,E*14
$IIMTW,+09.0,C*31
$IIMWV,338,R,08.1,N,A*12
$IIMWV,323,T,05.1,N,A*13
$IIRMC,171352,A,4629.825,N,00640.601,E,03.6,159,290415,01,E,A*0E
$IIVHW,,,154,M,03.7,N,,*60
$IIVLW,01635,N,002.5,N*55
$IIVWR,024,L,08.5,N,,,,*74
$IIDPT,010.5,-1.0,*44
$IIGLL,4629.825,N,00640.601,E,171352,A,A*50
$IIHDG,154,,,01,E*13
$IIMTW,+09.0,C*31
$IIMWV,336,R,08.5,N,A*18
$IIMWV,319,T,05.1,N,A*1A
$IIRMC,171353,A,4629.824,N,00640.602,E,03.6,159,290415,01,E,A*0D
$IIVHW,,,155,M,03.7,N,,*61
$IIVLW,01635,N,002.5,N*55
$IIVWR,024,L,08.5,N,,,,*74
$IIDPT,010.5,-1.0,*44
$IIGLL,4629.824,N,00640.602,E,171353,A,A*53
$IIHDG,155,,,01,E*12
$IIMTW,+09.0,C*31
$IIMWV,336,R,08.1,N,A*1C
$IIMWV,319,T,05.1,N,A*1A
$IIRMC,171354,A,4629.823,N,00640.602,E,03.7,159,290415,01,E,A*0C
$IIVHW,,,155,M,03.7,N,,*61
$IIVLW,01635,N,002.5,N*55
$IIVWR,024,L,08.1,N,,,,*70
$IIDPT,010.4,-1.0,*45
$IIGLL,4629.823,N,00640.602,E,171354,A,A*53
$IIHDG,155,,,01,E*12
$IIMTW,+09.5,C*34
$IIMWV,337,R,08.6,N,A*1A
$IIMWV,317,T,04.8,N,A*1C
$IIRMC,171355,A,4629.822,N,00640.603,E,03.5,160,290415,01,E,A*05
$IIVHW,,,155,M,03.7,N,,*61
$IIVLW,01635,N,002.5,N*55
$IIVWR,023,L,08.6,N,,,,*70
$IIDPT,010.3,-1.0,*42
$IIGLL,4629.822,N,00640.603,E,171355,A,A*52
$IIHDG,156,,,01,E*11
$IIMTW,+09.5,C*34
$IIMWV,336,R,08.2,N,A*1F
$IIMWV,321,T,05.2,N,A*12
$IIRMC,171356,A,4629.821,N,00640.603,E,03.6,159,290415,01,E,A*0C
$IIVHW,,,156,M,03.7,N,,*62
$IIVLW,01635,N,002.5,N*55
$IIVWR,024,L,08.2,N,,,,*73
$IIDPT,010.2,-1.0,*43
$IIGLL,4629.820,N,00640.604,E,171357,A,A*55
$IIHDG,156,,,01,E*11
$IIMTW,+08.5,C*35
$IIMWV,337,R,08.2,N,A*1E
$IIMWV,318,T,04.8,N,A*13
$IIRMC,171357,A,4629.820,N,00640.604,E,03.7,158,290415,01,E,A*0B
$IIVHW,,,156,M,03.7,N,,*62
$IIVLW,01635,N,002.5,N*55
$IIVWR,023,L,08.2,N,,,,*74
$IIDPT,010.1,-1.0,*40
$IIGLL,4629.819,N,00640.604,E,171358,A,A*50
$IIHDG,155,,,01,E*12
$IIMTW,+08.5,C*35
$IIMWV,337,R,08.7,N,A*1B
$IIMWV,320,T,04.8,N,A*18
$IIRMC,171358,A,4629.819,N,00640.604,E,03.7,158,290415,01,E,A*0E
$IIVHW,,,155,M,03.7,N,,*61
$IIVLW,01635,N,002.5,N*55
$IIVWR,024,L,08.6,N,,,,*77
$IIDPT,010.1,-1.0,*40
$IIGLL,4629.818,N,00640.605,E,171359,A,A*51
$IIHDG,155,,,01,E*12
$IIMTW,+08.5,C*35
$IIMWV,336,R,08.6,N,A*1B
$IIMWV,322,T,05.3,N,A*10
$IIRMC,171359,A,4629.818,N,00640.605,E,03.7,159,290415,01,E,A*0E
$IIVHW,,,155,M,03.7,N,,*61
