$IIDPT,009.5,-1.0,*4C
$IIMTW,+09.0,C*31
$IIMWV,151,R,05.8,N,A*1B
$IIMWV,162,T,09.8,N,A*11
$IIRMC,183221,A,4629.840,N,00641.701,E,04.9,301,290415,01,E,A*02
$IIVHW,,,299,M,04.7,N,,*65
$IIVLW,01640,N,003.6,N*55
$IIVWR,151,R,05.8,N,,,,*69
$IIDPT,009.5,-1.0,*4C
$IIGLL,4629.840,N,00641.701,E,183221,A,A*5B
$IIHDG,298,,,01,E*10
$IIMTW,+09.0,C*31
$IIMWV,152,R,06.1,N,A*12
$IIMWV,165,T,10.0,N,A*16
$IIRMC,183222,A,4629.841,N,00641.699,E,04.9,301,290415,01,E,A*00
$IIVHW,,,298,M,04.7,N,,*64
$IIVLW,01640,N,003.6,N*55
$IIVWR,152,R,06.1,N,,,,*60
$IIDPT,082.0,-1.0,*4A
$IIGLL,4629.842,N,00641.697,E,183223,A,A*55
$IIHDG,297,,,01,E*1F
$IIMTW,+09.0,C*31
$IIMWV,153,R,06.2,N,A*10
$IIMWV,165,T,10.4,N,A*12
$IIRMC,183223,A,4629.842,N,00641.697,E,04.9,300,290415,01,E,A*0D
$IIVHW,,,297,M,04.7,N,,*6B
$IIVLW,01640,N,003.6,N*55
$IIVWR,153,R,06.2,N,,,,*62
$IIDPT,080.1,-1.0,*49
$IIGLL,4629.842,N,00641.696,E,183224,A,A*53
$IIHDG,297,,,01,E*1F
$IIMTW,+09.0,C*31
$IIMWV,150,R,06.2,N,A*13
$IIMWV,165,T,10.6,N,A*10
$IIRMC,183224,A,4629.842,N,00641.696,E,05.1,302,290415,01,E,A*00
$IIVHW,,,297,M,04.7,N,,*6B
$IIVLW,01640,N,003.6,N*55
$IIVWR,147,R,06.0,N,,,,*65
$IIDPT,074.9,-1.0,*4A
$IIGLL,4629.843,N,00641.694,E,183225,A,A*51
$IIHDG,297,,,01,E*1F
$IIMTW,+09.5,C*34
$IIMWV,147,R,06.0,N,A*17
$IIMWV,163,T,10.5,N,A*15
$IIRMC,183225,A,4629.843,N,00641.694,E,04.8,300,290415,01,E,A*08
$IIVHW,,,297,M,04.7,N,,*6B
$IIVLW,01640,N,003.6,N*55
$IIVWR,143,R,05.9,N,,,,*6B
$IIDPT,065.5,-1.0,*46
$IIGLL,4629.844,N,00641.692,E,183226,A,A*53
$IIHDG,297,,,01,E*1F
$IIMTW,+09.5,C*34
$IIMWV,143,R,05.9,N,A*19
$IIMWV,162,T,10.3,N,A*12
$IIRMC,183226,A,4629.844,N,00641.692,E,05.3,300,290415,01,E,A*00
$IIVHW,,,297,M,04.8,N,,*64
$IIVLW,01640,N,003.6,N*55
$IIVWR,141,R,05.8,N,,,,*68
$IIDPT,065.5,-1.0,*46
$IIGLL,4629.844,N,00641.690,E,183227,A,A*50
$IIHDG,297,,,01,E*1F
$IIMTW,+09.5,C*34
$IIMWV,141,R,05.8,N,A*1A
$IIMWV,160,T,10.1,N,A*12
$IIRMC,183228,A,4629.845,N,00641.689,E,05.2,300,290415,01,E,A*04
$IIVHW,,,296,M,04.8,N,,*65
$IIVLW,01640,N,003.6,N*55
$IIVWR,145,R,05.7,N,,,,*63
$IIDPT,065.5,-1.0,*46
$IIGLL,4629.845,N,00641.689,E,183228,A,A*56
$IIHDG,296,,,01,E*1E
$IIMTW,+10.0,C*39
$IIMWV,145,R,05.7,N,A*11
$IIMWV,161,T,09.9,N,A*13
$IIRMC,183229,A,4629.845,N,00641.687,E,04.8,296,290415,01,E,A*0E
$IIVHW,,,296,M,04.8,N,,*65
$IIVLW,01640,N,003.6,N*55
$IIVWR,145,R,05.5,N,,,,*61
$IIDPT,065.5,-1.0,*46
$IIGLL,4629.845,N,00641.687,E,183229,A,A*59
$IIHDG,296,,,01,E*1E
$IIMTW,+10.0,C*39
$IIMWV,146,R,05.5,N,A*10
$IIMWV,162,T,09.8,N,A*11
$IIRMC,183230,A,4629.846,N,00641.685,E,05.2,300,290415,01,E,A*02
$IIVHW,,,295,M,04.8,N,,*66
$IIVLW,01640,N,003.6,N*55
$IIVWR,146,R,05.5,N,,,,*62
$IIDPT,049.9,-1.0,*44
$IIGLL,4629.846,N,00641.685,E,183230,A,A*50
$IIHDG,295,,,01,E*1D
$IIMTW,+08.5,C*35
$IIMWV,144,R,05.5,N,A*12
$IIMWV,162,T,09.8,N,A*11
$IIRMC,183231,A,4629.847,N,00641.683,E,05.0,300,290415,01,E,A*06
$IIVHW,,,295,M,04.8,N,,*66
$IIVLW,01640,N,003.6,N*55
$IIVWR,144,R,05.5,N,,,,*60
$IIDPT,049.9,-1.0,*44
$IIGLL,4629.847,N,00641.683,E,183231,A,A*56
$IIHDG,295,,,01,E*1D
$IIMTW,+10.0,C*39
$IIMWV,146,R,05.7,N,A*12
$IIMWV,161,T,09.8,N,A*12
$IIRMC,183232,A,4629.847,N,00641.682,E,05.2,303,290415,01,E,A*05
$IIVHW,,,295,M,04.8,N,,*66
$IIVLW,01640,N,003.6,N*55
$IIVWR,146,R,05.7,N,,,,*60
$IIDPT,049.9,-1.0,*44
$IIGLL,4629.848,N,00641.680,E,183233,A,A*58
$IIHDG,296,,,01,E*1E
$IIMTW,+10.0,C*39
$IIMWV,145,R,06.0,N,A*15
$IIMWV,162,T,10.0,N,A*11
$IIRMC,183233,A,4629.848,N,00641.680,E,04.9,300,290415,01,E,A*00
$IIVHW,,,296,M,04.9,N,,*64
$IIVLW,01640,N,003.6,N*55
$IIVWR,145,R,06.0,N,,,,*67
$IIDPT,049.9,-1.0,*44
$IIGLL,4629.849,N,00641.679,E,183234,A,A*58
$IIHDG,296,,,01,E*1E
$IIMTW,+09.0,C*31
$IIMWV,147,R,06.1,N,A*16
$IIMWV,161,T,10.3,N,A*11
$IIRMC,183234,A,4629.849,N,00641.679,E,05.2,302,290415,01,E,A*08
$IIVHW,,,296,M,04.9,N,,*64
$IIVLW,01640,N,003.6,N*55
$IIVWR,146,R,06.1,N,,,,*65
$IIDPT,049.9,-1.0,*44
$IIGLL,4629.849,N,00641.677,E,183235,A,A*57
$IIHDG,296,,,01,E*1E
$IIMTW,+10.0,C*39
$IIMWV,146,R,06.1,N,A*17
$IIMWV,162,T,10.4,N,A*15
$IIRMC,183235,A,4629.849,N,00641.677,E,05.2,300,290415,01,E,A*05
$IIVHW,,,296,M,04.9,N,,*64
$IIVLW,01640,N,003.6,N*55
$IIVWR,149,R,05.9,N,,,,*61
$IIDPT,049.9,-1.0,*44
$IIGLL,4629.850,N,00641.675,E,183236,A,A*5E
$IIHDG,296,,,01,E*1E
$IIMTW,+10.0,C*39
$IIMWV,149,R,05.9,N,A*13
$IIMWV,161,T,10.4,N,A*16
$IIRMC,183236,A,4629.850,N,00641.675,E,05.1,302,290415,01,E,A*0D
$IIVHW,,,296,M,04.9,N,,*64
$IIVLW,01640,N,003.6,N*55
$IIVWR,150,R,05.8,N,,,,*68
$IIDPT,051.6,-1.0,*42
$IIGLL,4629.851,N,00641.673,E,183237,A,A*58
$IIHDG,296,,,01,E*1E
$IIMTW,+10.0,C*39
$IIMWV,150,R,05.8,N,A*1A
$IIMWV,163,T,10.3,N,A*13
$IIRMC,183238,A,4629.851,N,00641.672,E,05.1,302,290415,01,E,A*05
$IIVHW,,,296,M,04.9,N,,*64
$IIVLW,01640,N,003.6,N*55
$IIVWR,150,R,05.6,N,,,,*66
$IIDPT,051.6,-1.0,*42
$IIGLL,4629.851,N,00641.672,E,183238,A,A*56
$IIHDG,296,,,01,E*1E
$IIMTW,+09.0,C*31
$IIMWV,150,R,05.6,N,A*14
$IIMWV,164,T,10.0,N,A*17
$IIRMC,183239,A,4629.852,N,00641.670,E,05.0,301,290415,01,E,A*07
$IIVHW,,,296,M,04.8,N,,*65
$IIVLW,01640,N,003.6,N*55
$IIVWR,149,R,05.6,N,,,,*6E
$IIDPT,050.3,-1.0,*46
$IIGLL,4629.852,N,00641.670,E,183239,A,A*56
$IIHDG,296,,,01,E*1E
$IIMTW,+10.0,C*39
$IIMWV,149,R,05.5,N,A*1F
$IIMWV,163,T,10.1,N,A*11
$IIRMC,183240,A,4629.852,N,00641.668,E,05.0,301,290415,01,E,A*00
$IIVHW,,,296,M,04.8,N,,*65
$IIVLW,01640,N,003.6,N*55
$IIVWR,149,R,05.5,N,,,,*6D
$IIDPT,050.3,-1.0,*46
$IIGLL,4629.852,N,00641.668,E,183240,A,A*51
$IIHDG,296,,,01,E*1E
$IIMTW,+10.0,C*39
$IIMWV,152,R,05.3,N,A*13
$IIMWV,164,T,10.0,N,A*17
$IIRMC,183241,A,4629.853,N,00641.666,E,05.0,301,290415,01,E,A*0E
$IIVHW,,,296,M,04.8,N,,*65
$IIVLW,01640,N,003.6,N*55
$IIVWR,152,R,05.3,N,,,,*61
$IIDPT,048.9,-1.0,*45
$IIGLL,4629.853,N,00641.666,E,183241,A,A*5F
$IIHDG,296,,,01,E*1E
$IIMTW,+10.0,C*39
$IIMWV,152,R,05.4,N,A*14
$IIMWV,166,T,09.7,N,A*1A
$IIRMC,183242,A,4629.854,N,00641.664,E,04.9,300,290415,01,E,A*01
$IIVHW,,,296,M,04.8,N,,*65
$IIVLW,01640,N,003.6,N*55
$IIVWR,152,R,05.4,N,,,,*66
$IIDPT,048.4,-1.0,*48
