$IIHDG,302,,,01,E*12
$IIMTW,+09.0,C*31
$IIMWV,135,R,06.2,N,A*10
$IIMWV,158,T,11.0,N,A*19
$IIRMC,182538,A,4629.479,N,00642.392,E,06.2,307,290415,01,E,A*08
$IIVHW,,,302,M,05.9,N,,*69
$IIVLW,01640,N,003.0,N*53
$IIVWR,135,R,06.2,N,,,,*62
$IIDPT,009.7,-1.0,*4E
$IIGLL,4629.480,N,00642.390,E,182539,A,A*5B
$IIHDG,303,,,01,E*13
$IIMTW,+09.0,C*31
$IIMWV,133,R,06.2,N,A*16
$IIMWV,157,T,11.2,N,A*14
$IIRMC,182539,A,4629.480,N,00642.390,E,06.2,308,290415,01,E,A*02
$IIVHW,,,303,M,06.0,N,,*62
$IIVLW,01640,N,003.0,N*53
$IIVWR,133,R,06.2,N,,,,*64
$IIDPT,009.7,-1.0,*4E
$IIGLL,4629.481,N,00642.388,E,182540,A,A*5D
$IIHDG,303,,,01,E*13
$IIMTW,+09.0,C*31
$IIMWV,133,R,06.3,N,A*17
$IIMWV,156,T,11.1,N,A*16
$IIRMC,182540,A,4629.481,N,00642.388,E,05.9,307,290415,01,E,A*03
$IIVHW,,,303,M,06.0,N,,*62
$IIVLW,01640,N,003.0,N*53
$IIVWR,135,R,06.5,N,,,,*65
$IIDPT,009.8,-1.0,*41
$IIGLL,4629.482,N,00642.386,E,182541,A,A*51
$IIHDG,303,,,01,E*13
$IIMTW,+09.0,C*31
$IIMWV,135,R,06.5,N,A*17
$IIMWV,157,T,11.2,N,A*14
$IIRMC,182541,A,4629.482,N,00642.386,E,06.4,308,290415,01,E,A*0E
$IIVHW,,,303,M,06.1,N,,*63
$IIVLW,01640,N,003.0,N*53
$IIVWR,136,R,06.6,N,,,,*65
$IIDPT,009.8,-1.0,*41
$IIGLL,4629.483,N,00642.384,E,182542,A,A*51
$IIHDG,303,,,01,E*13
$IIMTW,+09.0,C*31
$IIMWV,136,R,06.6,N,A*17
$IIMWV,157,T,11.6,N,A*10
$IIRMC,182542,A,4629.483,N,00642.384,E,06.3,307,290415,01,E,A*06
$IIVHW,,,303,M,06.1,N,,*63
$IIVLW,01640,N,003.0,N*53
$IIVWR,138,R,06.8,N,,,,*65
$IIDPT,010.0,-1.0,*41
$IIGLL,4629.484,N,00642.382,E,182543,A,A*51
$IIHDG,303,,,01,E*13
$IIMTW,+09.0,C*31
$IIMWV,138,R,06.8,N,A*17
$IIMWV,157,T,11.7,N,A*11
$IIRMC,182544,A,4629.486,N,00642.380,E,06.3,306,290415,01,E,A*00
$IIVHW,,,303,M,06.1,N,,*63
$IIVLW,01640,N,003.0,N*53
$IIVWR,139,R,06.8,N,,,,*64
$IIDPT,012.0,-1.0,*43
$IIGLL,4629.486,N,00642.380,E,182544,A,A*56
$IIHDG,303,,,01,E*13
$IIMTW,+09.0,C*31
$IIMWV,139,R,06.8,N,A*16
$IIMWV,159,T,12.0,N,A*1B
$IIRMC,182545,A,4629.486,N,00642.378,E,06.3,305,290415,01,E,A*05
$IIVHW,,,303,M,06.1,N,,*63
$IIVLW,01640,N,003.0,N*53
$IIVWR,142,R,06.6,N,,,,*66
$IIDPT,012.0,-1.0,*43
$IIGLL,4629.486,N,00642.378,E,182545,A,A*50
$IIHDG,303,,,01,E*13
$IIMTW,+09.0,C*31
$IIMWV,145,R,06.4,N,A*11
$IIMWV,160,T,11.9,N,A*1B
$IIRMC,182546,A,4629.487,N,00642.376,E,06.3,305,290415,01,E,A*09
$IIVHW,,,301,M,06.1,N,,*61
$IIVLW,01640,N,003.1,N*52
$IIVWR,145,R,06.4,N,,,,*63
$IIDPT,012.0,-1.0,*43
$IIGLL,4629.487,N,00642.376,E,182546,A,A*5C
$IIHDG,301,,,01,E*11
$IIMTW,+09.0,C*31
$IIMWV,146,R,06.4,N,A*12
$IIMWV,163,T,11.8,N,A*19
$IIRMC,182547,A,4629.489,N,00642.374,E,06.2,305,290415,01,E,A*05
$IIVHW,,,301,M,06.1,N,,*61
$IIVLW,01640,N,003.1,N*52
$IIVWR,146,R,06.4,N,,,,*60
$IIDPT,012.0,-1.0,*43
$IIGLL,4629.489,N,00642.374,E,182547,A,A*51
$IIHDG,301,,,01,E*11
$IIMTW,+08.5,C*35
$IIMWV,148,R,06.4,N,A*1C
$IIMWV,163,T,12.0,N,A*12
$IIRMC,182548,A,4629.490,N,00642.372,E,06.2,306,290415,01,E,A*07
$IIVHW,,,301,M,06.1,N,,*61
$IIVLW,01640,N,003.1,N*52
$IIVWR,148,R,06.4,N,,,,*6E
$IIDPT,012.0,-1.0,*43
$IIGLL,4629.491,N,00642.370,E,182549,A,A*52
$IIHDG,301,,,01,E*11
$IIMTW,+08.5,C*35
$IIMWV,151,R,06.4,N,A*14
$IIMWV,164,T,12.0,N,A*15
$IIRMC,182549,A,4629.491,N,00642.370,E,06.4,306,290415,01,E,A*03
$IIVHW,,,301,M,06.1,N,,*61
$IIVLW,01640,N,003.1,N*52
$IIVWR,151,R,06.4,N,,,,*66
$IIDPT,021.3,-1.0,*40
$IIGLL,4629.492,N,00642.368,E,182550,A,A*50
$IIHDG,301,,,01,E*11
$IIMTW,+08.5,C*35
$IIMWV,150,R,06.5,N,A*14
$IIMWV,165,T,11.9,N,A*1E
$IIRMC,182550,A,4629.492,N,00642.368,E,06.2,307,290415,01,E,A*06
$IIVHW,,,301,M,06.1,N,,*61
$IIVLW,01640,N,003.1,N*52
$IIVWR,147,R,06.5,N,,,,*60
$IIDPT,021.3,-1.0,*40
$IIGLL,4629.493,N,00642.366,E,182551,A,A*5E
$IIHDG,301,,,01,E*11
$IIMTW,+08.5,C*35
$IIMWV,147,R,06.5,N,A*12
$IIMWV,165,T,12.1,N,A*15
$IIRMC,182551,A,4629.493,N,00642.366,E,06.2,307,290415,01,E,A*08
$IIVHW,,,301,M,06.1,N,,*61
$IIVLW,01640,N,003.1,N*52
$IIVWR,149,R,06.5,N,,,,*6E
$IIDPT,021.3,-1.0,*40
$IIGLL,4629.494,N,00642.364,E,182552,A,A*58
$IIHDG,301,,,01,E*11
$IIMTW,+09.5,C*34
$IIMWV,149,R,06.5,N,A*1C
$IIMWV,163,T,12.0,N,A*12
$IIRMC,182552,A,4629.494,N,00642.364,E,06.2,306,290415,01,E,A*0F
$IIVHW,,,301,M,06.0,N,,*60
$IIVLW,01640,N,003.1,N*52
$IIVWR,152,R,06.5,N,,,,*64
$IIDPT,021.3,-1.0,*40
$IIGLL,4629.495,N,00642.362,E,182553,A,A*5E
$IIHDG,301,,,01,E*11
$IIMTW,+09.5,C*34
$IIMWV,152,R,06.5,N,A*16
$IIMWV,164,T,12.0,N,A*15
$IIRMC,182554,A,4629.496,N,00642.360,E,06.0,306,290415,01,E,A*0D
$IIVHW,,,301,M,06.0,N,,*60
$IIVLW,01640,N,003.1,N*52
$IIVWR,156,R,06.4,N,,,,*61
$IIDPT,021.3,-1.0,*40
$IIGLL,4629.496,N,00642.360,E,182554,A,A*58
$IIHDG,301,,,01,E*11
$IIMTW,+09.0,C*31
$IIMWV,156,R,06.4,N,A*13
$IIMWV,168,T,12.0,N,A*19
$IIRMC,182555,A,4629.497,N,00642.358,E,06.0,305,290415,01,E,A*05
$IIVHW,,,301,M,06.0,N,,*60
$IIVLW,01640,N,003.1,N*52
$IIVWR,155,R,06.2,N,,,,*64
$IIDPT,021.3,-1.0,*40
$IIGLL,4629.497,N,00642.358,E,182555,A,A*53
$IIHDG,301,,,01,E*11
$IIMTW,+08.5,C*35
$IIMWV,153,R,06.2,N,A*10
$IIMWV,168,T,11.9,N,A*13
$IIRMC,182556,A,4629.498,N,00642.356,E,06.0,305,290415,01,E,A*07
$IIVHW,,,301,M,06.0,N,,*60
$IIVLW,01640,N,003.1,N*52
$IIVWR,153,R,06.2,N,,,,*62
$IIDPT,010.4,-1.0,*45
$IIGLL,4629.498,N,00642.356,E,182556,A,A*51
$IIHDG,301,,,01,E*11
$IIMTW,+08.5,C*35
$IIMWV,151,R,06.3,N,A*13
$IIMWV,167,T,11.8,N,A*1D
$IIRMC,182557,A,4629.498,N,00642.354,E,06.0,305,290415,01,E,A*04
$IIVHW,,,301,M,05.9,N,,*6A
$IIVLW,01640,N,003.1,N*52
$IIVWR,151,R,06.3,N,,,,*61
$IIDPT,010.4,-1.0,*45
$IIGLL,4629.498,N,00642.354,E,182557,A,A*52
$IIHDG,302,,,01,E*12
$IIMTW,+08.5,C*35
$IIMWV,149,R,06.5,N,A*1C
$IIMWV,165,T,11.7,N,A*10
$IIRMC,182558,A,4629.499,N,00642.352,E,06.0,306,290415,01,E,A*0F
$IIVHW,,,302,M,05.9,N,,*69
$IIVLW,01640,N,003.1,N*52
$IIVWR,149,R,06.5,N,,,,*6E
$IIDPT,010.0,-1.0,*41
$IIGLL,4629.500,N,00642.350,E,182559,A,A*58
$IIHDG,302,,,01,E*12
$IIMTW,+09.0,C*31
$IIMWV,147,R,06.7,N,A*10
$IIMWV,164,T,11.9,N,A*1F
$IIRMC,182559,A,4629.500,N,00642.350,E,06.0,306,290415,01,E,A*0D
$IIVHW,,,302,M,05.9,N,,*69
$IIVLW,01640,N,003.1,N*52
$IIVWR,147,R,06.7,N,,,,*62
$IIDPT,009.9,-1.0,*40
$IIGLL,4629.501,N,00642.348,E,182600,A,A*5F
$IIHDG,302,,,01,E*12
$IIMTW,+09.0,C*31
$IIMWV,148,R,06.6,N,A*1E
$IIMWV,163,T,12.0,N,A*12
$IIRMC,182600,A,4629.501,N,00642.348,E,06.0,306,290415,01,E,A*0A
$IIVHW,,,302,M,05.9,N,,*69
$IIVLW,01640,N,003.1,N*52
