$IIGLL,4629.795,N,00640.620,E,171423,A,A*56
$IIHDG,152,,,*7D
$IIMWV,339,R,08.7,N,A*15
$IIMWV,324,T,05.4,N,A*11
$IIRMC,171424,A,4629.794,N,00640.620,E,03.7,156,290415,01,E,A*00
$IIVHW,,,152,M,03.7,N,,*66
$IIVLW,01635,N,002.5,N*55
$IIVWR,021,L,08.7,N,,,,*73
$IIDPT,010.5,-1.0,*44
$IIGLL,4629.794,N,00640.620,E,171424,A,A*50
$IIHDG,152,,,01,E*15
$IIMTW,+09.5,C*34
$IIMWV,339,R,09.0,N,A*13
$IIMWV,324,T,05.3,N,A*16
$IIRMC,171425,A,4629.793,N,00640.621,E,03.7,155,290415,01,E,A*04
$IIVHW,,,152,M,03.7,N,,*66
$IIVLW,01635,N,002.5,N*55
$IIVWR,021,L,09.0,N,,,,*75
$IIDPT,010.5,-1.0,*44
$IIGLL,4629.793,N,00640.621,E,171425,A,A*57
$IIHDG,152,,,01,E*15
$IIMTW,+09.5,C*34
$IIMWV,339,R,08.8,N,A*1A
$IIMWV,325,T,05.6,N,A*12
$IIRMC,171426,A,4629.792,N,00640.621,E,03.5,156,290415,01,E,A*07
$IIVHW,,,152,M,03.7,N,,*66
$IIVLW,01635,N,002.5,N*55
$IIVWR,021,L,08.8,N,,,,*7C
$IIDPT,010.5,-1.0,*44
$IIGLL,4629.791,N,00640.622,E,171427,A,A*54
$IIHDG,152,,,01,E*15
$IIMTW,+09.5,C*34
$IIMWV,338,R,08.7,N,A*14
$IIMWV,325,T,05.3,N,A*17
$IIRMC,171427,A,4629.791,N,00640.622,E,04.1,156,290415,01,E,A*05
$IIVHW,,,152,M,03.7,N,,*66
$IIVLW,01635,N,002.5,N*55
$IIVWR,022,L,08.7,N,,,,*70
$IIDPT,010.5,-1.0,*44
$IIGLL,4629.790,N,00640.622,E,171428,A,A*5A
$IIHDG,153,,,01,E*14
$IIMTW,+09.5,C*34
$IIMWV,339,R,08.6,N,A*14
$IIMWV,323,T,05.3,N,A*11
$IIRMC,171428,A,4629.790,N,00640.622,E,03.6,154,290415,01,E,A*09
$IIVHW,,,153,M,03.7,N,,*67
$IIVLW,01635,N,002.5,N*55
$IIVWR,022,L,08.5,N,,,,*72
$IIDPT,010.5,-1.0,*44
$IIGLL,4629.789,N,00640.623,E,171429,A,A*52
$IIHDG,153,,,01,E*14
$IIMTW,+10.0,C*39
$IIMWV,338,R,08.5,N,A*16
$IIMWV,324,T,05.1,N,A*14
$IIRMC,171429,A,4629.789,N,00640.623,E,03.6,155,290415,01,E,A*00
$IIVHW,,,153,M,03.7,N,,*67
$IIVLW,01635,N,002.5,N*55
$IIVWR,022,L,08.5,N,,,,*72
$IIDPT,010.5,-1.0,*44
$IIGLL,4629.788,N,00640.624,E,171430,A,A*5C
$IIHDG,152,,,01,E*15
$IIMTW,+09.5,C*34
$IIMWV,338,R,08.5,N,A*16
$IIMWV,323,T,05.2,N,A*10
$IIRMC,171430,A,4629.788,N,00640.624,E,03.6,154,290415,01,E,A*0F
$IIVHW,,,152,M,03.7,N,,*66
$IIVLW,01635,N,002.5,N*55
$IIVWR,023,L,09.0,N,,,,*77
$IIDPT,010.5,-1.0,*44
$IIGLL,4629.787,N,00640.624,E,171431,A,A*52
$IIHDG,152,,,01,E*15
$IIMTW,+09.0,C*31
$IIMWV,337,R,09.0,N,A*1D
$IIMWV,323,T,05.2,N,A*10
$IIRMC,171432,A,4629.786,N,00640.625,E,03.6,155,290415,01,E,A*03
$IIVHW,,,152,M,03.7,N,,*66
$IIVLW,01635,N,002.5,N*55
$IIVWR,024,L,08.8,N,,,,*79
$IIDPT,010.5,-1.0,*44
$IIGLL,4629.786,N,00640.625,E,171432,A,A*51
$IIHDG,152,,,01,E*15
$IIMTW,+09.0,C*31
$IIMWV,336,R,08.8,N,A*15
$IIMWV,320,T,05.6,N,A*17
$IIRMC,171433,A,4629.785,N,00640.626,E,03.6,154,290415,01,E,A*03
$IIVHW,,,152,M,03.6,N,,*67
$IIVLW,01635,N,002.5,N*55
$IIVWR,023,L,08.7,N,,,,*71
$IIDPT,010.5,-1.0,*44
$IIGLL,4629.785,N,00640.626,E,171433,A,A*50
$IIHDG,152,,,01,E*15
$IIMTW,+09.0,C*31
$IIMWV,337,R,08.6,N,A*1A
$IIMWV,323,T,05.4,N,A*16
$IIRMC,171434,A,4629.785,N,00640.626,E,03.6,155,290415,01,E,A*05
$IIVHW,,,152,M,03.6,N,,*67
$IIVLW,01635,N,002.5,N*55
$IIVWR,023,L,08.6,N,,,,*70
$IIDPT,010.5,-1.0,*44
$IIGLL,4629.785,N,00640.626,E,171434,A,A*57
$IIHDG,152,,,01,E*15
$IIMTW,+09.0,C*31
$IIMWV,337,R,08.5,N,A*19
$IIMWV,322,T,05.3,N,A*10
$IIRMC,171435,A,4629.784,N,00640.627,E,03.5,156,290415,01,E,A*04
$IIVHW,,,152,M,03.6,N,,*67
$IIVLW,01635,N,002.5,N*55
$IIVWR,023,L,08.5,N,,,,*73
$IIDPT,010.5,-1.0,*44
$IIGLL,4629.784,N,00640.627,E,171435,A,A*56
$IIHDG,152,,,01,E*15
$IIMTW,+09.0,C*31
$IIMWV,339,R,08.5,N,A*17
$IIMWV,321,T,05.2,N,A*12
$IIRMC,171436,A,4629.783,N,00640.627,E,03.5,155,290415,01,E,A*03
$IIVHW,,,152,M,03.6,N,,*67
$IIVLW,01635,N,002.5,N*55
$IIVWR,021,L,08.5,N,,,,*71
$IIDPT,010.5,-1.0,*44
$IIGLL,4629.782,N,00640.628,E,171437,A,A*5D
$IIHDG,152,,,01,E*15
$IIMTW,+09.0,C*31
$IIMWV,340,R,08.5,N,A*19
$IIMWV,324,T,05.1,N,A*14
$IIRMC,171437,A,4629.782,N,00640.628,E,03.5,156,290415,01,E,A*0F
$IIVHW,,,152,M,03.5,N,,*64
$IIVLW,01635,N,002.5,N*55
$IIVWR,020,L,08.5,N,,,,*70
$IIDPT,010.5,-1.0,*44
$IIGLL,4629.781,N,00640.628,E,171438,A,A*51
$IIHDG,152,,,01,E*15
$IIMTW,+09.0,C*31
$IIMWV,340,R,08.5,N,A*19
$IIMWV,327,T,05.1,N,A*17
$IIRMC,171438,A,4629.781,N,00640.628,E,03.5,156,290415,01,E,A*03
$IIVHW,,,152,M,03.5,N,,*64
$IIVLW,01635,N,002.5,N*55
$IIVWR,019,L,07.9,N,,,,*79
$IIDPT,010.4,-1.0,*45
$IIGLL,4629.780,N,00640.629,E,171439,A,A*50
$IIHDG,152,,,01,E*15
$IIMTW,+09.0,C*31
$IIMWV,341,R,07.9,N,A*1B
$IIMWV,327,T,05.1,N,A*17
$IIRMC,171439,A,4629.780,N,00640.629,E,03.5,156,290415,01,E,A*02
$IIVHW,,,152,M,03.5,N,,*64
$IIVLW,01635,N,002.5,N*55
$IIVWR,019,L,08.7,N,,,,*78
$IIDPT,010.4,-1.0,*45
$IIGLL,4629.779,N,00640.630,E,171440,A,A*50
$IIHDG,152,,,01,E*15
$IIMTW,+09.0,C*31
$IIMWV,341,R,08.7,N,A*1A
$IIMWV,326,T,04.6,N,A*10
$IIRMC,171440,A,4629.779,N,00640.630,E,03.5,155,290415,01,E,A*01
$IIVHW,,,152,M,03.5,N,,*64
$IIVLW,01635,N,002.5,N*55
$IIVWR,019,L,08.7,N,,,,*78
$IIDPT,010.4,-1.0,*45
$IIGLL,4629.779,N,00640.630,E,171441,A,A*51
$IIHDG,152,,,01,E*15
$IIMTW,+09.0,C*31
$IIMWV,341,R,08.7,N,A*1A
$IIMWV,329,T,05.3,N,A*1B
$IIRMC,171442,A,4629.778,N,00640.631,E,03.5,155,290415,01,E,A*03
$IIVHW,,,152,M,03.5,N,,*64
$IIVLW,01635,N,002.5,N*55
$IIVWR,019,L,08.6,N,,,,*79
$IIDPT,010.4,-1.0,*45
$IIGLL,4629.778,N,00640.631,E,171442,A,A*52
$IIHDG,152,,,01,E*15
$IIMTW,+09.0,C*31
$IIMWV,341,R,08.6,N,A*1B
$IIMWV,328,T,05.3,N,A*1A
$IIRMC,171443,A,4629.777,N,00640.631,E,03.5,153,290415,01,E,A*0B
$IIVHW,,,152,M,03.5,N,,*64
$IIVLW,01635,N,002.5,N*55
$IIVWR,021,L,08.5,N,,,,*71
$IIDPT,010.4,-1.0,*45
$IIGLL,4629.777,N,00640.631,E,171443,A,A*5C
$IIHDG,152,,,01,E*15
$IIMTW,+08.5,C*35
$IIMWV,340,R,08.5,N,A*19
$IIMWV,325,T,05.2,N,A*16
$IIRMC,171444,A,4629.776,N,00640.632,E,03.4,155,290415,01,E,A*09
$IIVHW,,,152,M,03.5,N,,*64
$IIVLW,01635,N,002.5,N*55
$IIVWR,020,L,08.5,N,,,,*70
$IIDPT,010.3,-1.0,*42
$IIGLL,4629.776,N,00640.632,E,171444,A,A*59
$IIHDG,152,,,01,E*15
$IIMTW,+08.5,C*35
$IIMWV,341,R,08.5,N,A*18
$IIMWV,327,T,05.1,N,A*17
$IIRMC,171445,A,4629.775,N,00640.633,E,03.4,155,290415,01,E,A*0A
$IIVHW,,,152,M,03.5,N,,*64
$IIVLW,01635,N,002.5,N*55
$IIVWR,019,L,08.5,N,,,,*7A
$IIDPT,010.3,-1.0,*42
$IIGLL,4629.775,N,00640.633,E,171445,A,A*5A
$IIHDG,152,,,01,E*15
$IIMTW,+09.5,C*34
$IIMWV,342,R,08.5,N,A*1B
$IIMWV,327,T,05.2,N,A*14
$IIRMC,171446,A,4629.774,N,00640.633,E,03.4,153,290415,01,E,A*0E
$IIVHW,,,152,M,03.5,N,,*64
$IIVLW,01635,N,002.5,N*55
$IIVWR,018,L,08.5,N,,,,*7B
$IIDPT,010.3,-1.0,*42
