$IIVLW,01636,N,003.1,N*53
$IIVHW,,,324,M,03.2,N,,*60
$IIVLW,01636,N,003.1,N*53
$IIVWR,126,R,03.7,N,,,,*60
$IIDPT,010.3,-1.0,*42
$IIGLL,4629.831,N,00640.385,E,172416,A,A*58
$IIHDG,324,,,01,E*16
$IIMTW,+09.0,C*31
$IIMWV,126,R,03.7,N,A*12
$IIMWV,151,T,06.0,N,A*16
$IIRMC,172417,A,4629.832,N,00640.384,E,03.6,327,290415,01,E,A*0E
$IIVHW,,,324,M,03.2,N,,*60
$IIVLW,01636,N,003.1,N*53
$IIVWR,127,R,03.5,N,,,,*63
$IIDPT,010.3,-1.0,*42
$IIGLL,4629.832,N,00640.384,E,172417,A,A*5B
$IIHDG,324,,,01,E*16
$IIMTW,+09.0,C*31
$IIMWV,121,R,03.2,N,A*10
$IIMWV,152,T,05.9,N,A*1F
$IIRMC,172418,A,4629.833,N,00640.383,E,03.5,328,290415,01,E,A*0B
$IIVHW,,,324,M,03.2,N,,*60
$IIVLW,01636,N,003.1,N*53
$IIVWR,121,R,03.2,N,,,,*62
$IIDPT,010.3,-1.0,*42
$IIGLL,4629.833,N,00640.383,E,172418,A,A*52
$IIHDG,324,,,01,E*16
$IIMTW,+09.0,C*31
$IIMWV,114,R,03.6,N,A*12
$IIMWV,151,T,05.5,N,A*10
$IIRMC,172419,A,4629.834,N,00640.382,E,03.5,328,290415,01,E,A*0C
$IIVHW,,,324,M,03.2,N,,*60
$IIVLW,01636,N,003.1,N*53
$IIVWR,114,R,03.6,N,,,,*60
$IIDPT,010.3,-1.0,*42
$IIGLL,4629.834,N,00640.382,E,172419,A,A*55
$IIHDG,324,,,01,E*16
$IIMTW,+09.0,C*31
$IIMWV,110,R,03.5,N,A*15
$IIMWV,145,T,05.6,N,A*16
$IIRMC,172420,A,4629.834,N,00640.382,E,03.5,328,290415,01,E,A*06
$IIVHW,,,324,M,03.2,N,,*60
$IIVLW,01636,N,003.1,N*53
$IIVWR,110,R,03.5,N,,,,*67
$IIDPT,010.3,-1.0,*42
$IIGLL,4629.835,N,00640.381,E,172421,A,A*5C
$IIHDG,325,,,01,E*17
$IIMTW,+09.0,C*31
$IIMWV,114,R,03.3,N,A*17
$IIMWV,143,T,05.3,N,A*15
$IIRMC,172421,A,4629.835,N,00640.381,E,03.5,328,290415,01,E,A*05
$IIVHW,,,325,M,03.2,N,,*61
$IIVLW,01636,N,003.1,N*53
$IIVWR,114,R,03.3,N,,,,*65
$IIDPT,010.6,-1.0,*47
$IIGLL,4629.836,N,00640.380,E,172422,A,A*5D
$IIHDG,325,,,01,E*17
$IIMTW,+09.0,C*31
$IIMWV,107,R,03.3,N,A*15
$IIMWV,146,T,05.4,N,A*17
$IIRMC,172422,A,4629.836,N,00640.380,E,03.5,329,290415,01,E,A*05
$IIVHW,,,325,M,03.2,N,,*61
$IIVLW,01636,N,003.1,N*53
$IIVWR,117,R,03.3,N,,,,*66
$IIDPT,010.6,-1.0,*47
$IIGLL,4629.837,N,00640.380,E,172423,A,A*5D
$IIHDG,325,,,01,E*17
$IIMTW,+09.0,C*31
$IIMWV,117,R,03.3,N,A*14
$IIMWV,143,T,05.2,N,A*14
$IIRMC,172423,A,4629.837,N,00640.380,E,03.5,327,290415,01,E,A*0B
$IIVHW,,,325,M,03.2,N,,*61
$IIVLW,01636,N,003.1,N*53
$IIVWR,115,R,03.2,N,,,,*65
$IIDPT,010.6,-1.0,*47
$IIGLL,4629.838,N,00640.379,E,172424,A,A*53
$IIHDG,325,,,01,E*17
$IIMTW,+09.0,C*31
$IIMWV,115,R,03.2,N,A*17
$IIMWV,148,T,05.5,N,A*18
$IIRMC,172424,A,4629.838,N,00640.379,E,03.5,329,290415,01,E,A*0B
$IIVHW,,,325,M,03.2,N,,*61
$IIVLW,01636,N,003.1,N*53
$IIVWR,124,R,03.0,N,,,,*65
$IIDPT,010.6,-1.0,*47
$IIGLL,4629.839,N,00640.378,E,172425,A,A*52
$IIHDG,325,,,01,E*17
$IIMTW,+09.0,C*31
$IIMWV,124,R,03.0,N,A*17
$IIMWV,148,T,05.4,N,A*19
$IIRMC,172426,A,4629.840,N,00640.377,E,03.5,328,290415,01,E,A*09
$IIVHW,,,324,M,03.2,N,,*60
$IIVLW,01636,N,003.1,N*53
$IIVWR,130,R,03.0,N,,,,*60
$IIDPT,010.6,-1.0,*47
$IIGLL,4629.840,N,00640.377,E,172426,A,A*50
$IIHDG,324,,,01,E*16
$IIMTW,+09.0,C*31
$IIMWV,130,R,03.0,N,A*12
$IIMWV,156,T,05.5,N,A*17
$IIRMC,172427,A,4629.840,N,00640.377,E,03.5,326,290415,01,E,A*06
$IIVHW,,,324,M,03.2,N,,*60
$IIVLW,01636,N,003.1,N*53
$IIVWR,130,R,02.8,N,,,,*69
$IIDPT,010.6,-1.0,*47
$IIGLL,4629.840,N,00640.377,E,172427,A,A*51
$IIHDG,324,,,01,E*16
$IIMTW,+09.0,C*31
$IIMWV,006,R,00.0,N,A*15
$IIMWV,157,T,05.3,N,A*10
$IIRMC,172428,A,4629.841,N,00640.376,E,03.5,325,290415,01,E,A*0A
$IIVHW,,,324,M,03.2,N,,*60
$IIVLW,01636,N,003.1,N*53
$IIVWR,006,R,00.0,N,,,,*67
$IIDPT,010.6,-1.0,*47
$IIGLL,4629.841,N,00640.376,E,172428,A,A*5E
$IIHDG,324,,,01,E*16
$IIMTW,+09.0,C*31
$IIMWV,134,R,02.8,N,A*1F
$IIMWV,006,T,03.2,N,A*12
$IIRMC,172429,A,4629.842,N,00640.375,E,03.5,325,290415,01,E,A*0B
$IIVHW,,,324,M,03.2,N,,*60
$IIVLW,01636,N,003.1,N*53
$IIVWR,134,R,02.8,N,,,,*6D
$IIDPT,010.6,-1.0,*47
$IIGLL,4629.842,N,00640.375,E,172429,A,A*5F
$IIHDG,323,,,01,E*11
$IIMTW,+09.0,C*31
$IIMWV,140,R,02.8,N,A*1C
$IIMWV,159,T,05.4,N,A*19
$IIRMC,172430,A,4629.843,N,00640.375,E,03.5,325,290415,01,E,A*02
$IIVHW,,,323,M,03.2,N,,*67
$IIVLW,01636,N,003.1,N*53
$IIVWR,140,R,02.8,N,,,,*6E
$IIDPT,010.6,-1.0,*47
$IIGLL,4629.844,N,00640.374,E,172431,A,A*51
$IIHDG,322,,,01,E*10
$IIMTW,+08.5,C*35
$IIMWV,140,R,02.8,N,A*1C
$IIMWV,162,T,05.5,N,A*10
$IIRMC,172431,A,4629.844,N,00640.374,E,03.5,325,290415,01,E,A*05
$IIVHW,,,322,M,03.2,N,,*66
$IIVLW,01636,N,003.1,N*53
$IIVWR,140,R,02.8,N,,,,*6E
$IIDPT,010.6,-1.0,*47
$IIGLL,4629.844,N,00640.373,E,172432,A,A*55
$IIHDG,322,,,01,E*10
$IIMTW,+08.5,C*35
$IIMWV,143,R,03.0,N,A*16
$IIMWV,162,T,05.5,N,A*10
$IIRMC,172432,A,4629.844,N,00640.373,E,03.5,325,290415,01,E,A*01
$IIVHW,,,322,M,03.2,N,,*66
$IIVLW,01636,N,003.1,N*53
$IIVWR,142,R,02.9,N,,,,*6D
$IIDPT,010.6,-1.0,*47
$IIGLL,4629.845,N,00640.372,E,172433,A,A*54
$IIHDG,322,,,01,E*10
$IIMTW,+08.5,C*35
$IIMWV,142,R,02.9,N,A*1F
$IIMWV,163,T,05.9,N,A*1D
$IIRMC,172433,A,4629.845,N,00640.372,E,03.5,326,290415,01,E,A*03
$IIVHW,,,322,M,03.2,N,,*66
$IIVLW,01636,N,003.1,N*53
$IIVWR,143,R,02.8,N,,,,*6D
$IIDPT,010.6,-1.0,*47
$IIGLL,4629.846,N,00640.372,E,172434,A,A*50
$IIHDG,322,,,01,E*10
$IIMTW,+08.5,C*35
$IIMWV,143,R,02.8,N,A*1F
$IIMWV,163,T,05.7,N,A*13
$IIRMC,172434,A,4629.846,N,00640.372,E,03.5,327,290415,01,E,A*06
$IIVHW,,,323,M,03.2,N,,*67
$IIVLW,01636,N,003.1,N*53
$IIVWR,142,R,02.8,N,,,,*6C
$IIDPT,010.6,-1.0,*47
$IIGLL,4629.847,N,00640.371,E,172435,A,A*53
$IIHDG,323,,,01,E*11
$IIMTW,+08.5,C*35
$IIMWV,142,R,02.8,N,A*1E
$IIMWV,164,T,05.7,N,A*14
$IIRMC,172436,A,4629.848,N,00640.370,E,03.5,328,290415,01,E,A*07
$IIVHW,,,323,M,03.3,N,,*66
$IIVLW,01636,N,003.1,N*53
$IIVWR,139,R,02.9,N,,,,*61
$IIDPT,010.6,-1.0,*47
$IIGLL,4629.848,N,00640.370,E,172436,A,A*5E
$IIHDG,323,,,01,E*11
$IIMTW,+08.5,C*35
$IIMWV,139,R,02.9,N,A*13
$IIMWV,160,T,05.7,N,A*10
$IIRMC,172437,A,4629.849,N,00640.369,E,03.6,328,290415,01,E,A*0C
$IIVHW,,,323,M,03.2,N,,*67
$IIVLW,01636,N,003.1,N*53
$IIVWR,139,R,02.9,N,,,,*61
$IIDPT,010.6,-1.0,*47
$IIGLL,4629.849,N,00640.369,E,172437,A,A*56
$IIHDG,323,,,01,E*11
$IIMTW,+08.5,C*35
$IIMWV,138,R,02.9,N,A*12
$IIMWV,160,T,05.7,N,A*10
$IIRMC,172438,A,4629.850,N,00640.369,E,03.6,329,290415,01,E,A*0A
$IIVHW,,,324,M,03.2,N,,*60
$IIVLW,01636,N,003.1,N*53
$IIVWR,138,R,02.9,N,,,,*60
$IIDPT,010.6,-1.0,*47
$IIGLL,4630.058,N,00640.160,E,172859,A,A*59
$IIGLL,4630.059,N,00640.159,E,172900,A,A*5F
$IIHDG,272,,,01,E*14
$IIMTW,+08.5,C*35
$IIMWV,219,R,02.9,N,A*12
$IIMWV,198,T,04.8,N,A*19
$IIRMC,172900,A,4630.059,N,00640.159,E,02.6,276,290415,01,E,A*0E
$IIVHW,,,272,M,02.3,N,,*62
$IIVLW,01636,N,003.3,N*51
$IIVWR,141,L,03.0,N,,,,*78
$IIDPT,010.5,-1.0,*44
$IIGLL,4630.059,N,00640.158,E,172901,A,A*5F
$IIHDG,271,,,01,E*17
$IIMTW,+08.5,C*35
$IIMWV,219,R,03.0,N,A*1A
$IIMWV,201,T,04.9,N,A*1B
$IIRMC,172901,A,4630.059,N,00640.158,E,02.6,273,290415,01,E,A*0B
$IIVHW,,,271,M,02.3,N,,*61
$IIVLW,01636,N,003.3,N*51
$IIVWR,136,L,03.3,N,,,,*7B
$IIDPT,010.5,-1.0,*44
$IIGLL,4630.059,N,00640.157,E,172902,A,A*53
$IIHDG,270,,,01,E*16
$IIMTW,+08.5,C*35
$IIMWV,224,R,03.3,N,A*17
$IIMWV,201,T,05.0,N,A*13
$IIRMC,172902,A,4630.059,N,00640.157,E,02.6,269,290415,01,E,A*0C
$IIVHW,,,268,M,02.3,N,,*69
$IIVLW,01636,N,003.3,N*51
$IIVWR,134,L,03.1,N,,,,*7B
$IIDPT,010.5,-1.0,*44
$IIGLL,4630.059,N,00640.156,E,172903,A,A*53
$IIHDG,268,,,01,E*1F
$IIMTW,+08.5,C*35
$IIMWV,226,R,03.1,N,A*17
$IIMWV,206,T,05.0,N,A*14
$IIRMC,172904,A,4630.059,N,00640.154,E,02.6,269,290415,01,E,A*09
$IIVHW,,,267,M,02.3,N,,*66
$IIVLW,01636,N,003.3,N*51
$IIVWR,131,L,03.3,N,,,,*7C
$IIDPT,010.5,-1.0,*44
$IIGLL,4630.059,N,00640.154,E,172904,A,A*56
$IIHDG,267,,,01,E*10
$IIMTW,+08.5,C*35
$IIMWV,229,R,03.3,N,A*1A
$IIMWV,209,T,05.0,N,A*1B
$IIRMC,172905,A,4630.059,N,00640.153,E,02.6,267,290415,01,E,A*01
$IIVHW,,,265,M,02.3,N,,*64
$IIVLW,01636,N,003.3,N*51
$IIVWR,130,L,03.6,N,,,,*78
$IIDPT,010.5,-1.0,*44
$IIGLL,4630.059,N,00640.153,E,172905,A,A*50
$IIHDG,265,,,01,E*12
$IIMTW,+08.5,C*35
$IIMWV,233,R,03.6,N,A*14
$IIMWV,211,T,05.3,N,A*11
$IIRMC,172906,A,4630.059,N,00640.152,E,02.6,269,290415,01,E,A*0D
$IIVHW,,,265,M,02.3,N,,*64
$IIVLW,01636,N,003.3,N*51
$IIVWR,127,L,03.6,N,,,,*7E
$IIDPT,010.5,-1.0,*44
$IIGLL,4630.059,N,00640.152,E,172906,A,A*52
$IIHDG,265,,,01,E*12
$IIMTW,+08.5,C*35
$IIMWV,235,R,03.8,N,A*1C
$IIMWV,213,T,05.2,N,A*12
$IIRMC,172907,A,4630.059,N,00640.151,E,02.6,269,290415,01,E,A*0F
$IIVHW,,,265,M,02.3,N,,*64
$IIVLW,01636,N,003.3,N*51
$IIVWR,125,L,03.8,N,,,,*72
$IIDPT,010.5,-1.0,*44
$IIGLL,4630.059,N,00640.151,E,172907,A,A*50
$IIHDG,265,,,01,E*12
$IIMTW,+08.5,C*35
$IIMWV,234,R,03.8,N,A*1D
$IIMWV,215,T,05.3,N,A*15
$IIRMC,172908,A,4630.059,N,00640.150,E,02.5,268,290415,01,E,A*03
$IIVHW,,,265,M,02.3,N,,*64
$IIVLW,01636,N,003.3,N*51
$IIVWR,126,L,03.8,N,,,,*71
$IIDPT,010.5,-1.0,*44
$IIGLL,4630.060,N,00640.149,E,172909,A,A*5D
$IIHDG,265,,,01,E*12
$IIMTW,+08.5,C*35
$IIMWV,234,R,03.9,N,A*1C
$IIMWV,214,T,05.4,N,A*13
$IIRMC,172909,A,4630.060,N,00640.149,E,02.5,270,290415,01,E,A*09
$IIVHW,,,265,M,02.3,N,,*64
$IIVLW,01636,N,003.3,N*51
$IIVWR,126,L,03.9,N,,,,*70
$IIDPT,010.5,-1.0,*44
$IIGLL,4630.059,N,00640.148,E,172910,A,A*5E
$IIHDG,264,,,01,E*13
$IIMTW,+08.5,C*35
$IIMWV,236,R,04.0,N,A*10
$IIMWV,214,T,05.5,N,A*12
$IIRMC,172910,A,4630.059,N,00640.148,E,02.5,267,290415,01,E,A*0C
$IIVHW,,,264,M,02.3,N,,*65
$IIVLW,01636,N,003.3,N*51
$IIVWR,122,L,04.1,N,,,,*7B
$IIDPT,010.5,-1.0,*44
$IIGLL,4630.059,N,00640.147,E,172911,A,A*50
$IIHDG,263,,,01,E*14
$IIMTW,+08.5,C*35
$IIMWV,238,R,04.1,N,A*1F
$IIMWV,216,T,05.5,N,A*10
$IIRMC,172911,A,4630.059,N,00640.147,E,02.5,266,290415,01,E,A*03
$IIVHW,,,263,M,02.3,N,,*62
$IIVLW,01636,N,003.3,N*51
$IIVWR,121,L,04.0,N,,,,*79
$IIDPT,010.5,-1.0,*44
$IIGLL,4630.059,N,00640.146,E,172912,A,A*52
$IIHDG,262,,,01,E*15
$IIMTW,+08.5,C*35
$IIMWV,239,R,04.0,N,A*1F
$IIMWV,218,T,05.5,N,A*1E
$IIRMC,172912,A,4630.059,N,00640.146,E,02.6,264,290415,01,E,A*00
$IIVHW,,,261,M,02.2,N,,*61
$IIVLW,01636,N,003.3,N*51
$IIVWR,122,L,03.9,N,,,,*74
$IIDPT,010.5,-1.0,*44
$IIGLL,4630.059,N,00640.145,E,172913,A,A*50
$IIHDG,261,,,01,E*16
$IIMTW,+08.5,C*35
$IIMWV,238,R,03.9,N,A*10
$IIMWV,218,T,05.4,N,A*1F
$IIRMC,172914,A,4630.059,N,00640.144,E,02.6,260,290415,01,E,A*00
$IIVHW,,,259,M,02.3,N,,*6B
$IIVLW,01636,N,003.3,N*51
$IIVWR,119,L,04.0,N,,,,*72
$IIDPT,010.5,-1.0,*44
$IIGLL,4630.059,N,00640.144,E,172914,A,A*56
$IIHDG,259,,,01,E*1D
$IIMTW,+09.0,C*31
$IIMWV,241,R,04.0,N,A*10
$IIMWV,219,T,05.4,N,A*1E
$IIRMC,172915,A,4630.059,N,00640.142,E,02.6,258,290415,01,E,A*0C
$IIVHW,,,257,M,02.1,N,,*67
$IIVLW,01636,N,003.3,N*51
$IIVWR,118,L,04.1,N,,,,*72
$IIDPT,010.5,-1.0,*44
$IIGLL,4630.059,N,00640.142,E,172915,A,A*51
$IIHDG,257,,,01,E*13
$IIMTW,+09.0,C*31
$IIMWV,244,R,04.2,N,A*17
$IIMWV,221,T,05.4,N,A*15
$IIRMC,172916,A,4630.059,N,00640.141,E,02.6,254,290415,01,E,A*00
$IIVHW,,,255,M,01.8,N,,*6F
$IIVLW,01636,N,003.3,N*51
$IIVWR,116,L,04.2,N,,,,*7F
$IIDPT,010.5,-1.0,*44
$IIGLL,4630.059,N,00640.141,E,172916,A,A*51
$IIHDG,255,,,01,E*11
$IIMTW,+09.0,C*31
$IIMWV,248,R,04.3,N,A*1A
$IIMWV,225,T,05.2,N,A*17
$IIRMC,172917,A,4630.059,N,00640.140,E,02.6,252,290415,01,E,A*06
$IIVHW,,,254,M,01.9,N,,*6F
$IIVLW,01636,N,003.3,N*51
$IIVWR,112,L,04.3,N,,,,*7A
$IIDPT,010.0,-1.0,*41
$IIGLL,4630.059,N,00640.140,E,172917,A,A*51
$IIHDG,252,,,01,E*16
$IIMTW,+09.0,C*31
$IIMWV,251,R,04.3,N,A*12
$IIMWV,228,T,05.2,N,A*1A
$IIRMC,172918,A,4630.059,N,00640.139,E,02.6,255,290415,01,E,A*00
$IIVHW,,,252,M,02.0,N,,*63
$IIVLW,01636,N,003.3,N*51
$IIVWR,109,L,04.3,N,,,,*70
$IIDPT,009.6,-1.0,*4F
$IIGLL,4630.058,N,00640.138,E,172919,A,A*51
$IIHDG,251,,,01,E*15
$IIMTW,+09.0,C*31
$IIMWV,251,R,04.4,N,A*15
$IIMWV,229,T,05.3,N,A*1A
$IIRMC,172919,A,4630.058,N,00640.138,E,02.6,250,290415,01,E,A*04
$IIVHW,,,251,M,02.1,N,,*61
$IIVLW,01636,N,003.3,N*51
$IIVWR,109,L,04.4,N,,,,*77
$IIDPT,009.6,-1.0,*4F
$IIGLL,4630.058,N,00640.137,E,172920,A,A*54
$IIHDG,249,,,01,E*1C
$IIMTW,+09.0,C*31
$IIMWV,255,R,04.4,N,A*11
$IIMWV,230,T,05.3,N,A*12
$IIRMC,172920,A,4630.058,N,00640.137,E,02.6,252,290415,01,E,A*03
$IIVHW,,,249,M,02.1,N,,*68
$IIVLW,01636,N,003.3,N*51
$IIVWR,103,L,04.5,N,,,,*7C
$IIDPT,009.4,-1.0,*4D
$IIGLL,4630.058,N,00640.136,E,172921,A,A*54
$IIHDG,249,,,01,E*1C
$IIMTW,+09.0,C*31
$IIMWV,257,R,04.5,N,A*12
$IIMWV,232,T,05.3,N,A*10
$IIRMC,172921,A,4630.058,N,00640.136,E,02.4,254,290415,01,E,A*07
$IIVHW,,,249,M,02.2,N,,*6B
$IIVLW,01636,N,003.3,N*51
$IIVWR,103,L,04.5,N,,,,*7C
$IIDPT,009.4,-1.0,*4D
$IIGLL,4630.058,N,00640.135,E,172922,A,A*54
$IIHDG,249,,,01,E*1C
$IIMTW,+09.0,C*31
$IIMWV,257,R,04.5,N,A*12
