$IIVHW,,,327,M,03.1,N,,*60
$IIVLW,01633,N,000.5,N*51
$IIHDG,327*51
$IIMTW,+08.5,C*35
$IIMWV,133,R,03.4,N,A*15
$IIMWV,158,T,06.0,N,A*1F
$IIRMC,164403,A,4629.897,N,00640.180,E,03.8,326,290415,01,E,A*0A
$IIVHW,,,327,M,03.1,N,,*60
$IIVLW,01633,N,000.5,N*51
$IIVWR,135,R,03.4,N,,,,*61
$IIDPT,010.9,-1.0,*48
$IIGLL,4629.897,N,00640.180,E,164403,A,A*50
$IIHDG,327,,,01,E*15
$IIMTW,+08.5,C*35
$IIMWV,135,R,03.4,N,A*13
$IIMWV,157,T,06.0,N,A*10
$IIRMC,164404,A,4629.897,N,00640.179,E,03.3,328,290415,01,E,A*0E
$IIVHW,,,326,M,03.1,N,,*61
$IIVLW,01633,N,000.5,N*51
$IIVWR,133,R,03.4,N,,,,*67
$IIDPT,010.9,-1.0,*48
$IIGLL,4629.897,N,00640.179,E,164404,A,A*51
$IIHDG,326,,,01,E*14
$IIMTW,+08.5,C*35
$IIMWV,134,R,03.4,N,A*12
$IIMWV,157,T,06.0,N,A*10
$IIRMC,164405,A,4629.898,N,00640.178,E,03.3,323,290415,01,E,A*0A
$IIVHW,,,325,M,03.1,N,,*62
$IIVLW,01633,N,000.5,N*51
$IIVWR,134,R,03.4,N,,,,*60
$IIDPT,010.9,-1.0,*48
$IIGLL,4629.898,N,00640.178,E,164405,A,A*5E
$IIHDG,325,,,01,E*17
$IIMTW,+08.5,C*35
$IIMWV,135,R,03.4,N,A*13
$IIMWV,156,T,05.9,N,A*1B
$IIRMC,164406,A,4629.899,N,00640.178,E,03.3,326,290415,01,E,A*0D
$IIVHW,,,324,M,03.1,N,,*63
$IIVLW,01633,N,000.5,N*51
$IIVWR,135,R,03.4,N,,,,*61
$IIDPT,010.9,-1.0,*48
$IIGLL,4629.899,N,00640.178,E,164406,A,A*5C
$IIHDG,324,,,01,E*16
$IIMTW,+08.5,C*35
$IIMWV,134,R,03.4,N,A*12
$IIMWV,157,T,06.0,N,A*10
$IIRMC,164407,A,4629.900,N,00640.177,E,03.6,332,290415,01,E,A*02
$IIVHW,,,324,M,03.1,N,,*63
$IIVLW,01633,N,000.5,N*51
$IIVWR,134,R,03.4,N,,,,*60
$IIDPT,010.9,-1.0,*48
$IIGLL,4629.901,N,00640.176,E,164408,A,A*5C
$IIHDG,324,,,01,E*16
$IIMTW,+08.5,C*35
$IIMWV,136,R,03.2,N,A*16
$IIMWV,157,T,06.0,N,A*10
$IIRMC,164408,A,4629.901,N,00640.176,E,03.5,332,290415,01,E,A*0E
$IIVHW,,,324,M,03.1,N,,*63
$IIVLW,01633,N,000.5,N*51
$IIVWR,136,R,03.2,N,,,,*64
$IIDPT,010.9,-1.0,*48
$IIGLL,4629.901,N,00640.175,E,164409,A,A*5E
$IIHDG,324,,,01,E*16
$IIMTW,+08.5,C*35
$IIMWV,136,R,03.2,N,A*16
$IIMWV,158,T,05.8,N,A*14
$IIRMC,164409,A,4629.901,N,00640.175,E,03.4,330,290415,01,E,A*0F
$IIVHW,,,324,M,03.1,N,,*63
$IIVLW,01633,N,000.5,N*51
$IIVWR,140,R,03.2,N,,,,*65
$IIDPT,010.9,-1.0,*48
$IIGLL,4629.902,N,00640.175,E,164410,A,A*55
$IIHDG,324,,,01,E*16
$IIMTW,+08.5,C*35
$IIMWV,140,R,03.2,N,A*17
$IIMWV,158,T,05.8,N,A*14
$IIRMC,164410,A,4629.902,N,00640.175,E,04.0,327,290415,01,E,A*01
$IIVHW,,,324,M,03.1,N,,*63
$IIVLW,01633,N,000.5,N*51
$IIVWR,146,R,03.1,N,,,,*60
$IIDPT,010.9,-1.0,*48
$IIGLL,4629.903,N,00640.174,E,164411,A,A*54
$IIHDG,323,,,01,E*11
$IIMTW,+09.0,C*31
$IIMWV,146,R,03.1,N,A*12
$IIMWV,160,T,05.8,N,A*1F
$IIRMC,164411,A,4629.903,N,00640.174,E,03.4,325,290415,01,E,A*01
$IIVHW,,,323,M,03.1,N,,*64
$IIVLW,01633,N,000.5,N*51
$IIVWR,148,R,02.9,N,,,,*67
$IIDPT,010.8,-1.0,*49
$IIGLL,4629.904,N,00640.173,E,164412,A,A*57
$IIHDG,323,,,01,E*11
$IIMTW,+09.0,C*31
$IIMWV,148,R,02.9,N,A*15
$IIMWV,163,T,05.8,N,A*1C
$IIRMC,164413,A,4629.905,N,00640.172,E,03.3,325,290415,01,E,A*04
$IIVHW,,,323,M,03.0,N,,*65
$IIVLW,01633,N,000.5,N*51
$IIVWR,148,R,02.7,N,,,,*69
$IIDPT,010.8,-1.0,*49
$IIGLL,4629.905,N,00640.172,E,164413,A,A*56
$IIHDG,323,,,01,E*11
$IIMTW,+09.0,C*31
$IIMWV,148,R,02.7,N,A*1B
$IIMWV,165,T,05.4,N,A*16
$IIRMC,164414,A,4629.906,N,00640.171,E,03.3,327,290415,01,E,A*01
$IIVHW,,,322,M,03.0,N,,*64
$IIVLW,01633,N,000.5,N*51
$IIVWR,144,R,02.8,N,,,,*6A
$IIDPT,010.7,-1.0,*46
$IIGLL,4629.906,N,00640.171,E,164414,A,A*51
$IIHDG,322,,,01,E*10
$IIMTW,+09.0,C*31
$IIMWV,147,R,03.0,N,A*12
$IIMWV,163,T,05.5,N,A*11
$IIRMC,164415,A,4629.906,N,00640.171,E,03.2,327,290415,01,E,A*01
$IIVHW,,,322,M,03.0,N,,*64
$IIVLW,01633,N,000.5,N*51
$IIVWR,147,R,03.0,N,,,,*60
$IIDPT,010.7,-1.0,*46
$IIGLL,4629.906,N,00640.171,E,164415,A,A*50
$IIHDG,322,,,01,E*10
$IIMTW,+09.0,C*31
$IIMWV,151,R,02.8,N,A*1C
$IIMWV,167,T,05.7,N,A*17
$IIRMC,164417,A,4629.908,N,00640.169,E,03.2,326,290415,01,E,A*05
$IIVHW,,,322,M,03.0,N,,*64
$IIVLW,01633,N,000.5,N*51
$IIVWR,151,R,02.8,N,,,,*6E
$IIDPT,010.7,-1.0,*46
$IIGLL,4629.908,N,00640.169,E,164417,A,A*55
$IIHDG,322,,,01,E*10
$IIMTW,+09.0,C*31
$IIMWV,153,R,03.0,N,A*17
$IIMWV,167,T,05.8,N,A*18
$IIRMC,164419,A,4629.909,N,00640.168,E,03.0,328,290415,01,E,A*07
$IIVHW,,,322,M,03.0,N,,*64
$IIVLW,01633,N,000.5,N*51
$IIVWR,153,R,03.0,N,,,,*65
$IIDPT,010.8,-1.0,*49
$IIGLL,4629.910,N,00640.167,E,164420,A,A*56
$IIHDG,322,,,01,E*10
$IIMTW,+09.0,C*31
$IIMWV,157,R,03.0,N,A*13
$IIMWV,167,T,05.8,N,A*18
$IIRMC,164420,A,4629.910,N,00640.167,E,03.2,326,290415,01,E,A*06
$IIVHW,,,322,M,03.0,N,,*64
$IIVLW,01633,N,000.5,N*51
$IIVWR,157,R,03.0,N,,,,*61
$IIDPT,010.9,-1.0,*48
$IIGLL,4629.911,N,00640.167,E,164421,A,A*56
$IIHDG,322,,,01,E*10
$IIMTW,+09.0,C*31
$IIMWV,159,R,03.1,N,A*1C
$IIMWV,169,T,05.9,N,A*17
$IIRMC,164421,A,4629.911,N,00640.167,E,03.2,325,290415,01,E,A*05
$IIVHW,,,322,M,03.0,N,,*64
$IIVLW,01633,N,000.5,N*51
$IIVWR,154,R,03.0,N,,,,*62
$IIDPT,010.9,-1.0,*48
$IIGLL,4629.912,N,00640.166,E,164422,A,A*57
$IIHDG,322,,,01,E*10
$IIMTW,+09.0,C*31
$IIMWV,154,R,03.0,N,A*10
$IIMWV,169,T,05.9,N,A*17
$IIRMC,164422,A,4629.912,N,00640.166,E,03.0,325,290415,01,E,A*06
$IIVHW,,,322,M,03.0,N,,*64
$IIVLW,01633,N,000.5,N*51
$IIVWR,153,R,03.0,N,,,,*65
$IIDPT,011.0,-1.0,*40
$IIGLL,4629.913,N,00640.165,E,164423,A,A*54
$IIHDG,322,,,01,E*10
$IIMTW,+08.5,C*35
$IIMWV,153,R,03.0,N,A*17
$IIMWV,167,T,05.8,N,A*18
$IIRMC,164423,A,4629.913,N,00640.165,E,03.4,325,290415,01,E,A*01
$IIVHW,,,322,M,03.0,N,,*64
$IIVLW,01633,N,000.5,N*51
$IIVWR,159,R,03.1,N,,,,*6E
$IIDPT,011.0,-1.0,*40
$IIGLL,4629.914,N,00640.164,E,164424,A,A*55
$IIHDG,322,,,01,E*10
$IIMTW,+08.5,C*35
$IIMWV,159,R,03.1,N,A*1C
$IIMWV,167,T,05.7,N,A*17
$IIRMC,164425,A,4629.914,N,00640.164,E,03.2,323,290415,01,E,A*01
$IIVHW,,,321,M,02.9,N,,*6F
$IIVLW,01633,N,000.7,N*53
$IIHDG,240,,,01,E*15
$IIMTW,+08.5,C*35
$IIMWV,280,R,05.9,N,A*15
$IIMWV,243,T,06.3,N,A*15
$IIRMC,164735,A,4630.051,N,00640.092,E,03.4,231,290415,01,E,A*0F
$IIVHW,,,235,M,03.0,N,,*63
$IIVLW,01633,N,000.7,N*53
$IIVWR,075,L,06.5,N,,,,*7E
$IIDPT,009.6,-1.0,*4F
$IIGLL,4630.051,N,00640.091,E,164736,A,A*5E
$IIHDG,235,,,01,E*17
$IIMTW,+08.5,C*35
$IIMWV,285,R,06.5,N,A*1F
$IIMWV,250,T,06.0,N,A*14
$IIRMC,164737,A,4630.050,N,00640.090,E,02.9,218,290415,01,E,A*09
$IIVHW,,,230,M,03.0,N,,*66
$IIVLW,01633,N,000.7,N*53
$IIVWR,068,L,06.5,N,,,,*72
$IIDPT,009.7,-1.0,*4E
$IIGLL,4630.050,N,00640.090,E,164737,A,A*5F
$IIHDG,230,,,01,E*12
$IIMTW,+08.5,C*35
$IIMWV,292,R,06.5,N,A*19
$IIMWV,264,T,06.0,N,A*13
$IIRMC,164738,A,4630.049,N,00640.090,E,03.1,213,290415,01,E,A*0C
$IIVHW,,,224,M,02.9,N,,*6B
$IIVLW,01633,N,000.7,N*53
$IIVWR,062,L,06.9,N,,,,*74
$IIDPT,009.7,-1.0,*4E
$IIGLL,4630.049,N,00640.090,E,164738,A,A*58
$IIHDG,224,,,01,E*17
$IIMTW,+08.5,C*35
$IIMWV,302,R,07.1,N,A*14
$IIMWV,272,T,06.0,N,A*14
$IIRMC,164739,A,4630.048,N,00640.089,E,03.3,206,290415,01,E,A*02
$IIVHW,,,218,M,02.9,N,,*64
$IIVLW,01633,N,000.7,N*53
$IIVWR,058,L,07.1,N,,,,*74
$IIDPT,009.8,-1.0,*41
$IIGLL,4630.048,N,00640.089,E,164739,A,A*50
$IIHDG,218,,,01,E*18
$IIMTW,+08.5,C*35
$IIMWV,309,R,07.1,N,A*1F
$IIMWV,277,T,06.0,N,A*11
$IIRMC,164740,A,4630.048,N,00640.088,E,03.3,205,290415,01,E,A*0E
$IIVHW,,,214,M,02.9,N,,*68
$IIVLW,01633,N,000.7,N*53
$IIVWR,051,L,07.1,N,,,,*7D
$IIDPT,010.0,-1.0,*41
$IIGLL,4630.048,N,00640.088,E,164740,A,A*5F
$IIHDG,205,,,01,E*14
$IIMTW,+09.0,C*31
$IIMWV,312,R,07.1,N,A*15
$IIMWV,287,T,05.3,N,A*1E
$IIRMC,164742,A,4630.046,N,00640.087,E,03.1,196,290415,01,E,A*06
$IIVHW,,,205,M,02.9,N,,*68
$IIVLW,01633,N,000.7,N*53
$IIVWR,048,L,07.1,N,,,,*75
$IIDPT,010.4,-1.0,*45
$IIGLL,4630.045,N,00640.087,E,164743,A,A*5E
$IIHDG,201,,,01,E*10
$IIMTW,+09.0,C*31
$IIMWV,314,R,07.3,N,A*11
$IIMWV,288,T,05.4,N,A*16
$IIRMC,164743,A,4630.045,N,00640.087,E,02.9,194,290415,01,E,A*0F
$IIVHW,,,201,M,02.9,N,,*6C
$IIVLW,01633,N,000.7,N*53
$IIVWR,046,L,07.3,N,,,,*79
$IIDPT,010.4,-1.0,*45
$IIGLL,4630.044,N,00640.086,E,164744,A,A*59
$IIHDG,200,,,01,E*11
$IIMTW,+09.0,C*31
$IIMWV,316,R,07.2,N,A*12
$IIMWV,291,T,05.5,N,A*1F
$IIRMC,164744,A,4630.044,N,00640.086,E,03.0,195,290415,01,E,A*01
$IIVHW,,,200,M,03.0,N,,*65
$IIVLW,01633,N,000.7,N*53
$IIVWR,042,L,07.0,N,,,,*7E
$IIDPT,010.2,-1.0,*43
$IIGLL,4630.043,N,00640.086,E,164745,A,A*5F
$IIHDG,198,,,01,E*13
$IIMTW,+09.0,C*31
$IIMWV,318,R,07.0,N,A*1E
$IIMWV,293,T,05.3,N,A*1B
$IIRMC,164745,A,4630.043,N,00640.086,E,03.0,196,290415,01,E,A*04
$IIVHW,,,198,M,02.9,N,,*6F
$IIVLW,01633,N,000.7,N*53
$IIVWR,041,L,07.1,N,,,,*7C
$IIDPT,009.8,-1.0,*41
$IIGLL,4630.043,N,00640.085,E,164746,A,A*5F
$IIHDG,197,,,01,E*1C
$IIMTW,+09.0,C*31
$IIMWV,319,R,07.1,N,A*1E
$IIMWV,295,T,05.0,N,A*1E
$IIRMC,164746,A,4630.043,N,00640.085,E,03.0,195,290415,01,E,A*07
$IIVHW,,,196,M,03.0,N,,*69
$IIVLW,01633,N,000.7,N*53
$IIVWR,041,L,07.2,N,,,,*7F
$IIDPT,009.8,-1.0,*41
$IIGLL,4630.042,N,00640.085,E,164747,A,A*5F
$IIHDG,196,,,01,E*1D
$IIMTW,+09.0,C*31
$IIMWV,319,R,07.2,N,A*1D
$IIMWV,297,T,05.1,N,A*1D
$IIRMC,164748,A,4630.041,N,00640.085,E,03.1,196,290415,01,E,A*09
$IIVHW,,,195,M,03.0,N,,*6A
$IIVLW,01633,N,000.7,N*53
$IIVWR,041,L,07.7,N,,,,*7A
$IIDPT,009.7,-1.0,*4E
$IIGLL,4630.041,N,00640.085,E,164748,A,A*53
$IIHDG,195,,,01,E*1E
$IIMTW,+09.0,C*31
$IIMWV,319,R,07.7,N,A*18
$IIMWV,299,T,05.6,N,A*14
$IIRMC,164749,A,4630.040,N,00640.084,E,03.1,196,290415,01,E,A*08
$IIVHW,,,194,M,03.0,N,,*6B
$IIVLW,01633,N,000.7,N*53
$IIVWR,041,L,07.7,N,,,,*7A
$IIDPT,009.7,-1.0,*4E
$IIGLL,4630.040,N,00640.084,E,164749,A,A*52
$IIHDG,194,,,01,E*1F
$IIMTW,+09.0,C*31
$IIMWV,320,R,07.6,N,A*13
$IIMWV,297,T,05.6,N,A*1A
$IIRMC,164750,A,4630.039,N,00640.084,E,03.1,195,290415,01,E,A*0D
$IIVHW,,,193,M,03.0,N,,*6C
$IIVLW,01633,N,000.7,N*53
$IIVWR,040,L,07.6,N,,,,*7A
$IIDPT,009.7,-1.0,*4E
$IIGLL,4630.039,N,00640.084,E,164750,A,A*54
$IIHDG,193,,,01,E*18
$IIMTW,+09.0,C*31
$IIMWV,322,R,07.5,N,A*12
$IIMWV,299,T,05.5,N,A*17
$IIRMC,164751,A,4630.038,N,00640.083,E,03.1,193,290415,01,E,A*0C
$IIVHW,,,193,M,03.0,N,,*6C
$IIVLW,01633,N,000.7,N*53
$IIVWR,038,L,07.5,N,,,,*76
$IIDPT,009.7,-1.0,*4E
$IIGLL,4630.038,N,00640.083,E,164751,A,A*53
$IIHDG,190,,,01,E*1B
$IIMTW,+09.0,C*31
$IIMWV,322,R,07.6,N,A*11
$IIMWV,301,T,05.3,N,A*11
$IIRMC,164753,A,4630.036,N,00640.083,E,03.2,192,290415,01,E,A*02
$IIVHW,,,190,M,03.1,N,,*6E
$IIVLW,01633,N,000.7,N*53
$IIVWR,038,L,07.6,N,,,,*75
$IIDPT,009.8,-1.0,*41
$IIGLL,4630.036,N,00640.082,E,164754,A,A*59
$IIHDG,189,,,01,E*13
$IIMTW,+09.0,C*31
$IIMWV,321,R,08.0,N,A*1B
$IIMWV,302,T,05.5,N,A*14
$IIRMC,164754,A,4630.036,N,00640.082,E,03.2,191,290415,01,E,A*07
$IIVHW,,,189,M,03.1,N,,*66
$IIVLW,01633,N,000.7,N*53
$IIVWR,039,L,08.0,N,,,,*7D
$IIDPT,009.8,-1.0,*41
$IIGLL,4630.035,N,00640.082,E,164755,A,A*5B
$IIHDG,189,,,01,E*13
$IIMTW,+08.5,C*35
$IIMWV,322,R,08.2,N,A*1A
$IIMWV,301,T,05.8,N,A*1A
$IIRMC,164755,A,4630.035,N,00640.082,E,03.2,189,290415,01,E,A*0C
$IIVHW,,,189,M,03.1,N,,*66
$IIVLW,01633,N,000.7,N*53
$IIVWR,038,L,08.7,N,,,,*7B
$IIDPT,009.8,-1.0,*41
$IIGLL,4630.034,N,00640.082,E,164756,A,A*59
$IIHDG,188,,,01,E*12
$IIMTW,+08.5,C*35
$IIMWV,322,R,08.7,N,A*1F
$IIMWV,303,T,05.9,N,A*19
$IIRMC,164756,A,4630.034,N,00640.082,E,03.2,188,290415,01,E,A*0F
$IIVHW,,,188,M,03.1,N,,*67
$IIVLW,01633,N,000.7,N*53
$IIVWR,038,L,08.7,N,,,,*7B
$IIDPT,009.6,-1.0,*4F
$IIGLL,4630.033,N,00640.082,E,164757,A,A*5F
$IIHDG,187,,,01,E*1D
$IIMTW,+08.5,C*35
$IIMWV,322,R,08.7,N,A*1F
$IIMWV,304,T,06.4,N,A*10
$IIRMC,164757,A,4630.033,N,00640.082,E,03.2,188,290415,01,E,A*09
$IIVHW,,,187,M,03.1,N,,*68
$IIMTW,+08.5,C*35
$IIMWV,139,R,03.0,N,A*1B
$IIVHW,,,324,M,03.2,N,,*60
$IIVLW,01636,N,003.1,N*53
$IIVWR,139,R,03.0,N,,,,*69
$IIDPT,010.6,-1.0,*47
$IIGLL,4629.851,N,00640.368,E,172439,A,A*50
$IIHDG,324,,,01,E*16
$IIMTW,+08.5,C*35
$IIMWV,138,R,03.3,N,A*19
$IIMWV,161,T,05.8,N,A*1E
$IIRMC,172440,A,4629.852,N,00640.367,E,03.6,327,290415,01,E,A*07
$IIVHW,,,324,M,03.2,N,,*60
$IIVLW,01636,N,003.1,N*53
$IIVWR,138,R,03.3,N,,,,*6B
$IIDPT,010.6,-1.0,*47
$IIGLL,4629.852,N,00640.366,E,172441,A,A*52
$IIHDG,325,,,01,E*17
$IIMTW,+08.5,C*35
$IIMWV,136,R,03.1,N,A*15
$IIMWV,159,T,06.1,N,A*1F
$IIRMC,172441,A,4629.852,N,00640.366,E,03.6,328,290415,01,E,A*08
$IIVHW,,,325,M,03.3,N,,*60
$IIVLW,01636,N,003.1,N*53
$IIVWR,136,R,03.1,N,,,,*67
$IIDPT,010.6,-1.0,*47
$IIGLL,4629.853,N,00640.366,E,172442,A,A*50
$IIHDG,325,,,01,E*17
$IIMTW,+08.5,C*35
$IIMWV,137,R,03.0,N,A*15
$IIMWV,159,T,05.8,N,A*15
$IIRMC,172442,A,4629.853,N,00640.366,E,03.6,329,290415,01,E,A*0B
$IIVHW,,,325,M,03.3,N,,*60
$IIVLW,01636,N,003.1,N*53
$IIVWR,137,R,02.8,N,,,,*6E
$IIDPT,010.6,-1.0,*47
$IIGLL,4629.854,N,00640.365,E,172443,A,A*55
$IIHDG,325,,,01,E*17
$IIMTW,+08.5,C*35
$IIMWV,137,R,02.8,N,A*1C
$IIMWV,160,T,05.7,N,A*10
$IIRMC,172443,A,4629.854,N,00640.365,E,03.6,330,290415,01,E,A*06
$IIVHW,,,325,M,03.3,N,,*60
$IIVLW,01636,N,003.1,N*53
$IIVWR,136,R,02.8,N,,,,*6F
$IIDPT,010.6,-1.0,*47
$IIGLL,4629.855,N,00640.364,E,172444,A,A*52
$IIHDG,325,,,01,E*17
$IIMTW,+08.5,C*35
$IIMWV,136,R,02.8,N,A*1D
$IIMWV,160,T,05.6,N,A*11
$IIRMC,172444,A,4629.855,N,00640.364,E,03.6,326,290415,01,E,A*06
$IIVHW,,,325,M,03.3,N,,*60
$IIVLW,01636,N,003.1,N*53
$IIVWR,134,R,02.6,N,,,,*63
$IIDPT,010.6,-1.0,*47
$IIGLL,4629.856,N,00640.364,E,172445,A,A*50
$IIHDG,325,,,01,E*17
$IIMTW,+08.5,C*35
$IIMWV,134,R,02.6,N,A*11
$IIMWV,160,T,05.6,N,A*11
$IIRMC,172446,A,4629.856,N,00640.363,E,03.6,327,290415,01,E,A*01
$IIVHW,,,325,M,03.3,N,,*60
$IIVLW,01636,N,003.1,N*53
$IIVWR,136,R,02.8,N,,,,*6F
$IIDPT,010.6,-1.0,*47
$IIGLL,4629.856,N,00640.363,E,172446,A,A*54
$IIHDG,325,,,01,E*17
$IIMTW,+08.5,C*35
$IIMWV,136,R,02.8,N,A*1D
$IIMWV,160,T,05.6,N,A*11
$IIRMC,172447,A,4629.857,N,00640.362,E,03.6,327,290415,01,E,A*00
$IIVHW,,,324,M,03.3,N,,*61
$IIVLW,01636,N,003.1,N*53
$IIVWR,137,R,03.1,N,,,,*66
$IIDPT,010.6,-1.0,*47
$IIGLL,4629.857,N,00640.362,E,172447,A,A*55
$IIHDG,324,,,01,E*16
$IIMTW,+08.5,C*35
$IIMWV,134,R,02.9,N,A*1E
$IIMWV,159,T,05.8,N,A*15
$IIRMC,172448,A,4629.858,N,00640.361,E,03.6,328,290415,01,E,A*0C
$IIVHW,,,324,M,03.3,N,,*61
$IIVLW,01636,N,003.1,N*53
$IIVWR,134,R,02.9,N,,,,*6C
$IIDPT,010.6,-1.0,*47
$IIGLL,4629.858,N,00640.361,E,172448,A,A*56
$IIHDG,324,,,01,E*16
$IIMTW,+09.5,C*34
$IIMWV,131,R,02.8,N,A*1A
$IIMWV,159,T,05.6,N,A*1B
$IIRMC,172449,A,4629.859,N,00640.360,E,03.6,328,290415,01,E,A*0D
$IIVHW,,,324,M,03.2,N,,*60
$IIVLW,01636,N,003.1,N*53
$IIVWR,131,R,02.8,N,,,,*68
$IIDPT,010.6,-1.0,*47
$IIGLL,4629.859,N,00640.360,E,172449,A,A*57
$IIHDG,324,,,01,E*16
$IIMTW,+08.5,C*35
$IIMWV,132,R,02.7,N,A*16
$IIMWV,158,T,05.5,N,A*19
$IIRMC,172450,A,4629.860,N,00640.360,E,03.6,328,290415,01,E,A*0F
$IIVHW,,,324,M,03.3,N,,*61
$IIVLW,01636,N,003.1,N*53
$IIVWR,132,R,02.7,N,,,,*64
$IIDPT,010.6,-1.0,*47
$IIGLL,4629.861,N,00640.359,E,172451,A,A*5F
$IIHDG,324,,,01,E*16
$IIMTW,+09.0,C*31
$IIMWV,131,R,02.6,N,A*14
$IIMWV,160,T,05.4,N,A*13
$IIRMC,172451,A,4629.861,N,00640.359,E,03.6,327,290415,01,E,A*0A
$IIVHW,,,324,M,03.3,N,,*61
$IIVLW,01636,N,003.1,N*53
$IIVWR,131,R,02.6,N,,,,*66
$IIDPT,010.4,-1.0,*45
$IIGLL,4629.863,N,00640.357,E,172453,A,A*51
$IIHDG,324,,,01,E*16
$IIMTW,+09.0,C*31
$IIMWV,131,R,02.7,N,A*15
$IIMWV,006,T,03.3,N,A*13
$IIRMC,172453,A,4629.863,N,00640.357,E,03.6,326,290415,01,E,A*05
$IIVHW,,,324,M,03.3,N,,*61
$IIVLW,01636,N,003.1,N*53
$IIVWR,132,R,03.1,N,,,,*63
$IIDPT,010.4,-1.0,*45
$IIGLL,4629.863,N,00640.357,E,172454,A,A*56
$IIHDG,324,,,01,E*16
$IIMTW,+09.0,C*31
$IIMWV,132,R,03.1,N,A*11
$IIMWV,158,T,05.3,N,A*1F
$IIRMC,172454,A,4629.863,N,00640.357,E,03.6,326,290415,01,E,A*02
$IIVHW,,,324,M,03.3,N,,*61
$IIVLW,01636,N,003.1,N*53
$IIVWR,134,R,03.0,N,,,,*64
$IIDPT,010.4,-1.0,*45
$IIGLL,4629.864,N,00640.356,E,172455,A,A*51
$IIHDG,324,,,01,E*16
$IIMTW,+09.0,C*31
$IIMWV,134,R,03.0,N,A*16
$IIMWV,157,T,05.7,N,A*14
$IIRMC,172455,A,4629.864,N,00640.356,E,03.8,324,290415,01,E,A*09
$IIVHW,,,323,M,03.3,N,,*66
$IIVLW,01636,N,003.1,N*53
$IIVWR,133,R,02.9,N,,,,*6B
$IIDPT,010.5,-1.0,*44
$IIGLL,4629.865,N,00640.355,E,172456,A,A*50
$IIHDG,323,,,01,E*11
$IIMTW,+09.0,C*31
$IIMWV,133,R,02.9,N,A*19
$IIMWV,159,T,05.7,N,A*1A
$IIRMC,172457,A,4629.866,N,00640.354,E,03.5,325,290415,01,E,A*07
$IIVHW,,,322,M,03.3,N,,*67
$IIVLW,01636,N,003.1,N*53
$IIVWR,134,R,03.2,N,,,,*66
$IIDPT,010.5,-1.0,*44
$IIGLL,4629.866,N,00640.354,E,172457,A,A*53
$IIHDG,322,,,01,E*10
$IIMTW,+09.0,C*31
$IIMWV,134,R,03.2,N,A*14
$IIMWV,158,T,06.0,N,A*1F
$IIRMC,172458,A,4629.867,N,00640.353,E,03.4,324,290415,01,E,A*0E
$IIVHW,,,322,M,03.3,N,,*67
$IIVLW,01636,N,003.1,N*53
$IIVWR,134,R,03.0,N,,,,*64
$IIDPT,010.6,-1.0,*47
$IIGLL,4629.867,N,00640.353,E,172458,A,A*5A
$IIHDG,322,,,01,E*10
$IIMTW,+09.0,C*31
$IIMWV,132,R,03.0,N,A*10
$IIMWV,159,T,05.7,N,A*1A
$IIRMC,172459,A,4629.867,N,00640.353,E,03.5,326,290415,01,E,A*0C
$IIVHW,,,322,M,03.3,N,,*67
$IIVLW,01636,N,003.1,N*53
$IIVWR,132,R,03.0,N,,,,*62
$IIDPT,010.6,-1.0,*47
$IIGLL,4629.867,N,00640.353,E,172459,A,A*5B
$IIHDG,322,,,01,E*10
$IIMTW,+08.5,C*35
$IIMWV,133,R,03.1,N,A*10
$IIMWV,158,T,05.8,N,A*14
$IIRMC,172500,A,4629.868,N,00640.352,E,03.5,324,290415,01,E,A*0D
$IIVHW,,,322,M,03.3,N,,*67
$IIVLW,01636,N,003.1,N*53
$IIVWR,133,R,03.1,N,,,,*62
$IIDPT,010.6,-1.0,*47
$IIGLL,4629.868,N,00640.352,E,172500,A,A*58
$IIHDG,321,,,01,E*13
$IIMTW,+08.5,C*35
$IIMWV,132,R,03.0,N,A*10
$IIMWV,158,T,05.9,N,A*15
$IIRMC,172501,A,4629.869,N,00640.351,E,03.6,325,290415,01,E,A*0C
$IIVHW,,,321,M,03.3,N,,*64
$IIVLW,01636,N,003.1,N*53
$IIVWR,132,R,03.0,N,,,,*62
$IIDPT,010.6,-1.0,*47
$IIGLL,4629.870,N,00640.350,E,172502,A,A*51
$IIHDG,321,,,01,E*13
$IIMTW,+08.5,C*35
$IIDPT,044.2,-1.0,*42
$IIMTW,+10.0,C*39
$IIMWV,339,R,13.6,N,A*1E
$IIMWV,327,T,08.3,N,A*18
$IIRMC,180309,A,4629.146,N,00642.169,E,05.5,151,290415,01,E,A*04
$IIVHW,,,149,M,05.6,N,,*6B
$IIVLW,01638,N,001.1,N*5F
$IIVWR,023,L,13.8,N,,,,*74
$IIDPT,044.2,-1.0,*42
$IIGLL,4629.145,N,00642.170,E,180310,A,A*54
$IIHDG,149,,,01,E*1F
$IIMTW,+09.0,C*31
$IIMWV,337,R,13.8,N,A*1E
$IIMWV,326,T,08.4,N,A*1E
$IIRMC,180310,A,4629.145,N,00642.170,E,05.2,142,290415,01,E,A*02
$IIVHW,,,149,M,05.6,N,,*6B
$IIVLW,01638,N,001.1,N*5F
$IIVWR,022,L,13.8,N,,,,*75
$IIDPT,044.2,-1.0,*42
$IIGLL,4629.143,N,00642.172,E,180311,A,A*51
$IIHDG,149,,,01,E*1F
$IIMTW,+09.5,C*34
$IIMWV,338,R,13.8,N,A*11
$IIMWV,323,T,08.7,N,A*18
$IIRMC,180311,A,4629.143,N,00642.172,E,05.3,155,290415,01,E,A*00
$IIVHW,,,149,M,05.6,N,,*6B
$IIVLW,01638,N,001.1,N*5F
$IIVWR,022,L,13.9,N,,,,*74
$IIDPT,044.2,-1.0,*42
$IIGLL,4629.142,N,00642.172,E,180312,A,A*53
$IIHDG,149,,,01,E*1F
$IIMTW,+09.0,C*31
$IIMWV,338,R,13.9,N,A*10
$IIMWV,325,T,08.8,N,A*11
$IIRMC,180313,A,4629.141,N,00642.173,E,05.3,152,290415,01,E,A*06
$IIVHW,,,149,M,05.6,N,,*6B
$IIVLW,01638,N,001.1,N*5F
$IIVWR,023,L,14.3,N,,,,*78
$IIDPT,044.2,-1.0,*42
$IIGLL,4629.141,N,00642.173,E,180313,A,A*50
$IIHDG,149,,,01,E*1F
$IIMTW,+09.5,C*34
$IIMWV,337,R,14.3,N,A*12
$IIMWV,324,T,09.3,N,A*1A
$IIRMC,180314,A,4629.139,N,00642.174,E,05.3,154,290415,01,E,A*0F
$IIVHW,,,149,M,05.6,N,,*6B
$IIVLW,01638,N,001.1,N*5F
$IIVWR,023,L,14.5,N,,,,*7E
$IIDPT,044.2,-1.0,*42
$IIGLL,4629.139,N,00642.174,E,180314,A,A*5F
$IIHDG,149,,,01,E*1F
$IIMTW,+09.0,C*31
$IIMWV,337,R,14.6,N,A*17
$IIMWV,323,T,09.4,N,A*1A
$IIRMC,180315,A,4629.138,N,00642.175,E,05.3,157,290415,01,E,A*0D
$IIVHW,,,149,M,05.6,N,,*6B
$IIVLW,01638,N,001.1,N*5F
$IIVWR,023,L,14.6,N,,,,*7D
$IIDPT,067.2,-1.0,*43
$IIGLL,4629.138,N,00642.175,E,180315,A,A*5E
$IIHDG,149,,,01,E*1F
$IIMTW,+10.0,C*39
$IIMWV,337,R,15.3,N,A*13
$IIMWV,324,T,09.5,N,A*1C
$IIRMC,180316,A,4629.137,N,00642.176,E,05.6,162,290415,01,E,A*01
$IIVHW,,,149,M,05.7,N,,*6A
$IIVLW,01638,N,001.1,N*5F
$IIVWR,023,L,15.3,N,,,,*79
$IIDPT,067.2,-1.0,*43
$IIGLL,4629.137,N,00642.176,E,180316,A,A*51
$IIHDG,149,,,01,E*1F
$IIMTW,+10.0,C*39
$IIMWV,337,R,15.4,N,A*14
$IIMWV,325,T,10.1,N,A*11
$IIRMC,180317,A,4629.135,N,00642.177,E,05.4,151,290415,01,E,A*01
$IIVHW,,,149,M,05.7,N,,*6A
$IIVLW,01638,N,001.1,N*5F
$IIVWR,023,L,15.4,N,,,,*7E
$IIDPT,055.6,-1.0,*46
$IIGLL,4629.134,N,00642.178,E,180318,A,A*52
$IIHDG,149,,,01,E*1F
$IIMTW,+10.0,C*39
$IIMWV,336,R,15.1,N,A*10
$IIMWV,324,T,10.3,N,A*12
$IIRMC,180318,A,4629.134,N,00642.178,E,05.4,150,290415,01,E,A*01
$IIVHW,,,149,M,05.7,N,,*6A
$IIVLW,01638,N,001.1,N*5F
$IIVWR,024,L,15.1,N,,,,*7C
$IIDPT,048.5,-1.0,*49
$IIGLL,4629.133,N,00642.179,E,180319,A,A*55
$IIHDG,148,,,01,E*1E
$IIMTW,+10.0,C*39
$IIMWV,337,R,15.3,N,A*13
$IIMWV,323,T,10.0,N,A*16
$IIRMC,180319,A,4629.133,N,00642.179,E,05.4,148,290415,01,E,A*0F
$IIVHW,,,148,M,05.7,N,,*6B
$IIVLW,01638,N,001.1,N*5F
$IIVWR,023,L,15.4,N,,,,*7E
$IIDPT,053.1,-1.0,*47
$IIGLL,4629.132,N,00642.180,E,180320,A,A*58
$IIHDG,147,,,01,E*11
$IIMTW,+08.5,C*35
$IIMWV,337,R,15.4,N,A*14
$IIMWV,325,T,10.1,N,A*11
$IIRMC,180320,A,4629.132,N,00642.180,E,05.4,147,290415,01,E,A*0D
$IIVHW,,,147,M,05.7,N,,*64
$IIVLW,01638,N,001.1,N*5F
$IIVWR,021,L,15.5,N,,,,*7D
$IIDPT,048.5,-1.0,*49
$IIGLL,4629.130,N,00642.181,E,180321,A,A*5A
$IIHDG,147,,,01,E*11
$IIMTW,+09.0,C*31
$IIMWV,339,R,15.5,N,A*1B
$IIMWV,324,T,10.2,N,A*13
$IIRMC,180321,A,4629.130,N,00642.181,E,05.4,152,290415,01,E,A*0B
$IIVHW,,,147,M,05.7,N,,*64
$IIVLW,01638,N,001.1,N*5F
$IIVWR,019,L,15.6,N,,,,*75
$IIDPT,043.5,-1.0,*42
$IIGLL,4629.129,N,00642.182,E,180322,A,A*52
$IIHDG,147,,,01,E*11
$IIMTW,+09.0,C*31
$IIMWV,341,R,15.6,N,A*17
$IIMWV,327,T,10.2,N,A*10
$IIRMC,180323,A,4629.128,N,00642.183,E,05.3,135,290415,01,E,A*04
$IIVHW,,,145,M,05.7,N,,*66
$IIVLW,01638,N,001.1,N*5F
$IIVWR,019,L,15.6,N,,,,*75
$IIDPT,043.5,-1.0,*42
$IIGLL,4629.128,N,00642.183,E,180323,A,A*53
$IIHDG,145,,,01,E*13
$IIMTW,+09.0,C*31
$IIMWV,341,R,15.6,N,A*17
$IIMWV,330,T,10.3,N,A*17
$IIRMC,180324,A,4629.127,N,00642.185,E,05.3,143,290415,01,E,A*0B
$IIVHW,,,145,M,05.7,N,,*66
$IIVLW,01638,N,001.1,N*5F
$IIVWR,020,L,15.6,N,,,,*7F
$IIDPT,043.5,-1.0,*42
$IIGLL,4629.127,N,00642.185,E,180324,A,A*5D
$IIHDG,145,,,01,E*13
$IIMTW,+09.5,C*34
$IIMWV,339,R,15.6,N,A*18
$IIMWV,329,T,10.2,N,A*1E
$IIRMC,180325,A,4629.125,N,00642.186,E,05.4,151,290415,01,E,A*0F
$IIVHW,,,145,M,05.7,N,,*66
$IIVLW,01638,N,001.1,N*5F
$IIVWR,021,L,15.6,N,,,,*7E
$IIDPT,034.0,-1.0,*47
$IIGLL,4629.125,N,00642.186,E,180325,A,A*5D
$IIHDG,145,,,01,E*13
$IIMTW,+09.0,C*31
$IIMWV,340,R,16.0,N,A*13
$IIMWV,327,T,10.3,N,A*11
$IIRMC,180326,A,4629.124,N,00642.187,E,05.4,151,290415,01,E,A*0C
$IIVHW,,,144,M,05.7,N,,*67
$IIVLW,01638,N,001.1,N*5F
$IIVWR,020,L,16.0,N,,,,*7A
$IIDPT,034.0,-1.0,*47
$IIGLL,4629.124,N,00642.187,E,180326,A,A*5E
$IIHDG,144,,,01,E*12
$IIMTW,+10.0,C*39
$IIMWV,340,R,15.4,N,A*14
$IIMWV,329,T,10.6,N,A*1A
$IIRMC,180327,A,4629.123,N,00642.188,E,05.4,139,290415,01,E,A*0B
$IIVHW,,,144,M,05.7,N,,*67
$IIVLW,01638,N,001.1,N*5F
$IIVWR,020,L,15.4,N,,,,*7D
$IIDPT,034.0,-1.0,*47
$IIGLL,4629.122,N,00642.189,E,180328,A,A*58
$IIHDG,144,,,01,E*12
$IIMTW,+10.0,C*39
$IIMWV,339,R,15.5,N,A*1B
$IIMWV,329,T,10.0,N,A*1C
$IIRMC,180328,A,4629.122,N,00642.189,E,05.3,142,290415,01,E,A*0F
$IIVHW,,,144,M,05.7,N,,*67
$IIVLW,01638,N,001.1,N*5F
$IIVWR,021,L,15.5,N,,,,*7D
$IIDPT,034.0,-1.0,*47
$IIGLL,4629.121,N,00642.191,E,180329,A,A*53
$IIHDG,143,,,01,E*15
$IIMTW,+10.0,C*39
$IIMWV,339,R,15.2,N,A*1C
$IIMWV,327,T,10.2,N,A*10
$IIRMC,180329,A,4629.121,N,00642.191,E,05.3,143,290415,01,E,A*05
$IIVHW,,,143,M,05.7,N,,*60
$IIVLW,01638,N,001.1,N*5F
$IIVWR,020,L,15.3,N,,,,*7A
$IIDPT,013.3,-1.0,*41
$IIGLL,4629.120,N,00642.192,E,180330,A,A*59
$IIHDG,143,,,01,E*15
$IIMTW,+09.0,C*31
$IIMWV,340,R,15.3,N,A*13
$IIMWV,327,T,09.9,N,A*13
$IIRMC,180330,A,4629.120,N,00642.192,E,05.3,147,290415,01,E,A*0B
$IIVHW,,,143,M,05.7,N,,*60
$IIVLW,01638,N,001.2,N*5C
$IIVWR,021,L,15.1,N,,,,*79
$IIDPT,010.1,-1.0,*40
$IIGLL,4629.118,N,00642.193,E,180331,A,A*52
$IIHDG,143,,,01,E*15
$IIMTW,+09.5,C*34
$IIMWV,339,R,15.1,N,A*1F
$IIMWV,328,T,09.9,N,A*1C
$IIRMC,180331,A,4629.118,N,00642.193,E,05.5,148,290415,01,E,A*09
$IIVHW,,,143,M,05.7,N,,*60
