$IIVWR,121,R,04.1,N,,,,*66
$IIDPT,010.9,-1.0,*48
$IIMWV,120,R,04.0,N,A*14
$IIMWV,144,T,05.9,N,A*18
$IIRMC,164537,A,4629.968,N,00640.125,E,02.7,344,290415,01,E,A*08
$IIVHW,,,342,M,02.7,N,,*64
$IIVLW,01633,N,000.6,N*52
$IIVWR,120,R,04.0,N,,,,*66
$IIDPT,010.9,-1.0,*48
$IIGLL,4629.968,N,00640.125,E,164537,A,A*58
$IIHDG,342,,,01,E*16
$IIMTW,+08.5,C*35
$IIMWV,121,R,04.0,N,A*15
$IIMWV,144,T,05.8,N,A*19
$IIRMC,164538,A,4629.969,N,00640.125,E,02.9,348,290415,01,E,A*04
$IIVHW,,,342,M,02.7,N,,*64
$IIVLW,01633,N,000.6,N*52
$IIVWR,121,R,04.0,N,,,,*67
$IIDPT,010.9,-1.0,*48
$IIGLL,4629.969,N,00640.125,E,164538,A,A*56
$IIHDG,343,,,01,E*17
$IIMTW,+08.5,C*35
$IIMWV,118,R,04.1,N,A*1E
$IIMWV,142,T,05.7,N,A*10
$IIRMC,164540,A,4629.971,N,00640.124,E,02.7,344,290415,01,E,A*01
$IIVHW,,,343,M,02.7,N,,*65
$IIVLW,01633,N,000.6,N*52
$IIVWR,118,R,04.1,N,,,,*6C
$IIDPT,010.9,-1.0,*48
$IIGLL,4629.971,N,00640.124,E,164541,A,A*50
$IIHDG,343,,,01,E*17
$IIMTW,+08.5,C*35
$IIMWV,119,R,04.0,N,A*1E
$IIMWV,142,T,05.8,N,A*1F
$IIRMC,164541,A,4629.971,N,00640.124,E,02.9,346,290415,01,E,A*0C
$IIVHW,,,343,M,02.7,N,,*65
$IIVLW,01633,N,000.6,N*52
$IIVWR,119,R,04.0,N,,,,*6C
$IIDPT,010.9,-1.0,*48
$IIGLL,4629.972,N,00640.124,E,164542,A,A*50
$IIHDG,343,,,01,E*17
$IIMTW,+08.5,C*35
$IIMWV,119,R,03.9,N,A*10
$IIMWV,143,T,05.7,N,A*11
$IIRMC,164542,A,4629.972,N,00640.124,E,02.9,346,290415,01,E,A*0C
$IIVHW,,,343,M,02.7,N,,*65
$IIVLW,01633,N,000.6,N*52
$IIVWR,120,R,04.0,N,,,,*66
$IIDPT,010.9,-1.0,*48
$IIGLL,4629.973,N,00640.124,E,164543,A,A*50
$IIHDG,343,,,01,E*17
$IIMTW,+08.5,C*35
$IIMWV,120,R,04.0,N,A*14
$IIMWV,144,T,05.5,N,A*14
$IIRMC,164543,A,4629.973,N,00640.124,E,02.9,345,290415,01,E,A*0F
$IIVHW,,,343,M,02.7,N,,*65
$IIVLW,01633,N,000.6,N*52
$IIVWR,121,R,03.9,N,,,,*69
$IIDPT,010.9,-1.0,*48
$IIGLL,4629.974,N,00640.123,E,164544,A,A*57
$IIHDG,343,,,01,E*17
$IIMTW,+08.5,C*35
$IIMWV,121,R,03.9,N,A*1B
$IIMWV,144,T,05.8,N,A*19
$IIRMC,164544,A,4629.974,N,00640.123,E,02.9,343,290415,01,E,A*0E
$IIVHW,,,343,M,02.6,N,,*64
$IIVLW,01633,N,000.6,N*52
$IIVWR,120,R,03.8,N,,,,*69
$IIDPT,010.9,-1.0,*48
$IIGLL,4629.975,N,00640.124,E,164545,A,A*50
$IIHDG,343,,,01,E*17
$IIMTW,+08.5,C*35
$IIMWV,120,R,03.8,N,A*1B
$IIMWV,145,T,05.7,N,A*17
$IIRMC,164546,A,4629.976,N,00640.123,E,02.9,343,290415,01,E,A*0E
$IIVHW,,,341,M,02.6,N,,*66
$IIVLW,01633,N,000.6,N*52
$IIVWR,124,R,03.9,N,,,,*6C
$IIDPT,010.9,-1.0,*48
$IIGLL,4629.976,N,00640.123,E,164546,A,A*57
$IIHDG,341,,,01,E*15
$IIMTW,+08.5,C*35
$IIMWV,124,R,03.9,N,A*1E
$IIMWV,146,T,05.7,N,A*14
$IIRMC,164547,A,4629.976,N,00640.123,E,02.8,342,290415,01,E,A*0F
$IIVHW,,,341,M,02.6,N,,*66
$IIVLW,01633,N,000.6,N*52
$IIVWR,125,R,03.8,N,,,,*6C
$IIDPT,010.9,-1.0,*48
$IIGLL,4629.976,N,00640.123,E,164547,A,A*56
$IIHDG,341,,,01,E*15
$IIMTW,+08.5,C*35
$IIMWV,126,R,03.8,N,A*1D
$IIMWV,147,T,05.7,N,A*15
$IIRMC,164548,A,4629.977,N,00640.122,E,02.8,342,290415,01,E,A*00
$IIVHW,,,340,M,02.6,N,,*67
$IIVLW,01633,N,000.6,N*52
$IIVWR,126,R,03.8,N,,,,*6F
$IIDPT,010.9,-1.0,*48
$IIGLL,4629.977,N,00640.122,E,164548,A,A*59
$IIHDG,340,,,01,E*14
$IIMTW,+08.5,C*35
$IIMWV,126,R,03.8,N,A*1D
$IIMWV,148,T,05.7,N,A*1A
$IIRMC,164549,A,4629.978,N,00640.122,E,03.4,337,290415,01,E,A*01
$IIVHW,,,340,M,02.6,N,,*67
$IIVLW,01633,N,000.6,N*52
$IIVWR,126,R,03.8,N,,,,*6F
$IIDPT,010.7,-1.0,*46
$IIGLL,4629.978,N,00640.122,E,164549,A,A*57
$IIHDG,339,,,01,E*1A
$IIMTW,+08.5,C*35
$IIMWV,129,R,03.8,N,A*12
$IIMWV,148,T,05.7,N,A*1A
$IIRMC,164550,A,4629.979,N,00640.121,E,02.9,341,290415,01,E,A*06
$IIVHW,,,339,M,02.6,N,,*69
$IIVLW,01633,N,000.6,N*52
$IIVWR,129,R,03.8,N,,,,*60
$IIDPT,010.6,-1.0,*47
$IIGLL,4629.980,N,00640.121,E,164551,A,A*5A
$IIHDG,338,,,01,E*1B
$IIMTW,+08.5,C*35
$IIMWV,129,R,03.7,N,A*1D
$IIMWV,149,T,05.6,N,A*1A
$IIRMC,164551,A,4629.980,N,00640.121,E,03.0,343,290415,01,E,A*0B
$IIVHW,,,338,M,02.6,N,,*68
$IIVLW,01633,N,000.6,N*52
$IIVWR,129,R,03.7,N,,,,*6F
$IIDPT,010.6,-1.0,*47
$IIGLL,4629.980,N,00640.120,E,164552,A,A*58
$IIHDG,338,,,01,E*1B
$IIMTW,+08.5,C*35
$IIMWV,130,R,03.5,N,A*17
$IIMWV,150,T,05.6,N,A*12
$IIRMC,164552,A,4629.980,N,00640.120,E,03.1,342,290415,01,E,A*09
$IIVHW,,,338,M,02.6,N,,*68
$IIVLW,01633,N,000.6,N*52
$IIVWR,131,R,03.6,N,,,,*67
$IIDPT,010.6,-1.0,*47
$IIGLL,4629.981,N,00640.119,E,164553,A,A*52
$IIHDG,338,,,01,E*1B
$IIMTW,+08.5,C*35
$IIMWV,131,R,03.6,N,A*15
$IIMWV,151,T,05.4,N,A*11
$IIRMC,164553,A,4629.981,N,00640.119,E,02.9,341,290415,01,E,A*09
$IIVHW,,,338,M,02.6,N,,*68
$IIVLW,01633,N,000.6,N*52
$IIVWR,129,R,03.4,N,,,,*6C
$IIDPT,010.6,-1.0,*47
$IIGLL,4629.982,N,00640.119,E,164554,A,A*56
$IIHDG,337,,,01,E*14
$IIMTW,+09.0,C*31
$IIMWV,129,R,03.4,N,A*1E
$IIMWV,151,T,05.5,N,A*10
$IIRMC,164554,A,4629.982,N,00640.119,E,04.3,342,290415,01,E,A*02
$IIVHW,,,337,M,02.6,N,,*67
$IIVLW,01633,N,000.6,N*52
$IIVWR,129,R,03.3,N,,,,*6B
$IIDPT,010.6,-1.0,*47
$IIGLL,4629.983,N,00640.118,E,164555,A,A*57
$IIHDG,337,,,01,E*14
$IIMTW,+09.0,C*31
$IIMWV,129,R,03.3,N,A*19
$IIMWV,151,T,05.3,N,A*16
$IIRMC,164556,A,4629.984,N,00640.118,E,03.0,343,290415,01,E,A*02
$IIVHW,,,337,M,02.6,N,,*67
$IIVLW,01633,N,000.6,N*52
$IIVWR,127,R,03.3,N,,,,*65
$IIDPT,010.6,-1.0,*47
$IIGLL,4629.984,N,00640.118,E,164556,A,A*53
$IIHDG,337,,,01,E*14
$IIMTW,+09.0,C*31
$IIMWV,127,R,03.3,N,A*17
$IIMWV,150,T,05.1,N,A*15
$IIRMC,164557,A,4629.985,N,00640.118,E,02.6,349,290415,01,E,A*0F
$IIVHW,,,338,M,02.6,N,,*68
$IIVLW,01633,N,000.6,N*52
$IIVWR,126,R,03.1,N,,,,*66
$IIDPT,010.6,-1.0,*47
$IIGLL,4629.985,N,00640.118,E,164557,A,A*53
$IIHDG,338,,,01,E*1B
$IIMTW,+09.0,C*31
$IIMWV,128,R,03.1,N,A*1A
$IIMWV,150,T,05.0,N,A*14
$IIRMC,164558,A,4629.985,N,00640.117,E,03.5,346,290415,01,E,A*02
$IIVHW,,,339,M,02.6,N,,*69
$IIVLW,01633,N,000.6,N*52
$IIVWR,128,R,03.1,N,,,,*68
$IIDPT,010.7,-1.0,*46
$IIGLL,4629.985,N,00640.117,E,164558,A,A*53
$IIHDG,339,,,01,E*1A
$IIMTW,+09.0,C*31
$IIMWV,126,R,03.3,N,A*16
$IIMWV,153,T,05.1,N,A*16
$IIRMC,164559,A,4629.986,N,00640.117,E,03.1,351,290415,01,E,A*02
$IIVHW,,,340,M,02.6,N,,*67
$IIVLW,01633,N,000.6,N*52
$IIVWR,126,R,03.3,N,,,,*64
$IIDPT,010.8,-1.0,*49
$IIGLL,4629.986,N,00640.117,E,164559,A,A*51
$IIVLW,01637,N,004.1,N*55
$IIVWR,025,L,14.2,N,,,,*7F
$IIDPT,024.8,-1.0,*4E
$IIGLL,4629.703,N,00640.730,E,174311,A,A*5A
$IIHDG,153,,,01,E*14
$IIMTW,+09.5,C*34
$IIMWV,335,R,14.2,N,A*11
$IIMWV,322,T,10.0,N,A*17
$IIRMC,174311,A,4629.703,N,00640.730,E,05.6,168,290415,01,E,A*00
$IIVHW,,,154,M,05.0,N,,*61
$IIVLW,01637,N,004.1,N*55
$IIVWR,024,L,14.1,N,,,,*7D
$IIDPT,024.8,-1.0,*4E
$IIGLL,4629.702,N,00640.730,E,174312,A,A*58
$IIHDG,154,,,01,E*13
$IIMTW,+09.5,C*34
$IIMWV,336,R,14.1,N,A*11
$IIMWV,323,T,09.9,N,A*17
$IIRMC,174313,A,4629.701,N,00640.730,E,06.1,180,290415,01,E,A*02
$IIVHW,,,154,M,05.1,N,,*60
$IIVLW,01637,N,004.1,N*55
$IIVWR,024,L,14.2,N,,,,*7E
$IIDPT,024.8,-1.0,*4E
$IIGLL,4629.701,N,00640.730,E,174313,A,A*5A
$IIHDG,154,,,01,E*13
$IIMTW,+09.0,C*31
$IIMWV,336,R,14.2,N,A*12
$IIMWV,323,T,09.7,N,A*19
$IIRMC,174314,A,4629.699,N,00640.730,E,05.3,163,290415,01,E,A*09
$IIVHW,,,154,M,05.2,N,,*63
$IIVLW,01637,N,004.1,N*55
$IIVWR,024,L,14.2,N,,,,*7E
$IIDPT,024.8,-1.0,*4E
$IIGLL,4629.699,N,00640.730,E,174314,A,A*5D
$IIHDG,154,,,01,E*13
$IIMTW,+09.0,C*31
$IIMWV,336,R,14.0,N,A*10
$IIMWV,323,T,09.6,N,A*18
$IIRMC,174315,A,4629.698,N,00640.731,E,04.0,166,290415,01,E,A*0F
$IIVHW,,,154,M,05.2,N,,*63
$IIVLW,01637,N,004.1,N*55
$IIVWR,024,L,14.0,N,,,,*7C
$IIDPT,024.8,-1.0,*4E
$IIGLL,4629.698,N,00640.731,E,174315,A,A*5C
$IIHDG,154,,,01,E*13
$IIMTW,+08.5,C*35
$IIMWV,335,R,13.7,N,A*13
$IIMWV,322,T,09.3,N,A*1C
$IIRMC,174316,A,4629.697,N,00640.732,E,05.4,160,290415,01,E,A*03
$IIVHW,,,154,M,05.3,N,,*62
$IIVLW,01637,N,004.1,N*55
$IIVWR,025,L,13.7,N,,,,*7D
$IIDPT,024.8,-1.0,*4E
$IIGLL,4629.697,N,00640.732,E,174316,A,A*53
$IIHDG,155,,,01,E*12
$IIMTW,+08.5,C*35
$IIMWV,335,R,13.7,N,A*13
$IIMWV,321,T,09.0,N,A*1C
$IIRMC,174317,A,4629.695,N,00640.733,E,05.4,165,290415,01,E,A*04
$IIVHW,,,155,M,05.4,N,,*64
$IIVLW,01637,N,004.1,N*55
$IIVWR,025,L,13.7,N,,,,*7D
$IIDPT,032.3,-1.0,*42
$IIGLL,4629.694,N,00640.733,E,174318,A,A*5F
$IIHDG,156,,,01,E*11
$IIMTW,+08.5,C*35
$IIMWV,335,R,13.7,N,A*13
$IIMWV,321,T,09.0,N,A*1C
$IIRMC,174318,A,4629.694,N,00640.733,E,05.4,169,290415,01,E,A*06
$IIVHW,,,156,M,05.4,N,,*67
$IIVLW,01637,N,004.1,N*55
$IIVWR,025,L,13.7,N,,,,*7D
$IIDPT,032.3,-1.0,*42
$IIGLL,4629.693,N,00640.734,E,174319,A,A*5E
$IIHDG,156,,,01,E*11
$IIMTW,+09.5,C*34
$IIMWV,335,R,13.6,N,A*12
$IIMWV,320,T,08.9,N,A*15
$IIRMC,174319,A,4629.693,N,00640.734,E,05.6,154,290415,01,E,A*0B
$IIVHW,,,156,M,05.4,N,,*67
$IIVLW,01637,N,004.1,N*55
$IIVWR,025,L,13.7,N,,,,*7D
$IIDPT,036.7,-1.0,*42
$IIGLL,4629.690,N,00640.736,E,174321,A,A*54
$IIHDG,155,,,01,E*12
$IIMTW,+10.0,C*39
$IIMWV,335,R,13.7,N,A*13
$IIMWV,319,T,08.9,N,A*1F
$IIRMC,174321,A,4629.690,N,00640.736,E,05.3,157,290415,01,E,A*07
$IIVHW,,,155,M,05.5,N,,*65
$IIVLW,01637,N,004.1,N*55
$IIVWR,025,L,13.7,N,,,,*7D
$IIDPT,040.5,-1.0,*41
$IIGLL,4629.688,N,00640.737,E,174322,A,A*5F
$IIHDG,154,,,01,E*13
$IIMTW,+09.0,C*31
$IIMWV,335,R,13.7,N,A*13
$IIMWV,320,T,08.9,N,A*15
$IIRMC,174322,A,4629.688,N,00640.737,E,05.3,151,290415,01,E,A*0A
$IIVHW,,,154,M,05.5,N,,*64
$IIVLW,01637,N,004.1,N*55
$IIVWR,025,L,13.8,N,,,,*72
$IIDPT,040.5,-1.0,*41
$IIGLL,4629.687,N,00640.738,E,174323,A,A*5E
$IIHDG,154,,,01,E*13
$IIMTW,+09.0,C*31
$IIMWV,335,R,13.8,N,A*1C
$IIMWV,320,T,08.8,N,A*14
$IIRMC,174324,A,4629.686,N,00640.739,E,05.8,156,290415,01,E,A*00
$IIVHW,,,153,M,05.5,N,,*63
$IIVLW,01637,N,004.1,N*55
$IIVWR,024,L,13.8,N,,,,*73
$IIDPT,040.5,-1.0,*41
$IIGLL,4629.686,N,00640.739,E,174324,A,A*59
$IIHDG,153,,,01,E*14
$IIMTW,+09.0,C*31
$IIMWV,336,R,13.8,N,A*1F
$IIMWV,321,T,08.8,N,A*15
$IIRMC,174325,A,4629.684,N,00640.740,E,05.0,154,290415,01,E,A*07
$IIVHW,,,153,M,05.6,N,,*60
$IIVLW,01637,N,004.1,N*55
$IIVWR,024,L,13.9,N,,,,*72
$IIDPT,040.5,-1.0,*41
$IIGLL,4629.684,N,00640.740,E,174325,A,A*54
$IIHDG,153,,,01,E*14
$IIMTW,+10.0,C*39
$IIMWV,334,R,13.9,N,A*1C
$IIMWV,321,T,08.9,N,A*14
$IIRMC,174326,A,4629.683,N,00640.740,E,04.5,153,290415,01,E,A*00
$IIVHW,,,153,M,05.6,N,,*60
$IIVLW,01637,N,004.1,N*55
$IIVWR,026,L,13.9,N,,,,*70
$IIDPT,013.3,-1.0,*41
$IIGLL,4629.683,N,00640.740,E,174326,A,A*50
$IIHDG,153,,,01,E*14
$IIMTW,+09.5,C*34
$IIMWV,334,R,14.1,N,A*13
$IIMWV,319,T,09.2,N,A*15
$IIRMC,174327,A,4629.682,N,00640.741,E,05.4,154,290415,01,E,A*06
$IIVHW,,,153,M,05.6,N,,*60
$IIVLW,01637,N,004.1,N*55
$IIVWR,026,L,14.1,N,,,,*7F
$IIDPT,013.3,-1.0,*41
$IIGLL,4629.682,N,00640.741,E,174327,A,A*51
$IIHDG,153,,,01,E*14
$IIMTW,+10.5,C*3C
$IIMWV,335,R,13.8,N,A*1C
$IIMWV,318,T,09.2,N,A*14
$IIRMC,174328,A,4629.681,N,00640.742,E,05.4,154,290415,01,E,A*09
$IIVHW,,,153,M,05.6,N,,*60
$IIVLW,01637,N,004.1,N*55
$IIVWR,025,L,13.8,N,,,,*72
$IIDPT,013.3,-1.0,*41
$IIGLL,4629.679,N,00640.743,E,174329,A,A*59
$IIHDG,153,,,01,E*14
$IIMTW,+09.0,C*31
$IIMWV,336,R,13.8,N,A*1F
$IIMWV,320,T,08.8,N,A*14
$IIRMC,174329,A,4629.679,N,00640.743,E,05.4,161,290415,01,E,A*08
$IIVHW,,,153,M,05.6,N,,*60
$IIVLW,01637,N,004.1,N*55
$IIVWR,024,L,13.8,N,,,,*73
$IIDPT,012.8,-1.0,*4B
$IIGLL,4629.678,N,00640.744,E,174330,A,A*57
$IIHDG,153,,,01,E*14
$IIMTW,+09.0,C*31
$IIMWV,336,R,13.8,N,A*1F
$IIMWV,320,T,08.8,N,A*14
$IIRMC,174330,A,4629.678,N,00640.744,E,05.6,155,290415,01,E,A*03
$IIVHW,,,153,M,05.7,N,,*61
$IIVLW,01637,N,004.1,N*55
$IIVWR,025,L,13.6,N,,,,*7C
$IIDPT,012.0,-1.0,*43
$IIGLL,4629.676,N,00640.745,E,174331,A,A*59
$IIHDG,154,,,01,E*13
$IIMTW,+09.0,C*31
$IIMWV,335,R,13.6,N,A*12
$IIMWV,320,T,08.8,N,A*14
$IIRMC,174331,A,4629.676,N,00640.745,E,05.9,162,290415,01,E,A*06
$IIVHW,,,154,M,05.7,N,,*66
$IIVLW,01637,N,004.1,N*55
$IIVWR,025,L,13.9,N,,,,*73
$IIDPT,010.8,-1.0,*49
$IIGLL,4629.675,N,00640.745,E,174332,A,A*59
$IIHDG,155,,,01,E*12
$IIMTW,+10.5,C*3C
$IIMWV,335,R,13.9,N,A*1D
$IIMWV,319,T,08.7,N,A*11
$IIRMC,174332,A,4629.675,N,00640.745,E,05.7,160,290415,01,E,A*0A
$IIVHW,,,155,M,05.7,N,,*67
$IIVLW,01637,N,004.1,N*55
$IIVWR,025,L,14.2,N,,,,*7F
$IIDPT,011.3,-1.0,*43
$IIGLL,4629.673,N,00640.746,E,174333,A,A*5D
$IIHDG,155,,,01,E*12
$IIMTW,+09.0,C*31
$IIMWV,335,R,14.2,N,A*11
$IIMWV,320,T,09.0,N,A*1D
$IIRMC,174334,A,4629.672,N,00640.747,E,05.7,158,290415,01,E,A*02
$IIVHW,,,155,M,05.7,N,,*67
