$IIMWV,230,R,03.3,N,A*12
$IIMWV,205,T,06.0,N,A*14
$IIVWR,134,L,03.5,N,,,,*7F
$IIDPT,010.5,-1.0,*44
$IIGLL,4629.789,N,00640.587,E,172132,A,A*53
$IIHDG,271,,,01,E*17
$IIMTW,+08.5,C*35
$IIMWV,223,R,03.3,N,A*10
$IIMWV,203,T,06.3,N,A*11
$IIRMC,172133,A,4629.789,N,00640.585,E,03.5,273,290415,01,E,A*06
$IIVHW,,,271,M,03.3,N,,*60
$IIVLW,01635,N,002.9,N*59
$IIVWR,137,L,03.3,N,,,,*7A
$IIDPT,010.2,-1.0,*43
$IIGLL,4629.789,N,00640.585,E,172133,A,A*50
$IIHDG,271,,,01,E*17
$IIMTW,+08.5,C*35
$IIMWV,226,R,03.3,N,A*15
$IIMWV,201,T,06.2,N,A*12
$IIRMC,172134,A,4629.789,N,00640.584,E,03.6,274,290415,01,E,A*04
$IIVHW,,,271,M,03.3,N,,*60
$IIVLW,01635,N,002.9,N*59
$IIVWR,134,L,03.3,N,,,,*79
$IIDPT,010.1,-1.0,*40
$IIGLL,4629.790,N,00640.583,E,172135,A,A*58
$IIHDG,270,,,01,E*16
$IIMTW,+08.5,C*35
$IIMWV,226,R,03.3,N,A*15
$IIMWV,202,T,06.0,N,A*13
$IIRMC,172135,A,4629.790,N,00640.583,E,03.5,274,290415,01,E,A*09
$IIVHW,,,270,M,03.3,N,,*61
$IIVLW,01635,N,002.9,N*59
$IIVWR,134,L,03.3,N,,,,*79
$IIDPT,009.9,-1.0,*40
$IIGLL,4629.790,N,00640.581,E,172136,A,A*59
$IIHDG,270,,,01,E*16
$IIMTW,+08.5,C*35
$IIMWV,225,R,03.3,N,A*16
$IIMWV,203,T,05.9,N,A*18
$IIRMC,172136,A,4629.790,N,00640.581,E,03.6,269,290415,01,E,A*07
$IIVHW,,,270,M,03.2,N,,*60
$IIVLW,01635,N,002.9,N*59
$IIVWR,135,L,03.4,N,,,,*7F
$IIDPT,009.9,-1.0,*40
$IIGLL,4629.789,N,00640.580,E,172137,A,A*51
$IIHDG,270,,,01,E*16
$IIMTW,+09.0,C*31
$IIMWV,225,R,03.4,N,A*11
$IIMWV,202,T,06.0,N,A*13
$IIRMC,172137,A,4629.789,N,00640.580,E,03.6,271,290415,01,E,A*06
$IIVHW,,,270,M,03.2,N,,*60
$IIVLW,01635,N,002.9,N*59
$IIVWR,134,L,03.5,N,,,,*7F
$IIDPT,009.8,-1.0,*41
$IIGLL,4629.789,N,00640.579,E,172138,A,A*58
$IIHDG,270,,,01,E*16
$IIMTW,+09.5,C*34
$IIMWV,226,R,03.5,N,A*13
$IIMWV,203,T,06.1,N,A*13
$IIRMC,172138,A,4629.789,N,00640.579,E,03.6,273,290415,01,E,A*0D
$IIVHW,,,270,M,03.2,N,,*60
$IIVLW,01635,N,002.9,N*59
$IIVWR,134,L,03.4,N,,,,*7E
$IIDPT,010.0,-1.0,*41
$IIGLL,4629.790,N,00640.577,E,172139,A,A*5F
$IIHDG,270,,,01,E*16
$IIMTW,+08.5,C*35
$IIMWV,226,R,03.4,N,A*12
$IIMWV,204,T,06.2,N,A*17
$IIRMC,172140,A,4629.789,N,00640.576,E,03.6,276,290415,01,E,A*08
$IIVHW,,,270,M,03.2,N,,*60
$IIVLW,01635,N,002.9,N*59
$IIVWR,135,L,03.3,N,,,,*78
$IIDPT,010.0,-1.0,*41
$IIGLL,4629.789,N,00640.576,E,172140,A,A*58
$IIHDG,270,,,01,E*16
$IIMTW,+08.5,C*35
$IIMWV,225,R,03.3,N,A*16
$IIMWV,202,T,06.0,N,A*13
$IIRMC,172141,A,4629.790,N,00640.574,E,03.6,274,290415,01,E,A*01
$IIVHW,,,270,M,03.2,N,,*60
$IIVLW,01635,N,002.9,N*59
$IIVWR,134,L,03.3,N,,,,*79
$IIDPT,009.8,-1.0,*41
$IIGLL,4629.790,N,00640.574,E,172141,A,A*53
$IIHDG,270,,,01,E*16
$IIMTW,+10.5,C*3C
$IIMWV,222,R,03.2,N,A*10
$IIMWV,203,T,05.9,N,A*18
$IIRMC,172142,A,4629.790,N,00640.572,E,03.6,274,290415,01,E,A*04
$IIVHW,,,270,M,03.2,N,,*60
$IIVLW,01635,N,002.9,N*59
$IIVWR,138,L,03.2,N,,,,*74
$IIDPT,009.9,-1.0,*40
$IIGLL,4629.790,N,00640.572,E,172142,A,A*56
$IIHDG,270,,,01,E*16
$IIMTW,+08.5,C*35
$IIMWV,221,R,03.2,N,A*13
$IIMWV,201,T,05.8,N,A*1B
$IIRMC,172143,A,4629.790,N,00640.571,E,03.6,271,290415,01,E,A*03
$IIVHW,,,269,M,03.2,N,,*68
$IIVLW,01635,N,002.9,N*59
$IIVWR,139,L,03.2,N,,,,*75
$IIDPT,009.9,-1.0,*40
$IIGLL,4629.790,N,00640.571,E,172143,A,A*54
$IIHDG,269,,,01,E*1E
$IIMTW,+08.5,C*35
$IIMWV,224,R,03.0,N,A*14
$IIMWV,201,T,05.9,N,A*1A
$IIRMC,172144,A,4629.790,N,00640.569,E,03.5,269,290415,01,E,A*07
$IIVHW,,,269,M,03.2,N,,*68
$IIVLW,01635,N,002.9,N*59
$IIVWR,136,L,03.0,N,,,,*78
$IIDPT,009.9,-1.0,*40
$IIGLL,4629.790,N,00640.568,E,172145,A,A*5A
$IIHDG,268,,,01,E*1F
$IIMTW,+08.5,C*35
$IIMWV,233,R,03.1,N,A*13
$IIMWV,201,T,05.6,N,A*15
$IIRMC,172145,A,4629.790,N,00640.568,E,03.6,266,290415,01,E,A*0B
$IIVHW,,,268,M,03.2,N,,*69
$IIVLW,01635,N,002.9,N*59
$IIVWR,127,L,03.1,N,,,,*79
$IIDPT,009.9,-1.0,*40
$IIGLL,4629.790,N,00640.567,E,172146,A,A*56
$IIHDG,268,,,01,E*1F
$IIMTW,+08.5,C*35
$IIMWV,236,R,03.0,N,A*17
$IIMWV,205,T,05.6,N,A*11
$IIRMC,172146,A,4629.790,N,00640.567,E,03.6,267,290415,01,E,A*06
$IIVHW,,,268,M,03.2,N,,*69
$IIVLW,01635,N,002.9,N*59
$IIVWR,123,L,03.0,N,,,,*7C
$IIDPT,009.9,-1.0,*40
$IIGLL,4629.790,N,00640.565,E,172147,A,A*55
$IIHDG,267,,,01,E*10
$IIMTW,+09.0,C*31
$IIMWV,237,R,03.0,N,A*16
$IIMWV,206,T,05.4,N,A*10
$IIRMC,172147,A,4629.790,N,00640.565,E,03.6,261,290415,01,E,A*03
$IIVHW,,,267,M,03.2,N,,*66
$IIVLW,01635,N,002.9,N*59
$IIVWR,120,L,03.1,N,,,,*7E
$IIDPT,009.9,-1.0,*40
$IIGLL,4629.790,N,00640.564,E,172148,A,A*5B
$IIHDG,266,,,01,E*11
$IIMTW,+09.0,C*31
$IIMWV,240,R,03.1,N,A*17
$IIMWV,207,T,05.5,N,A*10
$IIRMC,172148,A,4629.790,N,00640.564,E,03.6,269,290415,01,E,A*05
$IIVHW,,,265,M,03.2,N,,*64
$IIVLW,01635,N,002.9,N*59
$IIVWR,116,L,03.1,N,,,,*7B
$IIDPT,010.1,-1.0,*40
$IIGLL,4629.789,N,00640.563,E,172149,A,A*55
$IIHDG,265,,,01,E*12
$IIMTW,+08.5,C*35
$IIMWV,244,R,03.1,N,A*13
$IIMWV,209,T,05.4,N,A*1F
$IIRMC,172150,A,4629.789,N,00640.561,E,03.6,268,290415,01,E,A*00
$IIVHW,,,265,M,03.3,N,,*65
$IIVLW,01635,N,003.0,N*51
$IIVWR,116,L,03.2,N,,,,*78
$IIDPT,010.1,-1.0,*40
$IIGLL,4629.789,N,00640.561,E,172150,A,A*5F
$IIHDG,265,,,01,E*12
$IIMTW,+08.5,C*35
$IIMWV,244,R,03.2,N,A*10
$IIMWV,211,T,05.4,N,A*16
$IIRMC,172151,A,4629.789,N,00640.560,E,03.6,269,290415,01,E,A*01
$IIVHW,,,265,M,03.3,N,,*65
$IIVLW,01635,N,003.0,N*51
$IIVWR,116,L,03.1,N,,,,*7B
$IIDPT,010.1,-1.0,*40
$IIGLL,4629.789,N,00640.560,E,172151,A,A*5F
$IIHDG,265,,,01,E*12
$IIMTW,+09.0,C*31
$IIMWV,247,R,03.1,N,A*10
$IIMWV,211,T,05.3,N,A*11
$IIRMC,172152,A,4629.789,N,00640.559,E,03.5,269,290415,01,E,A*0B
$IIVHW,,,265,M,03.3,N,,*65
$IIVLW,01635,N,003.0,N*51
$IIVWR,113,L,03.1,N,,,,*7E
$IIDPT,010.1,-1.0,*40
$IIGLL,4629.789,N,00640.559,E,172152,A,A*56
$IIHDG,265,,,01,E*12
