$IIMTW,+09.0,C*31
$IIMWV,149,R,04.5,N,A*1E
$IIVHW,,,301,M,05.4,N,,*67
$IIVLW,01640,N,003.6,N*55
$IIVWR,150,R,05.2,N,,,,*62
$IIDPT,019.8,-1.0,*40
$IIGLL,4629.807,N,00641.773,E,183136,A,A*58
$IIHDG,301,,,01,E*11
$IIMTW,+10.0,C*39
$IIMWV,150,R,05.2,N,A*10
$IIMWV,167,T,09.2,N,A*1E
$IIRMC,183136,A,4629.807,N,00641.773,E,05.4,308,290415,01,E,A*04
$IIVHW,,,301,M,05.3,N,,*60
$IIVLW,01640,N,003.6,N*55
$IIVWR,150,R,05.3,N,,,,*63
$IIDPT,019.8,-1.0,*40
$IIGLL,4629.808,N,00641.771,E,183137,A,A*54
$IIHDG,301,,,01,E*11
$IIMTW,+10.0,C*39
$IIMWV,150,R,05.3,N,A*11
$IIMWV,165,T,10.2,N,A*14
$IIRMC,183138,A,4629.809,N,00641.770,E,05.3,306,290415,01,E,A*0E
$IIVHW,,,301,M,05.3,N,,*60
$IIVLW,01640,N,003.6,N*55
$IIVWR,152,R,05.3,N,,,,*61
$IIDPT,019.8,-1.0,*40
$IIGLL,4629.809,N,00641.770,E,183138,A,A*5B
$IIHDG,301,,,01,E*11
$IIMTW,+10.0,C*39
$IIMWV,152,R,05.3,N,A*13
$IIMWV,166,T,10.1,N,A*14
$IIRMC,183139,A,4629.810,N,00641.768,E,05.3,305,290415,01,E,A*0D
$IIVHW,,,301,M,05.2,N,,*61
$IIVLW,01640,N,003.6,N*55
$IIVWR,153,R,05.2,N,,,,*61
$IIDPT,019.8,-1.0,*40
$IIGLL,4629.810,N,00641.768,E,183139,A,A*5B
$IIHDG,301,,,01,E*11
$IIMTW,+10.0,C*39
$IIMWV,156,R,05.2,N,A*16
$IIMWV,167,T,10.1,N,A*15
$IIRMC,183140,A,4629.811,N,00641.766,E,05.3,304,290415,01,E,A*0D
$IIVHW,,,301,M,05.2,N,,*61
$IIVLW,01640,N,003.6,N*55
$IIVWR,156,R,05.2,N,,,,*64
$IIDPT,048.9,-1.0,*45
$IIGLL,4629.811,N,00641.766,E,183140,A,A*5A
$IIHDG,301,,,01,E*11
$IIMTW,+10.0,C*39
$IIMWV,160,R,05.3,N,A*12
$IIMWV,168,T,10.1,N,A*1A
$IIRMC,183141,A,4629.811,N,00641.764,E,05.3,303,290415,01,E,A*09
$IIVHW,,,300,M,05.2,N,,*60
$IIVLW,01640,N,003.6,N*55
$IIVWR,160,R,05.3,N,,,,*60
$IIDPT,048.9,-1.0,*45
$IIGLL,4629.811,N,00641.764,E,183141,A,A*59
$IIHDG,299,,,01,E*11
$IIMTW,+10.0,C*39
$IIMWV,161,R,05.1,N,A*11
$IIMWV,170,T,10.2,N,A*10
$IIRMC,183142,A,4629.812,N,00641.763,E,05.2,302,290415,01,E,A*0E
$IIVHW,,,299,M,05.1,N,,*62
$IIVLW,01640,N,003.6,N*55
$IIVWR,161,R,05.1,N,,,,*63
$IIDPT,048.9,-1.0,*45
$IIGLL,4629.813,N,00641.761,E,183143,A,A*5C
$IIHDG,299,,,01,E*11
$IIMTW,+09.0,C*31
$IIMWV,161,R,05.2,N,A*12
$IIMWV,171,T,10.1,N,A*12
$IIRMC,183143,A,4629.813,N,00641.761,E,05.2,300,290415,01,E,A*0E
$IIVHW,,,299,M,05.1,N,,*62
$IIVLW,01640,N,003.6,N*55
$IIVWR,161,R,05.2,N,,,,*60
$IIDPT,039.1,-1.0,*4B
$IIGLL,4629.814,N,00641.759,E,183144,A,A*57
$IIHDG,299,,,01,E*11
$IIMTW,+09.0,C*31
$IIMWV,160,R,05.0,N,A*11
$IIMWV,170,T,10.1,N,A*13
$IIRMC,183144,A,4629.814,N,00641.759,E,05.1,303,290415,01,E,A*05
$IIVHW,,,299,M,05.1,N,,*62
$IIVLW,01640,N,003.6,N*55
$IIVWR,158,R,04.9,N,,,,*60
$IIDPT,045.9,-1.0,*48
$IIGLL,4629.814,N,00641.757,E,183145,A,A*58
$IIHDG,298,,,01,E*10
$IIMTW,+09.0,C*31
$IIMWV,158,R,04.9,N,A*12
$IIMWV,170,T,09.9,N,A*13
$IIRMC,183145,A,4629.814,N,00641.757,E,05.1,301,290415,01,E,A*08
$IIVHW,,,298,M,05.0,N,,*62
$IIVLW,01640,N,003.6,N*55
$IIVWR,158,R,04.9,N,,,,*60
$IIDPT,045.9,-1.0,*48
$IIGLL,4629.815,N,00641.755,E,183146,A,A*58
$IIHDG,298,,,01,E*10
$IIMTW,+09.0,C*31
$IIMWV,158,R,04.9,N,A*12
$IIMWV,169,T,09.7,N,A*15
$IIRMC,183146,A,4629.815,N,00641.755,E,04.9,301,290415,01,E,A*01
$IIVHW,,,298,M,05.0,N,,*62
$IIVLW,01640,N,003.6,N*55
$IIVWR,162,R,04.4,N,,,,*64
$IIDPT,055.7,-1.0,*47
$IIGLL,4629.816,N,00641.754,E,183147,A,A*5B
$IIHDG,298,,,01,E*10
$IIMTW,+09.0,C*31
$IIMWV,162,R,04.4,N,A*16
$IIMWV,169,T,09.7,N,A*15
$IIRMC,183148,A,4629.816,N,00641.752,E,06.0,303,290415,01,E,A*02
$IIVHW,,,298,M,04.9,N,,*6A
$IIVLW,01640,N,003.6,N*55
$IIVWR,161,R,04.4,N,,,,*67
$IIDPT,046.1,-1.0,*43
$IIGLL,4629.816,N,00641.752,E,183148,A,A*52
$IIHDG,298,,,01,E*10
$IIMTW,+10.0,C*39
$IIMWV,161,R,04.4,N,A*15
$IIMWV,171,T,09.2,N,A*19
$IIRMC,183149,A,4629.817,N,00641.750,E,04.7,302,290415,01,E,A*04
$IIVHW,,,298,M,04.9,N,,*6A
$IIVLW,01640,N,003.6,N*55
$IIVWR,006,R,00.0,N,,,,*67
$IIDPT,055.6,-1.0,*46
$IIGLL,4629.817,N,00641.750,E,183149,A,A*50
$IIHDG,298,,,01,E*10
$IIMTW,+10.0,C*39
$IIMWV,161,R,04.1,N,A*10
$IIMWV,006,T,05.0,N,A*16
$IIRMC,183150,A,4629.818,N,00641.748,E,05.2,304,290415,01,E,A*08
$IIVHW,,,298,M,04.9,N,,*6A
$IIVLW,01640,N,003.6,N*55
$IIVWR,161,R,04.1,N,,,,*62
$IIDPT,046.1,-1.0,*43
$IIGLL,4629.818,N,00641.748,E,183150,A,A*5E
$IIHDG,298,,,01,E*10
$IIMTW,+10.0,C*39
$IIMWV,006,R,00.0,N,A*15
$IIMWV,171,T,08.7,N,A*1D
$IIRMC,183151,A,4629.819,N,00641.747,E,05.1,304,290415,01,E,A*04
$IIVHW,,,299,M,04.9,N,,*6B
$IIVLW,01640,N,003.6,N*55
$IIVWR,006,R,00.0,N,,,,*67
$IIDPT,050.9,-1.0,*4C
$IIGLL,4629.819,N,00641.747,E,183151,A,A*51
$IIHDG,299,,,01,E*11
$IIMTW,+10.0,C*39
$IIMWV,155,R,04.5,N,A*13
$IIMWV,006,T,04.9,N,A*1E
$IIRMC,183152,A,4629.819,N,00641.745,E,04.8,304,290415,01,E,A*0D
$IIVHW,,,299,M,04.9,N,,*6B
$IIVLW,01640,N,003.6,N*55
$IIVWR,155,R,04.5,N,,,,*61
$IIDPT,050.9,-1.0,*4C
$IIGLL,4629.820,N,00641.744,E,183153,A,A*5A
$IIHDG,299,,,01,E*11
$IIMTW,+10.5,C*3C
$IIMWV,155,R,04.5,N,A*13
$IIMWV,168,T,09.0,N,A*13
$IIRMC,183153,A,4629.820,N,00641.744,E,05.0,305,290415,01,E,A*0F
$IIVHW,,,299,M,04.8,N,,*6A
$IIVLW,01640,N,003.6,N*55
$IIVWR,155,R,04.5,N,,,,*61
$IIDPT,055.7,-1.0,*47
$IIGLL,4629.821,N,00641.742,E,183154,A,A*5A
$IIHDG,300,,,01,E*10
$IIMTW,+10.5,C*3C
$IIMWV,154,R,04.5,N,A*12
$IIMWV,168,T,09.0,N,A*13
$IIRMC,183154,A,4629.821,N,00641.742,E,05.0,307,290415,01,E,A*0D
$IIVHW,,,300,M,04.8,N,,*6B
$IIVLW,01640,N,003.6,N*55
$IIVWR,152,R,04.3,N,,,,*60
$IIDPT,055.7,-1.0,*47
$IIGLL,4629.822,N,00641.741,E,183155,A,A*5B
$IIHDG,300,,,01,E*10
$IIMTW,+09.0,C*31
$IIMWV,152,R,04.3,N,A*12
$IIMWV,168,T,09.0,N,A*13
$IIRMC,183155,A,4629.822,N,00641.741,E,04.7,305,290415,01,E,A*08
