$IIMWV,155,T,05.4,N,A*15
$IIMWV,130,R,02.7,N,A*14
$IIRMC,172551,A,4629.909,N,00640.311,E,03.6,325,290415,01,E,A*0A
$IIVHW,,,322,M,03.0,N,,*64
$IIVLW,01636,N,003.2,N*50
$IIVWR,130,R,02.7,N,,,,*66
$IIDPT,010.5,-1.0,*44
$IIGLL,4629.909,N,00640.311,E,172551,A,A*5D
$IIHDG,322,,,01,E*10
$IIMTW,+08.5,C*35
$IIMWV,130,R,03.1,N,A*13
$IIMWV,157,T,05.2,N,A*11
$IIRMC,172552,A,4629.910,N,00640.310,E,03.6,325,290415,01,E,A*00
$IIVHW,,,322,M,03.0,N,,*64
$IIVLW,01636,N,003.2,N*50
$IIVWR,130,R,03.1,N,,,,*61
$IIDPT,010.5,-1.0,*44
$IIGLL,4629.910,N,00640.310,E,172552,A,A*57
$IIHDG,322,,,01,E*10
$IIMTW,+08.5,C*35
$IIMWV,132,R,02.9,N,A*18
$IIMWV,155,T,05.5,N,A*14
$IIRMC,172553,A,4629.911,N,00640.309,E,03.5,325,290415,01,E,A*0B
$IIVHW,,,322,M,03.1,N,,*65
$IIVLW,01636,N,003.2,N*50
$IIVWR,132,R,02.9,N,,,,*6A
$IIDPT,010.5,-1.0,*44
$IIGLL,4629.912,N,00640.309,E,172554,A,A*5B
$IIHDG,322,,,01,E*10
$IIMTW,+08.5,C*35
$IIMWV,134,R,03.0,N,A*16
$IIMWV,157,T,05.4,N,A*17
$IIRMC,172554,A,4629.912,N,00640.309,E,03.5,325,290415,01,E,A*0F
$IIVHW,,,322,M,03.1,N,,*65
$IIVLW,01636,N,003.2,N*50
$IIVWR,134,R,03.0,N,,,,*64
$IIDPT,010.5,-1.0,*44
$IIGLL,4629.913,N,00640.308,E,172555,A,A*5A
$IIHDG,322,,,01,E*10
$IIMTW,+08.5,C*35
$IIMWV,135,R,03.1,N,A*16
$IIMWV,158,T,05.5,N,A*19
$IIRMC,172555,A,4629.913,N,00640.308,E,03.5,324,290415,01,E,A*0F
$IIVHW,,,322,M,03.1,N,,*65
$IIVLW,01636,N,003.2,N*50
$IIVWR,135,R,03.0,N,,,,*65
$IIDPT,010.4,-1.0,*45
$IIGLL,4629.914,N,00640.307,E,172556,A,A*51
$IIHDG,322,,,01,E*10
$IIMTW,+08.5,C*35
$IIMWV,135,R,03.0,N,A*17
$IIMWV,157,T,05.7,N,A*14
$IIRMC,172556,A,4629.914,N,00640.307,E,03.5,327,290415,01,E,A*07
$IIVHW,,,322,M,03.1,N,,*65
$IIVLW,01636,N,003.2,N*50
$IIVWR,134,R,03.3,N,,,,*67
$IIDPT,010.4,-1.0,*45
$IIGLL,4629.914,N,00640.306,E,172557,A,A*51
$IIHDG,322,,,01,E*10
$IIMTW,+08.5,C*35
$IIMWV,134,R,03.3,N,A*15
$IIMWV,159,T,05.7,N,A*1A
$IIRMC,172557,A,4629.914,N,00640.306,E,03.3,325,290415,01,E,A*03
$IIVHW,,,322,M,03.1,N,,*65
$IIVLW,01636,N,003.2,N*50
$IIVWR,135,R,03.1,N,,,,*64
$IIDPT,010.4,-1.0,*45
$IIGLL,4629.915,N,00640.305,E,172558,A,A*5C
$IIHDG,322,,,01,E*10
$IIMTW,+08.5,C*35
$IIMWV,135,R,03.1,N,A*16
$IIMWV,157,T,05.8,N,A*1B
$IIRMC,172559,A,4629.916,N,00640.305,E,03.4,326,290415,01,E,A*08
$IIVHW,,,322,M,03.1,N,,*65
$IIVLW,01636,N,003.2,N*50
$IIVWR,006,R,00.0,N,,,,*67
$IIDPT,010.3,-1.0,*42
$IIGLL,4629.916,N,00640.305,E,172559,A,A*5E
$IIHDG,322,,,01,E*10
$IIMTW,+08.5,C*35
$IIMWV,006,R,00.0,N,A*15
$IIMWV,006,T,03.2,N,A*12
$IIRMC,172600,A,4629.917,N,00640.304,E,03.4,325,290415,01,E,A*04
$IIVHW,,,321,M,03.1,N,,*66
$IIVLW,01636,N,003.2,N*50
$IIVWR,137,R,03.4,N,,,,*63
$IIDPT,010.3,-1.0,*42
$IIGLL,4629.917,N,00640.304,E,172600,A,A*51
$IIHDG,321,,,01,E*13
$IIMTW,+08.5,C*35
$IIMWV,137,R,03.4,N,A*11
$IIMWV,157,T,05.9,N,A*1A
$IIRMC,172601,A,4629.917,N,00640.303,E,03.4,325,290415,01,E,A*02
$IIVHW,,,322,M,03.1,N,,*65
$IIVLW,01636,N,003.2,N*50
$IIVWR,137,R,03.4,N,,,,*63
$IIDPT,010.4,-1.0,*45
$IIGLL,4629.917,N,00640.303,E,172601,A,A*57
$IIHDG,322,,,01,E*10
$IIMTW,+08.5,C*35
$IIMWV,140,R,03.5,N,A*10
$IIMWV,157,T,05.9,N,A*1A
$IIRMC,172602,A,4629.918,N,00640.302,E,03.4,325,290415,01,E,A*0F
$IIVHW,,,322,M,03.1,N,,*65
$IIVLW,01636,N,003.2,N*50
$IIVWR,140,R,03.5,N,,,,*62
$IIDPT,010.5,-1.0,*44
$IIGLL,4629.918,N,00640.302,E,172602,A,A*5A
$IIHDG,322,,,01,E*10
$IIMTW,+08.5,C*35
$IIMWV,135,R,03.5,N,A*12
$IIMWV,159,T,06.1,N,A*1F
$IIRMC,172603,A,4629.919,N,00640.301,E,03.5,325,290415,01,E,A*0D
$IIVHW,,,322,M,03.1,N,,*65
$IIVLW,01636,N,003.2,N*50
$IIVWR,135,R,03.5,N,,,,*60
$IIDPT,010.5,-1.0,*44
$IIGLL,4629.920,N,00640.301,E,172604,A,A*54
$IIHDG,322,,,01,E*10
$IIMTW,+08.5,C*35
$IIMWV,139,R,03.5,N,A*1E
$IIMWV,157,T,06.0,N,A*10
$IIRMC,172604,A,4629.920,N,00640.301,E,03.5,324,290415,01,E,A*01
$IIVHW,,,322,M,03.0,N,,*64
$IIVLW,01636,N,003.2,N*50
$IIVWR,139,R,03.5,N,,,,*6C
$IIDPT,010.5,-1.0,*44
$IIGLL,4629.921,N,00640.300,E,172605,A,A*55
$IIHDG,321,,,01,E*13
$IIMTW,+08.5,C*35
$IIMWV,139,R,03.5,N,A*1E
$IIMWV,158,T,06.1,N,A*1E
$IIRMC,172605,A,4629.921,N,00640.300,E,03.5,325,290415,01,E,A*01
$IIVHW,,,321,M,03.0,N,,*67
$IIVLW,01636,N,003.2,N*50
$IIVWR,144,R,03.4,N,,,,*67
$IIDPT,010.5,-1.0,*44
$IIGLL,4629.921,N,00640.299,E,172606,A,A*57
$IIHDG,321,,,01,E*13
$IIMTW,+08.5,C*35
$IIMWV,144,R,03.4,N,A*15
$IIMWV,158,T,06.1,N,A*1E
$IIRMC,172606,A,4629.921,N,00640.299,E,03.5,323,290415,01,E,A*05
$IIVHW,,,321,M,03.1,N,,*66
$IIVLW,01636,N,003.2,N*50
$IIVWR,143,R,03.4,N,,,,*60
$IIDPT,010.5,-1.0,*44
$IIGLL,4629.922,N,00640.298,E,172607,A,A*54
$IIHDG,321,,,01,E*13
$IIMTW,+08.5,C*35
$IIMWV,143,R,03.4,N,A*12
$IIMWV,161,T,06.1,N,A*14
$IIRMC,172607,A,4629.922,N,00640.298,E,03.5,325,290415,01,E,A*00
$IIVHW,,,321,M,03.1,N,,*66
$IIVLW,01636,N,003.2,N*50
$IIVWR,144,R,03.4,N,,,,*67
$IIDPT,010.5,-1.0,*44
$IIGLL,4629.923,N,00640.297,E,172608,A,A*55
$IIHDG,321,,,01,E*13
$IIMTW,+08.5,C*35
$IIMWV,144,R,03.4,N,A*15
$IIMWV,161,T,06.1,N,A*14
$IIRMC,172609,A,4629.924,N,00640.297,E,03.3,325,290415,01,E,A*01
$IIVHW,,,321,M,03.1,N,,*66
$IIVLW,01636,N,003.2,N*50
$IIVWR,143,R,03.4,N,,,,*60
$IIDPT,010.4,-1.0,*45
$IIGLL,4629.924,N,00640.297,E,172609,A,A*53
$IIHDG,321,,,01,E*13
$IIMTW,+08.5,C*35
$IIMWV,143,R,03.4,N,A*12
$IIMWV,161,T,06.1,N,A*14
$IIRMC,172610,A,4629.925,N,00640.296,E,03.4,326,290415,01,E,A*0D
$IIVHW,,,322,M,03.1,N,,*65
$IIVLW,01636,N,003.2,N*50
$IIVWR,142,R,03.2,N,,,,*67
$IIDPT,010.4,-1.0,*45
$IIGLL,4629.925,N,00640.296,E,172610,A,A*5B
$IIHDG,322,,,01,E*10
$IIMTW,+08.5,C*35
$IIMWV,143,R,03.4,N,A*12
$IIMWV,161,T,05.9,N,A*1F
$IIRMC,172611,A,4629.925,N,00640.295,E,03.4,327,290415,01,E,A*0E
$IIVHW,,,322,M,03.1,N,,*65
$IIVLW,01636,N,003.2,N*50
$IIVWR,143,R,03.4,N,,,,*60
$IIDPT,010.4,-1.0,*45
$IIGLL,4629.925,N,00640.295,E,172611,A,A*59
$IIHDG,322,,,01,E*10
$IIMTW,+08.5,C*35
$IIMWV,143,R,03.3,N,A*15
$IIMWV,161,T,06.1,N,A*14
$IIRMC,172612,A,4629.926,N,00640.294,E,03.4,328,290415,01,E,A*00
$IIVHW,,,322,M,03.1,N,,*65
$IIVLW,01636,N,003.2,N*50
$IIVWR,143,R,03.3,N,,,,*67
$IIDPT,010.4,-1.0,*45
$IIGLL,4629.926,N,00640.294,E,172612,A,A*58
$IIHDG,322,,,01,E*10
$IIMTW,+08.5,C*35
$IIMWV,141,R,03.5,N,A*11
