$IIVHW,,,103,M,04.5,N,,*67
$IIVLW,01634,N,001.2,N*50
$IIMWV,038,T,08.4,N,A*12
$IIRMC,165530,A,4629.865,N,00640.094,E,04.9,104,290415,01,E,A*07
$IIVHW,,,104,M,04.5,N,,*60
$IIVLW,01634,N,001.2,N*50
$IIVWR,024,R,12.1,N,,,,*65
$IIDPT,010.6,-1.0,*47
$IIGLL,4629.865,N,00640.094,E,165530,A,A*59
$IIHDG,104,,,01,E*16
$IIMTW,+09.0,C*31
$IIMWV,024,R,12.7,N,A*11
$IIMWV,037,T,08.1,N,A*18
$IIRMC,165531,A,4629.865,N,00640.095,E,04.9,105,290415,01,E,A*06
$IIVHW,,,104,M,04.4,N,,*61
$IIVLW,01634,N,001.2,N*50
$IIVWR,024,R,12.7,N,,,,*63
$IIDPT,010.6,-1.0,*47
$IIGLL,4629.865,N,00640.095,E,165531,A,A*59
$IIHDG,104,,,01,E*16
$IIMTW,+09.0,C*31
$IIMWV,024,R,12.2,N,A*14
$IIMWV,037,T,08.7,N,A*1E
$IIRMC,165532,A,4629.864,N,00640.097,E,04.9,104,290415,01,E,A*07
$IIVHW,,,104,M,04.4,N,,*61
$IIVLW,01634,N,001.2,N*50
$IIVWR,024,R,12.2,N,,,,*66
$IIDPT,010.6,-1.0,*47
$IIGLL,4629.864,N,00640.097,E,165532,A,A*59
$IIHDG,104,,,01,E*16
$IIMTW,+09.5,C*34
$IIMWV,024,R,12.1,N,A*17
$IIMWV,037,T,08.2,N,A*1B
$IIRMC,165533,A,4629.864,N,00640.099,E,04.9,106,290415,01,E,A*0A
$IIVHW,,,104,M,04.4,N,,*61
$IIVLW,01634,N,001.2,N*50
$IIVWR,024,R,12.1,N,,,,*65
$IIDPT,010.6,-1.0,*47
$IIGLL,4629.863,N,00640.101,E,165534,A,A*56
$IIHDG,104,,,01,E*16
$IIMTW,+09.5,C*34
$IIMWV,024,R,12.0,N,A*16
$IIMWV,037,T,08.1,N,A*18
$IIRMC,165534,A,4629.863,N,00640.101,E,04.8,105,290415,01,E,A*08
$IIVHW,,,104,M,04.4,N,,*61
$IIVLW,01634,N,001.2,N*50
$IIVWR,024,R,12.0,N,,,,*64
$IIDPT,010.6,-1.0,*47
$IIGLL,4629.863,N,00640.103,E,165535,A,A*55
$IIHDG,105,,,01,E*17
$IIMTW,+09.0,C*31
$IIMWV,025,R,12.9,N,A*1E
$IIMWV,037,T,08.0,N,A*19
$IIRMC,165535,A,4629.863,N,00640.103,E,04.8,106,290415,01,E,A*08
$IIVHW,,,105,M,04.4,N,,*60
$IIVLW,01634,N,001.2,N*50
$IIVWR,024,R,12.3,N,,,,*67
$IIDPT,010.8,-1.0,*49
$IIGLL,4629.863,N,00640.104,E,165536,A,A*51
$IIHDG,105,,,01,E*17
$IIMTW,+09.0,C*31
$IIMWV,024,R,12.3,N,A*15
$IIMWV,037,T,09.0,N,A*18
$IIRMC,165536,A,4629.863,N,00640.104,E,04.3,108,290415,01,E,A*09
$IIVHW,,,105,M,04.4,N,,*60
$IIVLW,01634,N,001.2,N*50
$IIVWR,022,R,12.1,N,,,,*63
$IIDPT,010.8,-1.0,*49
$IIGLL,4629.862,N,00640.106,E,165537,A,A*53
$IIHDG,105,,,01,E*17
$IIMTW,+09.0,C*31
$IIMWV,022,R,12.1,N,A*11
$IIMWV,037,T,08.2,N,A*1B
$IIRMC,165537,A,4629.862,N,00640.106,E,04.3,107,290415,01,E,A*04
$IIVHW,,,104,M,04.4,N,,*61
$IIVLW,01634,N,001.2,N*50
$IIVWR,023,R,12.0,N,,,,*63
$IIDPT,026.6,-1.0,*42
$IIGLL,4629.862,N,00640.108,E,165538,A,A*52
$IIHDG,104,,,01,E*16
$IIMTW,+09.5,C*34
$IIMWV,023,R,12.0,N,A*11
$IIMWV,033,T,08.0,N,A*1D
$IIRMC,165539,A,4629.862,N,00640.109,E,04.0,107,290415,01,E,A*06
$IIVHW,,,104,M,04.4,N,,*61
$IIVLW,01634,N,001.2,N*50
$IIVWR,024,R,12.0,N,,,,*64
$IIDPT,026.6,-1.0,*42
$IIGLL,4629.862,N,00640.109,E,165539,A,A*52
$IIHDG,104,,,01,E*16
$IIMTW,+09.0,C*31
$IIMWV,024,R,12.0,N,A*16
$IIMWV,037,T,08.1,N,A*18
$IIRMC,165540,A,4629.862,N,00640.111,E,04.3,105,290415,01,E,A*00
$IIVHW,,,103,M,04.4,N,,*66
$IIVLW,01634,N,001.2,N*50
$IIVWR,023,R,12.0,N,,,,*63
$IIDPT,026.6,-1.0,*42
$IIGLL,4629.862,N,00640.111,E,165540,A,A*55
$IIHDG,103,,,01,E*11
$IIMTW,+09.5,C*34
$IIMWV,024,R,11.5,N,A*10
$IIMWV,035,T,08.0,N,A*1B
$IIRMC,165541,A,4629.861,N,00640.113,E,04.5,103,290415,01,E,A*00
$IIVHW,,,102,M,04.4,N,,*67
$IIVLW,01634,N,001.2,N*50
$IIVWR,024,R,11.5,N,,,,*62
$IIDPT,026.6,-1.0,*42
$IIGLL,4629.861,N,00640.113,E,165541,A,A*55
$IIHDG,102,,,01,E*10
$IIMTW,+09.0,C*31
$IIMWV,025,R,11.8,N,A*1C
$IIMWV,038,T,07.6,N,A*1F
$IIRMC,165542,A,4629.861,N,00640.114,E,04.5,104,290415,01,E,A*03
$IIVHW,,,102,M,04.4,N,,*67
$IIVLW,01634,N,001.2,N*50
$IIVWR,025,R,11.8,N,,,,*6E
$IIDPT,026.6,-1.0,*42
$IIGLL,4629.861,N,00640.114,E,165542,A,A*51
$IIHDG,102,,,01,E*10
$IIMTW,+10.0,C*39
$IIMWV,025,R,11.9,N,A*1D
$IIMWV,038,T,07.9,N,A*10
$IIRMC,165543,A,4629.861,N,00640.116,E,04.4,104,290415,01,E,A*01
$IIVHW,,,102,M,04.4,N,,*67
$IIVLW,01634,N,001.2,N*50
$IIVWR,025,R,11.9,N,,,,*6F
$IIDPT,011.4,-1.0,*44
$IIGLL,4629.860,N,00640.118,E,165544,A,A*5A
$IIHDG,102,,,01,E*10
$IIMTW,+10.0,C*39
$IIMWV,024,R,12.0,N,A*16
$IIMWV,038,T,07.9,N,A*10
$IIRMC,165544,A,4629.860,N,00640.118,E,04.4,104,290415,01,E,A*09
$IIVHW,,,102,M,04.4,N,,*67
$IIVLW,01634,N,001.2,N*50
$IIVWR,024,R,12.0,N,,,,*64
$IIDPT,010.9,-1.0,*48
$IIGLL,4629.861,N,00640.120,E,165545,A,A*51
$IIHDG,102,,,01,E*10
$IIMTW,+10.0,C*39
$IIMWV,024,R,12.4,N,A*12
$IIMWV,037,T,08.1,N,A*18
$IIRMC,165545,A,4629.861,N,00640.120,E,04.5,099,290415,01,E,A*06
$IIVHW,,,102,M,04.4,N,,*67
$IIVLW,01634,N,001.2,N*50
$IIVWR,025,R,12.2,N,,,,*67
$IIDPT,010.9,-1.0,*48
$IIGLL,4629.860,N,00640.122,E,165546,A,A*51
$IIHDG,102,,,01,E*10
$IIMTW,+10.0,C*39
$IIMWV,025,R,12.2,N,A*15
$IIMWV,037,T,08.3,N,A*1A
$IIRMC,165546,A,4629.860,N,00640.122,E,04.5,100,290415,01,E,A*07
$IIVHW,,,102,M,04.4,N,,*67
$IIVLW,01634,N,001.2,N*50
$IIVWR,025,R,12.0,N,,,,*65
$IIDPT,010.8,-1.0,*49
$IIGLL,4629.860,N,00640.124,E,165547,A,A*56
$IIHDG,101,,,01,E*13
$IIMTW,+10.0,C*39
$IIMWV,025,R,12.0,N,A*17
$IIMWV,037,T,08.4,N,A*1D
$IIRMC,165547,A,4629.860,N,00640.124,E,04.5,100,290415,01,E,A*00
$IIVHW,,,101,M,04.4,N,,*64
$IIVLW,01634,N,001.2,N*50
$IIVWR,024,R,12.0,N,,,,*64
$IIDPT,010.8,-1.0,*49
$IIGLL,4629.860,N,00640.125,E,165548,A,A*58
$IIHDG,101,,,01,E*13
$IIMTW,+10.0,C*39
$IIMWV,024,R,12.0,N,A*16
$IIMWV,038,T,08.2,N,A*14
$IIRMC,165549,A,4629.860,N,00640.126,E,04.5,100,290415,01,E,A*0C
$IIVHW,,,102,M,04.4,N,,*67
$IIVLW,01634,N,001.2,N*50
$IIVWR,023,R,12.0,N,,,,*63
$IIDPT,010.8,-1.0,*49
$IIGLL,4629.860,N,00640.126,E,165549,A,A*5A
$IIHDG,102,,,01,E*10
$IIMTW,+09.0,C*31
$IIMWV,023,R,12.0,N,A*11
$IIMWV,035,T,08.0,N,A*1B
$IIRMC,165550,A,4629.860,N,00640.128,E,04.5,103,290415,01,E,A*09
$IIVHW,,,103,M,04.4,N,,*66
$IIVLW,01634,N,001.2,N*50
$IIVWR,024,R,12.0,N,,,,*64
$IIDPT,010.8,-1.0,*49
$IIGLL,4629.860,N,00640.128,E,165550,A,A*5C
$IIHDG,103,,,01,E*11
$IIMTW,+09.5,C*34
$IIMWV,026,R,12.0,N,A*14
$IIMWV,037,T,08.1,N,A*18
