$IIMTW,+21.0,C*3B
$IIMWV,168,R,03.5,N,A*1A
$IIMWV,159,T,03.6,N,A*1D
$IIVHW,,,062,M,00.0,N,,*60
$IIVLW,01359,N,000.0,N*5D
$IIVWR,168,R,03.5,N,,,,*68
$IIDPT,002.6,-1.0,*44
$IIHDG,062,,,,*53
$IIMTW,+21.0,C*3B
$IIMWV,126,R,03.0,N,A*15
$IIMWV,168,T,03.5,N,A*1C
$IIVHW,,,062,M,00.0,N,,*60
$IIVLW,01359,N,000.0,N*5D
$IIVWR,126,R,03.0,N,,,,*67
$IIDPT,002.6,-1.0,*44
$IIHDG,062,,,,*53
$IIMTW,+21.0,C*3B
$IIMWV,112,R,03.1,N,A*13
$IIMWV,126,T,03.0,N,A*13
$IIVHW,,,062,M,00.0,N,,*60
$IIVLW,01359,N,000.0,N*5D
$IIVWR,112,R,03.1,N,,,,*61
$IIDPT,002.6,-1.0,*44
$IIHDG,062,,,,*53
$GPRMB,A,1.00,R,003,004,4917.24,N,12309.57,W,001.3,052.5,000.5,V*3F
$IIMTW,+21.0,C*3B
$IIMWV,191,R,02.9,N,A*11
$IIMWV,112,T,03.1,N,A*15
$IIVHW,,,062,M,00.0,N,,*60
$IIVLW,01359,N,000.0,N*5D
$IIVWR,169,L,02.9,N,,,,*7A
$IIDPT,002.6,-1.0,*44
$IIHDG,062,,,,*53
$IIMTW,+21.0,C*3B
$IIMWV,200,R,02.7,N,A*14
$IIMWV,191,T,02.9,N,A*17
$IIVHW,,,063,M,00.0,N,,*61
$IIVLW,01359,N,000.0,N*5D
$IIVWR,160,L,02.7,N,,,,*7D
$IIDPT,002.6,-1.0,*44
$IIHDG,063,,,,*52
$IIMTW,+21.0,C*3B
$IIMWV,190,R,02.1,N,A*18
$IIMWV,200,T,02.7,N,A*12
$IIVHW,,,062,M,00.0,N,,*60
$IIVLW,01359,N,000.0,N*5D
$IIVWR,170,L,02.1,N,,,,*7A
$IIDPT,002.6,-1.0,*44
$IIHDG,062,,,,*53
$GPRMB,A,2.00,R,003,004,4917.24,N,12309.57,W,001.3,052.5,000.5,V*3C
$IIMTW,+21.0,C*3B
$IIMWV,177,R,02.2,N,A*12
$IIMWV,190,T,02.1,N,A*1E
$IIVHW,,,062,M,00.0,N,,*60
$IIVLW,01359,N,000.0,N*5D
$IIVWR,177,R,02.2,N,,,,*60
$IIDPT,002.6,-1.0,*44
$IIHDG,062,,,,*53
$IIMTW,+21.0,C*3B
$IIMWV,168,R,02.2,N,A*1C
$IIMWV,177,T,02.2,N,A*14
$IIVHW,,,062,M,00.0,N,,*60
$IIVLW,01359,N,000.0,N*5D
$IIVWR,168,R,02.2,N,,,,*6E
$IIDPT,002.6,-1.0,*44
$IIHDG,062,,,,*53
$IIMTW,+21.0,C*3B
$IIMWV,188,R,02.7,N,A*17
$IIMWV,168,T,02.2,N,A*1A
$IIVHW,,,062,M,00.0,N,,*60
$IIVLW,01359,N,000.0,N*5D
$IIVWR,172,L,02.7,N,,,,*7E
$IIDPT,002.6,-1.0,*44
$IIHDG,062,,,,*53
$GPRMB,A,3.00,R,003,004,4917.24,N,12309.57,W,001.3,052.5,000.5,V*3D
$IIMTW,+21.0,C*3B
$IIMWV,190,R,02.2,N,A*1B
$IIMWV,188,T,02.7,N,A*11
$IIVHW,,,062,M,00.0,N,,*60
$IIVLW,01359,N,000.0,N*5D
$IIVWR,170,L,02.2,N,,,,*79
$IIDPT,002.6,-1.0,*44
$IIHDG,062,,,,*53
$IIMTW,+21.0,C*3B
$IIMWV,165,R,01.7,N,A*17
$IIMWV,190,T,02.2,N,A*1D
$IIVHW,,,062,M,00.0,N,,*60
$IIVLW,01359,N,000.0,N*5D
$IIVWR,165,R,01.7,N,,,,*65
$IIDPT,002.6,-1.0,*44
$IIHDG,062,,,,*53
$IIMTW,+21.0,C*3B
$IIMWV,119,R,01.9,N,A*12
$IIMWV,165,T,01.7,N,A*11
$IIVHW,,,063,M,00.0,N,,*61
$IIVLW,01359,N,000.0,N*5D
$IIVWR,119,R,01.9,N,,,,*60
$IIDPT,002.6,-1.0,*44
$IIHDG,063,,,,*52
$GPRMB,A,4.00,R,003,004,4917.24,N,12309.57,W,001.3,052.5,000.5,V*3A
$IIMTW,+21.0,C*3B
$IIMWV,083,R,01.2,N,A*1B
$IIMWV,119,T,01.9,N,A*14
$IIVHW,,,063,M,00.0,N,,*61
$IIVLW,01359,N,000.0,N*5D
$IIVWR,083,R,01.2,N,,,,*69
$IIDPT,002.6,-1.0,*44
$IIHDG,063,,,,*52
$IIMTW,+21.0,C*3B
$IIMWV,097,R,01.6,N,A*1A
$IIMWV,083,T,01.2,N,A*1D
$IIVHW,,,062,M,00.0,N,,*60
$IIVLW,01359,N,000.0,N*5D
$IIVWR,097,R,01.6,N,,,,*68
$IIDPT,002.6,-1.0,*44
$IIHDG,062,,,,*53
$IIMTW,+21.0,C*3B
$IIMWV,118,R,01.5,N,A*1F
$IIMWV,097,T,01.6,N,A*1C
$IIVHW,,,062,M,00.0,N,,*60
$IIVLW,01359,N,000.0,N*5D
$IIVWR,118,R,01.5,N,,,,*6D
$IIDPT,002.6,-1.0,*44
$IIHDG,062,,,,*53
$GPRMB,A,5.00,R,003,004,4917.24,N,12309.57,W,001.3,052.5,000.5,V*3B
$IIMTW,+21.0,C*3B
$IIMWV,118,R,01.3,N,A*19
$IIMWV,118,T,01.5,N,A*19
$IIVHW,,,062,M,00.0,N,,*60
$IIVLW,01359,N,000.0,N*5D
$IIVWR,118,R,01.3,N,,,,*6B
$IIDPT,002.6,-1.0,*44
$IIHDG,062,,,,*53
$IIMTW,+21.0,C*3B
$IIMWV,122,R,01.7,N,A*14
$IIMWV,118,T,01.3,N,A*1F
$IIVHW,,,062,M,00.0,N,,*60
$IIVLW,01359,N,000.0,N*5D
$IIVWR,122,R,01.7,N,,,,*66
$IIDPT,002.6,-1.0,*44
$IIHDG,062,,,,*53
$IIMTW,+21.0,C*3B
$IIMWV,118,R,01.5,N,A*1F
$IIMWV,122,T,01.7,N,A*12
$IIVHW,,,062,M,00.0,N,,*60
$IIVLW,01359,N,000.0,N*5D
$IIVWR,118,R,01.5,N,,,,*6D
$IIDPT,002.6,-1.0,*44
$IIHDG,062,,,,*53
$GPRMB,A,6.00,R,003,004,4917.24,N,12309.57,W,001.3,052.5,000.5,V*38
$IIMTW,+21.0,C*3B
$IIMWV,109,R,01.4,N,A*1E
$IIMWV,118,T,01.5,N,A*19
$IIVHW,,,062,M,00.0,N,,*60
$IIVLW,01359,N,000.0,N*5D
$IIVWR,109,R,01.4,N,,,,*6C
$IIDPT,002.6,-1.0,*44
$IIHDG,062,,,,*53
$IIMTW,+21.0,C*3B
$IIMWV,107,R,01.3,N,A*17
$IIMWV,109,T,01.4,N,A*18
$IIVHW,,,062,M,00.0,N,,*60
$IIVLW,01359,N,000.0,N*5D
$IIVWR,107,R,01.3,N,,,,*65
$IIDPT,002.6,-1.0,*44
$IIHDG,062,,,,*53
$IIMTW,+21.0,C*3B
$IIMWV,124,R,01.2,N,A*17
$IIMWV,107,T,01.3,N,A*11
$IIVHW,,,063,M,00.0,N,,*61
$IIVLW,01359,N,000.0,N*5D
$IIVWR,124,R,01.2,N,,,,*65
$IIDPT,002.6,-1.0,*44
$IIHDG,063,,,,*52
$GPRMB,A,7.00,R,003,004,4917.24,N,12309.57,W,001.3,052.5,000.5,V*39
$IIMTW,+21.0,C*3B
$IIMWV,135,R,01.6,N,A*13
$IIMWV,124,T,01.2,N,A*11
$IIVHW,,,062,M,00.0,N,,*60
$IIVLW,01359,N,000.0,N*5D
$IIVWR,135,R,01.6,N,,,,*61
$IIDPT,002.6,-1.0,*44
$IIHDG,062,,,,*53
$IIMTW,+21.0,C*3B
$IIMWV,142,R,01.1,N,A*14
$IIMWV,135,T,01.6,N,A*15
$IIVHW,,,063,M,00.0,N,,*61
$IIVLW,01359,N,000.0,N*5D
$IIVWR,142,R,01.1,N,,,,*66
$IIDPT,002.6,-1.0,*44
$IIHDG,063,,,,*52
$IIMTW,+21.0,C*3B
$IIMWV,130,R,00.7,N,A*16
$IIMWV,142,T,01.1,N,A*12
$IIVHW,,,063,M,00.0,N,,*61
$IIVLW,01359,N,000.0,N*5D
$IIVWR,130,R,00.7,N,,,,*64
$IIDPT,002.6,-1.0,*44
$IIHDG,063,,,,*52
$GPRMB,A,8.00,R,003,004,4917.24,N,12309.57,W,001.3,052.5,000.5,V*36
$IIMTW,+21.0,C*3B
$IIMWV,121,R,01.3,N,A*13
$IIMWV,130,T,00.7,N,A*10
$IIVHW,,,063,M,00.0,N,,*61
$IIVLW,01359,N,000.0,N*5D
$IIVWR,121,R,01.3,N,,,,*61
$IIDPT,002.6,-1.0,*44
$IIHDG,063,,,,*52
$IIMTW,+21.0,C*3B
$IIMWV,142,R,01.6,N,A*13
$IIMWV,121,T,01.3,N,A*15
$IIVHW,,,062,M,00.0,N,,*60
$IIVLW,01359,N,000.0,N*5D
$IIVWR,142,R,01.6,N,,,,*61
$IIDPT,002.6,-1.0,*44
$IIHDG,062,,,,*53
$IIMTW,+21.0,C*3B
$IIMWV,161,R,01.1,N,A*15
$IIMWV,142,T,01.6,N,A*15
$IIVHW,,,062,M,00.0,N,,*60
$IIVLW,01359,N,000.0,N*5D
$IIVWR,161,R,01.1,N,,,,*67
$IIDPT,002.6,-1.0,*44
$IIHDG,062,,,,*53
$GPRMB,A,9.00,R,003,004,4917.24,N,12309.57,W,001.3,052.5,000.5,V*37
$IIMTW,+21.0,C*3B
$IIMWV,158,R,01.5,N,A*1B
$IIMWV,161,T,01.1,N,A*13
$IIVHW,,,062,M,00.0,N,,*60
$IIVLW,01359,N,000.0,N*5D
$IIVWR,158,R,01.5,N,,,,*69
$IIDPT,002.6,-1.0,*44
$IIHDG,062,,,,*53
$IIMTW,+21.0,C*3B
$IIMWV,158,R,01.4,N,A*1A
$IIMWV,158,T,01.5,N,A*1D
$IIVHW,,,063,M,00.0,N,,*61
$IIVLW,01359,N,000.0,N*5D
$IIVWR,158,R,01.4,N,,,,*68
$IIDPT,002.6,-1.0,*44
$IIHDG,063,,,,*52
$IIMTW,+21.0,C*3B
$IIMWV,151,R,01.6,N,A*11
$IIMWV,158,T,01.4,N,A*1C
$IIVHW,,,063,M,00.0,N,,*61
$IIVLW,01359,N,000.0,N*5D
$IIVWR,151,R,01.6,N,,,,*63
$IIDPT,002.6,-1.0,*44
$IIHDG,063,,,,*52
$GPRMB,A,0.00,R,003,004,4917.24,N,12309.57,W,001.3,052.5,000.5,V*3E
$IIMTW,+21.0,C*3B
$IIMWV,152,R,01.8,N,A*1C
$IIMWV,151,T,01.6,N,A*17
$IIVHW,,,063,M,00.0,N,,*61
$IIVLW,01359,N,000.0,N*5D
$IIVWR,152,R,01.8,N,,,,*6E
$IIDPT,002.6,-1.0,*44
$IIHDG,063,,,,*52
$IIMTW,+21.0,C*3B
$IIMWV,152,R,02.3,N,A*14
$IIMWV,152,T,01.8,N,A*1A
$IIVHW,,,063,M,00.0,N,,*61
$IIVLW,01359,N,000.0,N*5D
$IIVWR,152,R,02.3,N,,,,*66
$IIDPT,002.6,-1.0,*44
$IIHDG,063,,,,*52
$IIMTW,+21.0,C*3B
$IIMWV,147,R,02.3,N,A*10
$IIMWV,152,T,02.3,N,A*12
$IIVHW,,,063,M,00.0,N,,*61
$IIVLW,01359,N,000.0,N*5D
$IIVWR,147,R,02.3,N,,,,*62
$IIDPT,002.6,-1.0,*44
$IIHDG,063,,,,*52
$GPRMB,A,1.00,R,003,004,4917.24,N,12309.57,W,001.3,052.5,000.5,V*3F
$IIMTW,+21.0,C*3B
$IIMWV,141,R,02.4,N,A*11
$IIMWV,147,T,02.3,N,A*16
$IIVHW,,,063,M,00.0,N,,*61
$IIVLW,01359,N,000.0,N*5D
$IIVWR,141,R,02.4,N,,,,*63
$IIDPT,002.6,-1.0,*44
$IIHDG,063,,,,*52
$IIMTW,+21.0,C*3B
$IIMWV,134,R,02.3,N,A*14
$IIMWV,141,T,02.4,N,A*17
$IIVHW,,,063,M,00.0,N,,*61
$IIVLW,01359,N,000.0,N*5D
$IIVWR,134,R,02.3,N,,,,*66
$IIDPT,002.6,-1.0,*44
$IIHDG,063,,,,*52
$IIMTW,+21.0,C*3B
$IIMWV,126,R,03.0,N,A*15
$IIMWV,134,T,02.3,N,A*12
$IIVHW,,,063,M,00.0,N,,*61
$IIVLW,01359,N,000.0,N*5D
$IIVWR,126,R,03.0,N,,,,*67
$IIDPT,002.6,-1.0,*44
$IIHDG,063,,,,*52
$GPRMB,A,2.00,R,003,004,4917.24,N,12309.57,W,001.3,052.5,000.5,V*3C
$IIMTW,+21.0,C*3B
$IIMWV,121,R,03.1,N,A*13
$IIMWV,126,T,03.0,N,A*13
$IIVHW,,,063,M,00.0,N,,*61
$IIVLW,01359,N,000.0,N*5D
$IIVWR,121,R,03.1,N,,,,*61
$IIDPT,002.6,-1.0,*44
$IIHDG,063,,,,*52
$IIMTW,+21.0,C*3B
$IIMWV,117,R,03.4,N,A*13
$IIMWV,121,T,03.1,N,A*15
$IIVHW,,,063,M,00.0,N,,*61
$IIVLW,01359,N,000.0,N*5D
$IIVWR,117,R,03.4,N,,,,*61
$IIDPT,002.6,-1.0,*44
$IIHDG,063,,,,*52
$IIMTW,+21.0,C*3B
$IIMWV,114,R,03.2,N,A*16
$IIMWV,117,T,03.4,N,A*15
$IIVHW,,,063,M,00.0,N,,*61
$IIVLW,01359,N,000.0,N*5D
$IIVWR,114,R,03.2,N,,,,*64
$IIDPT,002.6,-1.0,*44
$IIHDG,063,,,,*52
$GPRMB,A,3.00,R,003,004,4917.24,N,12309.57,W,001.3,052.5,000.5,V*3D
$IIMTW,+21.0,C*3B
$IIMWV,112,R,03.0,N,A*12
$IIMWV,114,T,03.2,N,A*10
$IIVHW,,,062,M,00.0,N,,*60
$IIVLW,01359,N,000.0,N*5D
$IIVWR,112,R,03.0,N,,,,*60
$IIDPT,002.6,-1.0,*44
$IIHDG,062,,,,*53
$GPRMB,A,4.00,R,003,004,4917.24,N,12309.57,W,001.3,052.5,000.5,V*3A
$IIMTW,+21.0,C*3B
$IIMWV,108,R,02.8,N,A*10
$IIMWV,112,T,03.0,N,A*14
$IIRMC,100734,A,5450.267,N,00931.381,E,00.0,000,030813,,,A*47
$IIVHW,,,062,M,00.0,N,,*60
$IIVLW,01359,N,000.0,N*5D
$IIVWR,108,R,02.8,N,,,,*62
$IIDPT,002.6,-1.0,*44
$IIGLL,5450.267,N,00931.381,E,100734,A,A*57
$IIHDG,063,,,,*52
$IIMTW,+21.0,C*3B
$IIMWV,114,R,01.9,N,A*1F
$IIMWV,107,T,02.2,N,A*13
$IIRMC,100738,A,5450.266,N,00931.381,E,00.2,335,030813,,,A*4D
$IIVHW,,,063,M,00.0,N,,*61
$GPRMB,A,5.00,R,003,004,4917.24,N,12309.57,W,001.3,052.5,000.5,V*3B
$GPRMB,A,5.00,R000.0,N*22
$IIVWR,114,R,01.9,N,,,,*6D
$IIDPT,002.6,-1.0,*44
$IIGLL,5450.266,N,00931.380,E,100739,A,A*5A
$IIHDG,062,,,,*53
$IIMTW,+21.0,C*3B
$IIMWV,127,R,02.0,N,A*15
$IIMWV,114,T,01.9,N,A*19
$IIRMC,100739,A,5450.266,N,00931.380,E,00.2,336,030813,,,A*4E
$IIVHW,,,062,M,00.0,N,,*60
$IIVLW,01359,N,000.0,N*5D
$IIVWR,127,R,02.0,N,,,,*67
$IIDPT,002.6,-1.0,*44
$IIGLL,5450.266,N,00931.380,E,100740,A,A*54
$IIHDG,062,,,,*53
$IIMTW,+21.0,C*3B
$IIMWV,136,R,01.4,N,A*12
$IIMWV,127,T,02.0,N,A*13
$IIRMC,100740,A,5450.266,N,00931.380,E,00.5,326,030813,,,A*46
$IIVHW,,,062,M,00.0,N,,*60
$IIVLW,01359,N,000.0,N*5D
$IIVWR,138,R,01.7,N,,,,*6D
$IIDPT,002.6,-1.0,*44
$IIGLL,5450.266,N,00931.380,E,100741,A,A*55
$IIHDG,062,,,,*53
$IIMTW,+21.0,C*3B
$IIMWV,138,R,01.7,N,A*1F
$IIMWV,136,T,01.4,N,A*14
$GPRMB,A,6.00,R,003,004,4917.24,N,12309.57,W,001.3,052.5,000.5,V*38
$GPRMB,A,6741,A,5450.266,N,00931.380,E,00.5,326,030813,,,A*3B
$IIVHW,,,062,M,00.0,N,,*60
$IIVLW,01359,N,000.0,N*5D
$IIVWR,142,R,01.5,N,,,,*62
$IIDPT,002.6,-1.0,*44
$IIGLL,5450.266,N,00931.380,E,100742,A,A*56
$IIHDG,062,,,,*53
$IIMTW,+21.0,C*3B
$IIMWV,142,R,01.5,N,A*10
$IIMWV,138,T,01.7,N,A*19
$IIRMC,100742,A,5450.266,N,00931.380,E,00.3,336,030813,,,A*43
$IIVHW,,,062,M,00.0,N,,*60
$IIVLW,01359,N,000.0,N*5D
$IIVWR,145,R,01.4,N,,,,*64
$IIDPT,002.6,-1.0,*44
$IIGLL,5450.265,N,00931.380,E,100743,A,A*54
$IIHDG,062,,,,*53
$IIMTW,+21.0,C*3B
$IIMWV,145,R,01.4,N,A*16
$IIMWV,142,T,01.5,N,A*16
$IIRMC,100744,A,5450.265,N,00931.380,E,00.2,347,030813,,,A*41
$IIVHW,,,062,M,00.0,N,,*60
$IIVLW,01359,N,000.0,N*5D
$IIVWR,145,R,01.6,N,,,,*66
$IIDPT,002.6,-1.0,*44
$GPRMB,A,7.00,R,003,004,4917.24,N,12309.57,W,001.3,052.5,000.5,V*39
$GPRMB,A,7.00,R,003,004,491,E,100744,A,A*38
$IIHDG,062,,,,*53
$IIMTW,+21.0,C*3B
$IIMWV,145,R,01.6,N,A*14
$IIMWV,145,T,01.6,N,A*12
$IIRMC,100745,A,5450.265,N,00931.380,E,00.2,347,030813,,,A*40
$IIVHW,,,062,M,00.0,N,,*60
$IIVLW,01359,N,000.0,N*5D
$IIVWR,006,R,00.0,N,,,,*67
$IIDPT,002.6,-1.0,*44
$IIGLL,5450.265,N,00931.380,E,100745,A,A*52
$IIHDG,062,,,,*53
$IIMTW,+21.0,C*3B
$IIMWV,153,R,01.2,N,A*17
$IIMWV,006,T,00.0,N,A*13
$IIRMC,100746,A,5450.265,N,00931.380,E,00.2,348,030813,,,A*4C
$IIVHW,,,062,M,00.0,N,,*60
$IIVLW,01359,N,000.0,N*5D
$IIVWR,153,R,01.2,N,,,,*65
$IIDPT,002.6,-1.0,*44
$IIGLL,5450.265,N,00931.380,E,100746,A,A*51
$IIHDG,062,,,,*53
$IIMTW,+21.0,C*3B
$IIMWV,144,R,01.2,N,A*11
$IIMWV,153,T,01.2,N,A*11
$IIRMC,100747,A,5450.265,N,00931.380,E,00.2,348,030813,,,A*4D
$IIVHW,,,063,M,00.0,N,,*61
$IIVLW,01359,N,000.0,N*5D
$GPRMB,A,8.00,R,003,004,4917.24,N,12309.57,W,001.3,052.5,000.5,V*36
$GPRMR,144,R,01.2,N,,,,*6A
$IIDPT,002.6,-1.0,*44
$IIGLL,5450.265,N,00931.380,E,100747,A,A*50
$IIHDG,062,,,,*53
$IIMTW,+21.0,C*3B
$IIMWV,129,R,00.8,N,A*11
$IIMWV,144,T,01.2,N,A*17
$IIRMC,100748,A,5450.265,N,00931.380,E,00.2,349,030813,,,A*43
$IIVHW,,,062,M,00.0,N,,*60
$IIVLW,01359,N,000.0,N*5D
$IIVWR,129,R,00.8,N,,,,*63
$IIDPT,002.6,-1.0,*44
$IIGLL,5450.264,N,00931.380,E,100749,A,A*5F
$IIHDG,062,,,,*53
$IIMTW,+21.0,C*3B
$IIMWV,117,R,00.5,N,A*11
$IIMWV,129,T,00.8,N,A*17
$IIRMC,100749,A,5450.264,N,00931.380,E,00.2,349,030813,,,A*43
$IIVHW,,,062,M,00.0,N,,*60
$IIVLW,01359,N,000.0,N*5D
$IIVWR,117,R,00.5,N,,,,*63
$IIDPT,002.6,-1.0,*44
$IIGLL,5450.264,N,00931.380,E,100750,A,A*57
$IIHDG,062,,,,*53
$IIMTW,+21.0,C*3B
$IIMWV,107,R,00.4,N,A*11
$IIMWV,117,T,00.5,N,A*17
$GPRMB,A,9.00,R,003,004,4917.24,N,12309.57,W,001.3,052.5,000.5,V*37
$GPRMB,A,9.00,R,003,004,4917.24,N,123E,00.2,349,030813,,,A*3B
$IIVHW,,,062,M,00.0,N,,*60
$IIVLW,01359,N,000.0,N*5D
$IIVWR,094,R,00.3,N,,,,*6F
$IIDPT,002.6,-1.0,*44
$IIGLL,5450.264,N,00931.380,E,100751,A,A*56
$IIHDG,063,,,,*52
$IIMTW,+21.0,C*3B
$IIMWV,094,R,00.3,N,A*1D
$IIMWV,107,T,00.4,N,A*17
$IIRMC,100751,A,5450.264,N,00931.380,E,00.2,346,030813,,,A*45
$IIVHW,,,063,M,00.0,N,,*61
$IIVLW,01359,N,000.0,N*5D
$IIVWR,087,R,00.2,N,,,,*6C
$IIDPT,002.6,-1.0,*44
$IIGLL,5450.264,N,00931.380,E,100752,A,A*55
$IIHDG,063,,,,*52
$IIMTW,+21.0,C*3B
$IIMWV,087,R,00.2,N,A*1E
$IIMWV,094,T,00.3,N,A*1B
$IIRMC,100752,A,5450.264,N,00931.380,E,00.4,348,030813,,,A*4E
$IIVHW,,,062,M,00.0,N,,*60
$IIVLW,01359,N,000.0,N*5D
$IIVWR,103,R,00.1,N,,,,*62
$IIDPT,002.6,-1.0,*44
$IIGLL,5450.264,N,00931.380,E,100753,A,A*54
$IIHDG,062,,,,*53
$IIMTW,+21.0,C*3B
$GPRMB,A,0.00,R,003,004,4917.24,N,12309.57,W,001.3,052.5,000.5,V*3E
$GPRMB,103,R,00.1,N,A*16
$IIMWV,087,T,00.2,N,A*18
$IIRMC,100754,A,5450.264,N,00931.380,E,00.4,351,030813,,,A*40
$IIVHW,,,061,M,00.0,N,,*63
$IIVLW,01359,N,000.0,N*5D
$IIVWR,121,R,00.5,N,,,,*66
$IIDPT,002.6,-1.0,*44
$IIGLL,5450.264,N,00931.380,E,100754,A,A*53
$IIHDG,061,,,,*50
$IIMTW,+21.0,C*3B
$IIMWV,121,R,00.5,N,A*14
$IIMWV,121,T,00.5,N,A*12
$IIRMC,100755,A,5450.264,N,00931.380,E,00.3,356,030813,,,A*41
$IIVHW,,,061,M,00.0,N,,*63
$IIVLW,01359,N,000.0,N*5D
$IIVWR,126,R,00.7,N,,,,*63
$IIDPT,002.6,-1.0,*44
$IIGLL,5450.264,N,00931.380,E,100755,A,A*52
$IIHDG,061,,,,*50
$IIMTW,+21.0,C*3B
$IIMWV,130,R,00.4,N,A*15
$IIMWV,126,T,00.7,N,A*17
$IIRMC,100755,A,5450.264,N,00931.380,E,00.3,356,030813,,,A*41
$IIVHW,,,061,M,00.0,N,,*63
$IIVLW,01359,N,000.0,N*5D
$GPRMB,A,1.00,R,003,004,4917.24,N,12309.57,W,001.3,052.5,000.5,V*3F
$GPRMB,A,1.00,R,003,004,4917.24,N,12309.57,W,001.3,052.5,000.5,V*3F
$IIDPT,002.6,-1.0,*44
$IIGLL,5450.264,N,00931.380,E,100755,A,A*52
$IIHDG,061,,,,*50
$IIMTW,+21.0,C*3B
$IIMWV,136,R,01.1,N,A*17
$IIMWV,130,T,00.4,N,A*13
$IIRMC,100757,A,5450.265,N,00931.380,E,00.4,353,030813,,,A*40
$IIVHW,,,062,M,00.0,N,,*60
$IIVLW,01359,N,000.0,N*5D
$IIVWR,136,R,01.1,N,,,,*65
$IIDPT,002.6,-1.0,*44
$IIGLL,5450.265,N,00931.380,E,100757,A,A*51
$IIHDG,062,,,,*53
$IIMTW,+21.0,C*3B
$IIMWV,136,R,01.1,N,A*17
$IIMWV,136,T,01.1,N,A*11
$IIRMC,100758,A,5450.265,N,00931.380,E,00.2,345,030813,,,A*4E
$IIVHW,,,062,M,00.0,N,,*60
$IIVLW,01359,N,000.0,N*5D
$IIVWR,136,R,01.1,N,,,,*65
$IIDPT,002.6,-1.0,*44
$IIGLL,5450.265,N,00931.379,E,100759,A,A*59
$IIHDG,062,,,,*53
$IIMTW,+21.0,C*3B
$IIMWV,125,R,01.1,N,A*15
$IIMWV,136,T,01.1,N,A*11
$IIRMC,100759,A,5450.265,N,00931.379,E,00.2,345,030813,,,A*49
$GPRMB,A,2.00,R,003,004,4917.24,N,12309.57,W,001.3,052.5,000.5,V*3C
$IIVHW,,,062,M,00.0,N,,*60
$IIVLW,01359,N,000.0,N*5D
$IIVWR,125,R,01.1,N,,,,*67
$IIDPT,002.6,-1.0,*44
$IIGLL,5450.265,N,00931.379,E,100800,A,A*5A
$IIHDG,062,,,,*53
$IIMTW,+21.0,C*3B
$IIMWV,127,R,01.4,N,A*12
$IIMWV,125,T,01.1,N,A*13
$IIRMC,100800,A,5450.265,N,00931.379,E,00.2,345,030813,,,A*4A
$IIVHW,,,062,M,00.0,N,,*60
$IIVLW,01359,N,000.0,N*5D
$IIVWR,132,R,02.7,N,,,,*64
$IIDPT,002.6,-1.0,*44
$IIGLL,5450.264,N,00931.378,E,100801,A,A*5B
$IIHDG,062,,,,*53
$IIMTW,+21.0,C*3B
$IIMWV,132,R,02.7,N,A*16
$IIMWV,127,T,01.4,N,A*14
$IIRMC,100801,A,5450.264,N,00931.378,E,00.5,356,030813,,,A*4E
$IIVHW,,,062,M,00.0,N,,*60
$IIVLW,01359,N,000.0,N*5D
$IIVWR,122,R,02.6,N,,,,*64
$IIDPT,002.6,-1.0,*44
$IIGLL,5450.264,N,00931.378,E,100801,A,A*5B
$IIHDG,062,,,,*53
$IIMTW,+21.0,C*3B
$IIMWV,122,R,02.6,N,A*16
$GPRMB,A,3.00,R,003,004,4917.24,N,12309.57,W,001.3,052.5,000.5,V*3D
$GPRMB,A,3,T,02.7,N,A*78
$IIRMC,100801,A,5450.264,N,00931.378,E,00.5,356,030813,,,A*4E
$IIVHW,,,062,M,00.0,N,,*60
$IIVLW,01359,N,000.0,N*5D
$IIVWR,132,R,02.8,N,,,,*6B
$IIDPT,002.6,-1.0,*44
$IIGLL,5450.265,N,00931.378,E,100803,A,A*58
$IIHDG,062,,,,*53
$IIMTW,+21.0,C*3B
$IIMWV,132,R,02.8,N,A*19
$IIMWV,122,T,02.6,N,A*10
$IIRMC,100804,A,5450.264,N,00931.378,E,00.2,346,030813,,,A*4D
$IIVHW,,,062,M,00.0,N,,*60
$IIVLW,01359,N,000.0,N*5D
$IIVWR,142,R,03.4,N,,,,*61
$IIDPT,002.6,-1.0,*44
$IIGLL,5450.264,N,00931.378,E,100804,A,A*5E
$IIHDG,062,,,,*53
$IIMTW,+21.0,C*3B
$IIMWV,142,R,03.4,N,A*13
$IIMWV,142,T,03.4,N,A*15
$IIRMC,100805,A,5450.265,N,00931.377,E,00.3,345,030813,,,A*40
$IIVHW,,,062,M,00.0,N,,*60
$IIVLW,01359,N,000.0,N*5D
$IIVWR,138,R,03.1,N,,,,*69
$IIDPT,002.6,-1.0,*44
$GPRMB,A,4.00,R,003,004,4917.24,N,12309.57,W,001.3,052.5,000.5,V*3A
$IIGLL,5450.265,N,00931.377,E,100805,A,A*51
$IIHDG,062,,,,*53
$IIMTW,+21.0,C*3B
$IIMWV,139,R,03.1,N,A*1A
$IIMWV,138,T,03.1,N,A*1D
$IIRMC,100806,A,5450.265,N,00931.377,E,01.3,337,030813,,,A*47
$IIVHW,,,062,M,00.0,N,,*60
$IIVLW,01359,N,000.0,N*5D
$IIVWR,139,R,03.1,N,,,,*68
$IIDPT,002.6,-1.0,*44
$IIGLL,5450.265,N,00931.377,E,100806,A,A*52
$IIHDG,062,,,,*53
$GPRMB,A,5.00,R,003,004,4917.24,N,12309.57,W,001.3,052.5,000.5,V*3B
$IIMTW,+21.0,C*3B
$IIMWV,146,R,03.2,N,A*11
$IIMWV,139,T,03.1,N,A*1C
$IIRMC,100807,A,5450.265,N,00931.377,E,01.3,337,030813,,,A*46
$IIVHW,,,063,M,00.0,N,,*61
$IIVLW,01359,N,000.0,N*5D
$IIVWR,146,R,03.2,N,,,,*63
$IIDPT,002.6,-1.0,*44
$IIGLL,5450.265,N,00931.377,E,100807,A,A*53
$IIHDG,062,,,,*53
$IIMTW,+21.0,C*3B
$IIMWV,143,R,02.9,N,A*1E
$IIMWV,145,T,03.1,N,A*17
$IIRMC,100810,A,5450.265,N,00931.378,E,01.3,337,030813,,,A*4F
$IIVHW,,,062,M,00.0,N,,*60
$IIVLW,01359,N,000.0,N*5D
$IIVWR,143,R,02.9,N,,,,*6C
$IIDPT,002.6,-1.0,*44
$IIGLL,5450.265,N,00931.378,E,100811,A,A*5B
$IIHDG,062,,,,*53
$IIMTW,+21.0,C*3B
$IIMWV,149,R,02.8,N,A*15
$IIMWV,143,T,02.9,N,A*18
$IIRMC,100811,A,5450.265,N,00931.378,E,01.3,337,030813,,,A*4E
$GPRMB,A,6.00,R,003,004,4917.24,N,12309.57,W,001.3,052.5,000.5,V*38
$IIVHW,,,062,M,00.0,N,,*60
$IIVLW,01359,N,000.0,N*5D
$IIVWR,149,R,02.8,N,,,,*67
$IIDPT,002.6,-1.0,*44
$IIGLL,5450.265,N,00931.378,E,100812,A,A*58
$IIHDG,062,,,,*53
$IIMTW,+21.0,C*3B
$IIMWV,155,R,02.9,N,A*19
$IIMWV,149,T,02.8,N,A*13
$IIRMC,100812,A,5450.265,N,00931.378,E,01.3,337,030813,,,A*4D
$IIVHW,,,062,M,00.0,N,,*60
$IIVLW,01359,N,000.0,N*5D
$IIVWR,154,R,03.0,N,,,,*62
$IIDPT,002.6,-1.0,*44
$IIGLL,5450.265,N,00931.379,E,100813,A,A*58
$IIHDG,062,,,,*53
$IIMTW,+21.0,C*3B
$IIMWV,154,R,03.0,N,A*10
$IIMWV,155,T,02.9,N,A*1F
$IIRMC,100813,A,5450.265,N,00931.379,E,01.3,337,030813,,,A*4D
$IIVHW,,,062,M,00.0,N,,*60
$IIVLW,01359,N,000.0,N*5D
$IIVWR,162,R,03.1,N,,,,*66
$IIDPT,002.6,-1.0,*44
$IIGLL,5450.265,N,00931.379,E,100814,A,A*5F
$IIHDG,062,,,,*53
$IIMTW,+21.0,C*3B
$IIMWV,162,R,03.1,N,A*14
$GPRMB,A,7.00,R,003,004,4917.24,N,12309.57,W,001.3,052.5,000.5,V*39
$GPRMB,A,7,T,03.0,N,A*7A
$IIRMC,100814,A,5450.265,N,00931.379,E,01.3,337,030813,,,A*4A
$IIVHW,,,062,M,00.0,N,,*60
$IIVLW,01359,N,000.0,N*5D
$IIVWR,166,R,03.2,N,,,,*61
$IIDPT,002.6,-1.0,*44
$IIGLL,5450.265,N,00931.379,E,100815,A,A*5E
$IIHDG,062,,,,*53
$IIMTW,+20.5,C*3F
$IIMWV,166,R,03.2,N,A*13
$IIMWV,162,T,03.1,N,A*12
$IIRMC,100815,A,5450.265,N,00931.379,E,01.3,337,030813,,,A*4B
$IIVHW,,,062,M,00.0,N,,*60
$IIVLW,01359,N,000.0,N*5D
$IIVWR,169,R,03.2,N,,,,*6E
$IIDPT,002.6,-1.0,*44
$IIGLL,5450.265,N,00931.379,E,100815,A,A*5E
$IIHDG,062,,,,*53
$IIMTW,+21.0,C*3B
$IIMWV,169,R,03.2,N,A*1C
$IIMWV,169,T,03.2,N,A*1A
$IIRMC,100817,A,5450.265,N,00931.378,E,01.3,337,030813,,,A*48
$IIVHW,,,062,M,00.0,N,,*60
$IIVLW,01359,N,000.0,N*5D
$IIVWR,170,R,03.8,N,,,,*6C
$IIDPT,002.6,-1.0,*44
$GPRMB,A,8.00,R,003,004,4917.24,N,12309.57,W,001.3,052.5,000.5,V*36
$GIGLL,5450.265,N,00931.378,E,100817,A,A*53
$IIHDG,062,,,,*53
$IIMTW,+21.0,C*3B
$IIMWV,172,R,04.4,N,A*17
$IIMWV,170,T,03.8,N,A*18
$IIRMC,100818,A,5450.265,N,00931.378,E,01.3,337,030813,,,A*47
$IIVHW,,,062,M,00.0,N,,*60
$IIVLW,01359,N,000.0,N*5D
$IIVWR,172,R,04.4,N,,,,*65
$IIDPT,002.6,-1.0,*44
$IIGLL,5450.265,N,00931.378,E,100818,A,A*52
$IIHDG,062,,,,*53
$IIMTW,+21.0,C*3B
$IIMWV,170,R,05.3,N,A*13
$IIMWV,172,T,04.4,N,A*11
$IIRMC,100818,A,5450.265,N,00931.378,E,01.3,337,030813,,,A*47
$IIVHW,,,063,M,00.0,N,,*61
$IIVLW,01359,N,000.0,N*5D
$IIVWR,170,R,05.3,N,,,,*61
$IIDPT,002.6,-1.0,*44
$IIGLL,5450.265,N,00931.378,E,100818,A,A*52
$IIHDG,063,,,,*52
$IIMTW,+20.5,C*3F
$IIMWV,169,R,06.0,N,A*1B
$IIMWV,170,T,05.3,N,A*15
$IIRMC,100820,A,5450.265,N,00931.378,E,01.3,337,030813,,,A*4C
$IIVHW,,,063,M,00.0,N,,*61
$GPRMB,A,9.00,R,003,004,4917.24,N,12309.57,W,001.3,052.5,000.5,V*37
$GPRMB,A,9.00,R,00.0,N*32
$IIVWR,169,R,06.0,N,,,,*69
$IIDPT,002.6,-1.0,*44
$IIGLL,5450.265,N,00931.379,E,100821,A,A*59
$IIHDG,062,,,,*53
$IIMTW,+20.5,C*3F
$IIMWV,169,R,06.7,N,A*1C
$IIMWV,169,T,06.0,N,A*1D
$IIRMC,100821,A,5450.265,N,00931.379,E,01.3,337,030813,,,A*4C
$IIVHW,,,062,M,00.0,N,,*60
$IIVLW,01359,N,000.0,N*5D
$IIVWR,169,R,06.7,N,,,,*6E
$IIDPT,002.6,-1.0,*44
$IIGLL,5450.265,N,00931.379,E,100822,A,A*5A
$IIHDG,062,,,,*53
$IIMTW,+20.5,C*3F
$IIMWV,169,R,07.4,N,A*1E
$IIMWV,169,T,06.7,N,A*1A
$IIRMC,100822,A,5450.265,N,00931.379,E,01.3,337,030813,,,A*4F
$IIVHW,,,062,M,00.0,N,,*60
$IIVLW,01359,N,000.0,N*5D
$IIVWR,169,R,08.0,N,,,,*67
$IIDPT,002.6,-1.0,*44
$IIGLL,5450.265,N,00931.379,E,100823,A,A*5B
$IIHDG,062,,,,*53
$IIMTW,+20.5,C*3F
$IIMWV,169,R,08.0,N,A*15
$IIMWV,169,T,07.4,N,A*18
$GPRMB,A,0.00,R,003,004,4917.24,N,12309.57,W,001.3,052.5,000.5,V*3E
$GPRMB,A,0.23,A,5450.265,N,00931.379,E,01.3,337,030813,,,A*22
$IIVHW,,,062,M,00.0,N,,*60
$IIVLW,01359,N,000.0,N*5D
$IIVWR,168,R,08.1,N,,,,*67
$IIDPT,002.6,-1.0,*44
$IIGLL,5450.265,N,00931.379,E,100824,A,A*5C
$IIHDG,062,,,,*53
$IIMTW,+20.5,C*3F
$IIMWV,168,R,08.1,N,A*15
$IIMWV,169,T,08.0,N,A*13
$IIRMC,100824,A,5450.265,N,00931.379,E,01.3,337,030813,,,A*49
$IIVHW,,,062,M,00.0,N,,*60
$IIVLW,01359,N,000.0,N*5D
$IIVWR,168,R,07.9,N,,,,*60
$IIDPT,002.6,-1.0,*44
$IIGLL,5450.265,N,00931.379,E,100825,A,A*5D
$IIHDG,062,,,,*53
$IIMTW,+20.5,C*3F
$IIMWV,168,R,07.9,N,A*12
$IIMWV,168,T,08.1,N,A*13
$IIRMC,100826,A,5450.265,N,00931.379,E,01.3,337,030813,,,A*4B
$IIVHW,,,062,M,00.0,N,,*60
$IIVLW,01359,N,000.0,N*5D
$IIVWR,166,R,07.5,N,,,,*62
$IIDPT,002.6,-1.0,*44
$GPRMB,A,1.00,R,003,004,4917.24,N,12309.57,W,001.3,052.5,000.5,V*3F
$GPRMB,A,1.00,R,003,004,4917E,100826,A,A*2E
$IIHDG,062,,,,*53
$IIMTW,+20.5,C*3F
$IIMWV,166,R,07.5,N,A*10
$IIMWV,166,T,07.5,N,A*16
$IIRMC,100827,A,5450.265,N,00931.379,E,01.3,337,030813,,,A*4A
$IIVHW,,,062,M,00.0,N,,*60
$IIVLW,01359,N,000.0,N*5D
$IIVWR,164,R,07.3,N,,,,*66
$IIDPT,002.6,-1.0,*44
$IIGLL,5450.265,N,00931.379,E,100827,A,A*5F
$IIHDG,062,,,,*53
$IIMTW,+20.5,C*3F
$IIMWV,162,R,07.3,N,A*12
$IIMWV,164,T,07.3,N,A*12
$IIRMC,100828,A,5450.265,N,00931.379,E,01.3,337,030813,,,A*45
$IIVHW,,,062,M,00.0,N,,*60
$IIVLW,01359,N,000.0,N*5D
$IIVWR,162,R,07.3,N,,,,*60
$IIDPT,002.6,-1.0,*44
$IIGLL,5450.265,N,00931.379,E,100828,A,A*50
$IIHDG,062,,,,*53
$IIMTW,+20.5,C*3F
$IIMWV,006,R,00.0,N,A*15
$IIMWV,162,T,07.3,N,A*14
$IIRMC,100829,A,5450.265,N,00931.379,E,00.2,339,030813,,,A*4A
$IIVHW,,,062,M,00.0,N,,*60
$IIVLW,01359,N,000.0,N*5D
$GPRMB,A,2.00,R,003,004,4917.24,N,12309.57,W,001.3,052.5,000.5,V*3C
$GPRMB,006,R,00.0,N,,,,*7E
$IIDPT,002.6,-1.0,*44
$IIGLL,5450.265,N,00931.379,E,100829,A,A*51
$IIHDG,062,,,,*53
$IIMTW,+20.5,C*3F
$IIMWV,158,R,07.2,N,A*1A
$IIMWV,006,T,00.0,N,A*13
$IIRMC,100830,A,5450.265,N,00931.379,E,00.2,339,030813,,,A*42
$IIVHW,,,062,M,00.0,N,,*60
$IIVLW,01359,N,000.0,N*5D
$IIVWR,158,R,07.2,N,,,,*68
$IIDPT,002.6,-1.0,*44
$IIGLL,5450.265,N,00931.380,E,100831,A,A*5E
$IIHDG,063,,,,*52
$IIMTW,+20.5,C*3F
$IIMWV,159,R,07.3,N,A*1A
$IIMWV,158,T,07.2,N,A*1C
$IIRMC,100831,A,5450.265,N,00931.380,E,00.2,342,030813,,,A*49
$IIVHW,,,063,M,00.0,N,,*61
$IIVLW,01359,N,000.0,N*5D
$IIVWR,159,R,07.3,N,,,,*68
$IIDPT,002.6,-1.0,*44
$IIGLL,5450.265,N,00931.379,E,100832,A,A*5B
$IIHDG,062,,,,*53
$IIMTW,+20.5,C*3F
$IIMWV,161,R,07.7,N,A*15
$IIMWV,159,T,07.3,N,A*1C
$GPRMB,A,3.00,R,003,004,4917.24,N,12309.57,W,001.3,052.5,000.5,V*3D
$GPRMB,A,3.00,R,003,004,4917.24,N,1230,00.2,342,030813,,,A*4F
$IIVHW,,,062,M,00.0,N,,*60
$IIVLW,01359,N,000.0,N*5D
$IIVWR,163,R,08.3,N,,,,*6E
$IIDPT,002.6,-1.0,*44
$IIGLL,5450.265,N,00931.380,E,100833,A,A*5C
$IIHDG,062,,,,*53
$IIMTW,+21.0,C*3B
$IIMWV,163,R,08.3,N,A*1C
$IIMWV,161,T,07.7,N,A*13
$IIRMC,100833,A,5450.265,N,00931.380,E,00.2,342,030813,,,A*4B
$IIVHW,,,062,M,00.0,N,,*60
$IIVLW,01359,N,000.0,N*5D
$IIVWR,159,R,08.4,N,,,,*60
$IIDPT,002.6,-1.0,*44
$IIGLL,5450.265,N,00931.380,E,100834,A,A*5B
$IIHDG,062,,,,*53
$IIMTW,+21.0,C*3B
$IIMWV,159,R,08.4,N,A*12
$IIMWV,163,T,08.3,N,A*1A
$IIRMC,100834,A,5450.265,N,00931.380,E,00.2,342,030813,,,A*4C
$IIVHW,,,062,M,00.0,N,,*60
$IIVLW,01359,N,000.0,N*5D
$IIVWR,158,R,08.2,N,,,,*67
$IIDPT,002.6,-1.0,*44
$IIGLL,5450.265,N,00931.380,E,100835,A,A*5A
$IIHDG,062,,,,*53
$IIMTW,+21.0,C*3B
$GPRMB,A,4.00,R,003,004,4917.24,N,12309.57,W,001.3,052.5,000.5,V*3A
$GPRMB,A58,R,08.2,N,A*63
$IIMWV,159,T,08.4,N,A*14
$IIRMC,100836,A,5450.265,N,00931.380,E,00.2,342,030813,,,A*4E
$IIVHW,,,063,M,00.0,N,,*61
$IIVLW,01359,N,000.0,N*5D
$IIVWR,154,R,07.7,N,,,,*61
$IIDPT,002.6,-1.0,*44
$IIGLL,5450.265,N,00931.380,E,100836,A,A*59
$IIHDG,063,,,,*52
$IIMTW,+21.0,C*3B
$IIMWV,154,R,07.7,N,A*13
$IIMWV,154,T,07.7,N,A*15
$IIRMC,100837,A,5450.265,N,00931.380,E,00.2,342,030813,,,A*4F
$IIVHW,,,063,M,00.0,N,,*61
$IIVLW,01359,N,000.0,N*5D
$IIVWR,152,R,07.2,N,,,,*62
$IIDPT,002.6,-1.0,*44
$IIGLL,5450.265,N,00931.380,E,100837,A,A*58
$IIHDG,063,,,,*52
$IIMTW,+21.0,C*3B
$IIMWV,153,R,07.2,N,A*11
$IIMWV,152,T,07.2,N,A*16
$IIRMC,100838,A,5450.266,N,00931.380,E,00.2,342,030813,,,A*43
$IIVHW,,,062,M,00.0,N,,*60
$IIVLW,01359,N,000.0,N*5D
$IIVWR,153,R,07.2,N,,,,*63
$GPRMB,A,5.00,R,003,004,4917.24,N,12309.57,W,001.3,052.5,000.5,V*3B
$IIDPT,002.6,-1.0,*44
$IIGLL,5450.266,N,00931.380,E,100838,A,A*54
$IIHDG,062,,,,*53
$IIMTW,+21.0,C*3B
$IIMWV,154,R,07.5,N,A*11
$IIMWV,153,T,07.2,N,A*17
$IIRMC,100838,A,5450.266,N,00931.380,E,00.2,342,030813,,,A*43
$IIVHW,,,062,M,00.0,N,,*60
$IIVLW,01359,N,000.0,N*5D
$IIVWR,154,R,07.5,N,,,,*63
$IIDPT,002.6,-1.0,*44
$IIGLL,5450.266,N,00931.380,E,100838,A,A*54
$IIHDG,062,,,,*53
$IIMTW,+21.0,C*3B
$IIMWV,156,R,07.7,N,A*11
$IIMWV,154,T,07.5,N,A*17
$IIRMC,100840,A,5450.266,N,00931.380,E,00.2,342,030813,,,A*4C
$IIVHW,,,062,M,00.0,N,,*60
$IIVLW,01359,N,000.0,N*5D
$IIVWR,156,R,07.7,N,,,,*63
$IIDPT,002.6,-1.0,*44
$IIGLL,5450.266,N,00931.380,E,100841,A,A*5A
$IIHDG,062,,,,*53
$IIMTW,+21.0,C*3B
$IIMWV,155,R,08.1,N,A*1B
$IIMWV,156,T,07.7,N,A*17
$IIRMC,100841,A,5450.266,N,00931.380,E,00.2,342,030813,,,A*4D
$GPRMB,A,6.00,R,003,004,4917.24,N,12309.57,W,001.3,052.5,000.5,V*38
$IIVHW,,,062,M,00.0,N,,*60
$IIVLW,01359,N,000.0,N*5D
$IIVWR,155,R,08.1,N,,,,*69
$IIDPT,002.6,-1.0,*44
$IIGLL,5450.266,N,00931.380,E,100842,A,A*59
$IIHDG,063,,,,*52
$IIMTW,+21.0,C*3B
$IIMWV,153,R,08.0,N,A*1C
$IIMWV,155,T,08.1,N,A*1D
$IIRMC,100842,A,5450.266,N,00931.380,E,00.2,342,030813,,,A*4E
$IIVHW,,,063,M,00.0,N,,*61
$IIVLW,01359,N,000.0,N*5D
$IIVWR,152,R,07.9,N,,,,*69
$IIDPT,002.6,-1.0,*44
$IIGLL,5450.265,N,00931.380,E,100843,A,A*5B
$IIHDG,063,,,,*52
$IIMTW,+21.0,C*3B
$IIMWV,152,R,07.9,N,A*1B
$IIMWV,153,T,08.0,N,A*1A
$IIRMC,100843,A,5450.265,N,00931.380,E,00.2,342,030813,,,A*4C
$IIVHW,,,063,M,00.0,N,,*61
$IIVLW,01359,N,000.0,N*5D
$IIVWR,151,R,07.6,N,,,,*65
$IIDPT,002.6,-1.0,*44
$IIGLL,5450.265,N,00931.380,E,100844,A,A*5C
$IIHDG,062,,,,*53
$IIMTW,+21.0,C*3B
$IIMWV,151,R,07.6,N,A*17
$GPRMB,A,7.00,R,003,004,4917.24,N,12309.57,W,001.3,052.5,000.5,V*39
$GPRMB,A,7,T,07.9,N,A*77
$IIRMC,100844,A,5450.265,N,00931.380,E,00.2,342,030813,,,A*4B
$IIVHW,,,062,M,00.0,N,,*60
$IIVLW,01359,N,000.0,N*5D
$IIVWR,147,R,07.5,N,,,,*61
$IIDPT,002.6,-1.0,*44
$IIGLL,5450.265,N,00931.380,E,100844,A,A*5C
$IIHDG,062,,,,*53
$IIMTW,+21.0,C*3B
$IIMWV,147,R,07.5,N,A*13
$IIMWV,151,T,07.6,N,A*11
$IIRMC,100846,A,5450.265,N,00931.379,E,00.2,342,030813,,,A*4F
$IIVHW,,,062,M,00.0,N,,*60
$IIVLW,01359,N,000.0,N*5D
$IIVWR,149,R,07.7,N,,,,*6D
$IIDPT,002.6,-1.0,*44
$IIGLL,5450.265,N,00931.379,E,100846,A,A*58
$IIHDG,062,,,,*53
$IIMTW,+21.0,C*3B
$IIMWV,149,R,07.7,N,A*1F
$IIMWV,149,T,07.7,N,A*19
$IIRMC,100847,A,5450.265,N,00931.379,E,00.2,342,030813,,,A*4E
$IIVHW,,,062,M,00.0,N,,*60
$IIVLW,01359,N,000.0,N*5D
$IIVWR,152,R,08.3,N,,,,*6C
$IIDPT,002.6,-1.0,*44
$GPRMB,A,8.00,R,003,004,4917.24,N,12309.57,W,001.3,052.5,000.5,V*36
$GIGLL,5450.265,N,00931.379,E,100847,A,A*57
$IIHDG,062,,,,*53
$IIMTW,+21.0,C*3B
$IIMWV,152,R,08.5,N,A*18
$IIMWV,152,T,08.3,N,A*18
$IIRMC,100848,A,5450.265,N,00931.379,E,00.2,342,030813,,,A*41
$IIVHW,,,063,M,00.0,N,,*61
$IIVLW,01359,N,000.0,N*5D
$IIVWR,152,R,08.5,N,,,,*6A
$IIDPT,002.6,-1.0,*44
$IIGLL,5450.265,N,00931.379,E,100848,A,A*56
$IIHDG,063,,,,*52
$IIMTW,+21.0,C*3B
$IIMWV,151,R,08.6,N,A*18
$IIMWV,152,T,08.5,N,A*1E
$IIRMC,100849,A,5450.265,N,00931.379,E,00.2,342,030813,,,A*40
$IIVHW,,,063,M,00.0,N,,*61
$IIVLW,01359,N,000.0,N*5D
$IIVWR,151,R,08.6,N,,,,*6A
$IIDPT,002.6,-1.0,*44
$IIGLL,5450.265,N,00931.379,E,100849,A,A*57
$IIHDG,062,,,,*53
$IIMTW,+18.0,C*31
$IIMWV,149,R,08.4,N,A*13
$IIMWV,151,T,08.6,N,A*1E
$IIRMC,100850,A,5450.265,N,00931.379,E,00.2,342,030813,,,A*48
$IIVHW,,,062,M,00.0,N,,*60
$GPRMB,A,9.00,R,003,004,4917.24,N,12309.57,W,001.3,052.5,000.5,V*37
$GPRMB,A,9.00,R,00.0,N*32
$IIVWR,149,R,08.4,N,,,,*61
$IIDPT,002.6,-1.0,*44
$IIGLL,5450.265,N,00931.379,E,100851,A,A*5E
$IIHDG,062,,,,*53
$IIMTW,+20.5,C*3F
$IIMWV,149,R,08.7,N,A*10
$IIMWV,149,T,08.4,N,A*15
$IIRMC,100851,A,5450.265,N,00931.379,E,00.2,342,030813,,,A*49
$IIVHW,,,062,M,00.0,N,,*60
$IIVLW,01359,N,000.0,N*5D
$IIVWR,149,R,08.7,N,,,,*62
$IIDPT,002.6,-1.0,*44
$IIGLL,5450.265,N,00931.379,E,100852,A,A*5D
$IIHDG,062,,,,*53
$IIMTW,+20.5,C*3F
$IIMWV,147,R,09.1,N,A*19
$IIMWV,149,T,08.7,N,A*16
$IIRMC,100852,A,5450.265,N,00931.379,E,00.2,342,030813,,,A*4A
$IIVHW,,,062,M,00.0,N,,*60
$IIVLW,01359,N,000.0,N*5D
$IIVWR,147,R,09.7,N,,,,*6D
$IIDPT,002.6,-1.0,*44
$IIGLL,5450.265,N,00931.379,E,100853,A,A*5C
$IIHDG,062,,,,*53
$IIMTW,+20.5,C*3F
$IIMWV,147,R,09.7,N,A*1F
$IIMWV,147,T,09.1,N,A*1F
$GPRMB,A,0.00,R,003,004,4917.24,N,12309.57,W,001.3,052.5,000.5,V*3E
$GPRMB,A,0.03,A,5450.265,N,00931.379,E,00.2,342,030813,,,A*22
$IIVHW,,,062,M,00.0,N,,*60
$IIVLW,01359,N,000.0,N*5D
$IIVWR,146,R,09.8,N,,,,*63
$IIDPT,002.6,-1.0,*44
$IIGLL,5450.265,N,00931.379,E,100853,A,A*5C
$IIHDG,062,,,,*53
$IIMTW,+20.5,C*3F
$IIMWV,146,R,09.8,N,A*11
$IIMWV,147,T,09.7,N,A*19
$IIRMC,100853,A,5450.265,N,00931.379,E,00.2,342,030813,,,A*4B
$IIVHW,,,062,M,00.0,N,,*60
$IIVLW,01359,N,000.0,N*5D
$IIVWR,144,R,09.9,N,,,,*60
$IIDPT,002.6,-1.0,*44
$IIGLL,5450.265,N,00931.380,E,100855,A,A*5C
$IIHDG,062,,,,*53
$IIMTW,+20.5,C*3F
$IIMWV,144,R,09.9,N,A*12
$IIMWV,146,T,09.8,N,A*17
$IIRMC,100856,A,5450.265,N,00931.380,E,00.2,342,030813,,,A*48
$IIVHW,,,061,M,00.0,N,,*63
$IIVLW,01359,N,000.0,N*5D
$IIVWR,145,R,09.9,N,,,,*61
$IIDPT,002.6,-1.0,*44
$GPRMB,A,1.00,R,003,004,4917.24,N,12309.57,W,001.3,052.5,000.5,V*3F
$GPRMB,A,1.00,R,003,004,4917.,100856,A,A*42
$IIHDG,061,,,,*50
$IIMTW,+20.5,C*3F
$IIMWV,145,R,09.9,N,A*13
$IIMWV,145,T,09.9,N,A*15
$IIRMC,100857,A,5450.265,N,00931.380,E,00.2,342,030813,,,A*49
$IIVHW,,,061,M,00.0,N,,*63
$IIVLW,01359,N,000.0,N*5D
$IIVWR,146,R,10.2,N,,,,*61
$IIDPT,002.6,-1.0,*44
$IIGLL,5450.265,N,00931.380,E,100857,A,A*5E
$IIHDG,061,,,,*50
$IIMTW,+20.5,C*3F
$IIMWV,145,R,10.4,N,A*16
$IIMWV,146,T,10.2,N,A*15
$IIRMC,100858,A,5450.266,N,00931.380,E,00.2,342,030813,,,A*45
$IIVHW,,,061,M,00.0,N,,*63
$IIVLW,01359,N,000.0,N*5D
$IIVWR,145,R,10.4,N,,,,*64
$IIDPT,002.6,-1.0,*44
$IIGLL,5450.266,N,00931.380,E,100858,A,A*52
$IIHDG,061,,,,*50
$IIMTW,+20.5,C*3F
$IIMWV,146,R,10.4,N,A*15
$IIMWV,145,T,10.4,N,A*10
$IIRMC,100859,A,5450.266,N,00931.380,E,00.2,342,030813,,,A*44
$IIVHW,,,062,M,00.0,N,,*60
$IIVLW,01359,N,000.0,N*5D
$GPRMB,A,2.00,R,003,004,4917.24,N,12309.57,W,001.3,052.5,000.5,V*3C
$GPRMB,A46,R,10.4,N,,,,*0E
$IIDPT,002.6,-1.0,*44
$IIGLL,5450.266,N,00931.380,E,100859,A,A*53
$IIHDG,062,,,,*53
$IIMTW,+20.5,C*3F
$IIMWV,146,R,10.4,N,A*15
$IIMWV,146,T,10.4,N,A*13
$IIRMC,100900,A,5450.266,N,00931.380,E,00.2,342,030813,,,A*49
$IIVHW,,,062,M,00.0,N,,*60
$IIVLW,01359,N,000.0,N*5D
$IIVWR,146,R,10.4,N,,,,*67
$IIDPT,002.6,-1.0,*44
$IIGLL,5450.266,N,00931.381,E,100901,A,A*5E
$IIHDG,063,,,,*52
$IIMTW,+20.5,C*3F
$IIMWV,147,R,10.5,N,A*15
$IIMWV,146,T,10.4,N,A*13
$IIRMC,100901,A,5450.266,N,00931.381,E,00.2,342,030813,,,A*49
$IIVHW,,,063,M,00.0,N,,*61
$IIVLW,01359,N,000.0,N*5D
$IIVWR,147,R,10.5,N,,,,*67
$IIDPT,002.6,-1.0,*44
$IIGLL,5450.266,N,00931.381,E,100902,A,A*5D
$IIHDG,063,,,,*52
$IIMTW,+20.5,C*3F
$IIMWV,147,R,10.3,N,A*13
$IIMWV,147,T,10.5,N,A*13
$GPRMB,A,3.00,R,003,004,4917.24,N,12309.57,W,001.3,052.5,000.5,V*3D
$GPRMB,A,3.00,R,003,004,4917.24,N,12309.0.2,342,030813,,,A*44
$IIVHW,,,063,M,00.0,N,,*61
$IIVLW,01359,N,000.0,N*5D
$IIVWR,147,R,10.3,N,,,,*61
$IIDPT,002.6,-1.0,*44
$IIGLL,5450.266,N,00931.380,E,100903,A,A*5D
$IIHDG,063,,,,*52
$IIMTW,+20.5,C*3F
$IIMWV,147,R,10.3,N,A*13
$IIMWV,147,T,10.3,N,A*15
$IIRMC,100903,A,5450.266,N,00931.380,E,00.2,342,030813,,,A*4A
$IIVHW,,,063,M,00.0,N,,*61
$IIVLW,01359,N,000.0,N*5D
$IIVWR,146,R,10.0,N,,,,*63
$IIDPT,002.6,-1.0,*44
$IIGLL,5450.266,N,00931.380,E,100904,A,A*5A
$IIHDG,063,,,,*52
$IIMTW,+20.5,C*3F
$IIMWV,146,R,10.0,N,A*11
$IIMWV,147,T,10.3,N,A*15
$IIRMC,100904,A,5450.266,N,00931.380,E,00.2,342,030813,,,A*4D
$IIVHW,,,063,M,00.0,N,,*61
$IIVLW,01359,N,000.0,N*5D
$IIVWR,146,R,10.0,N,,,,*63
$IIDPT,002.6,-1.0,*44
$IIGLL,5450.266,N,00931.380,E,100905,A,A*5B
$IIHDG,063,,,,*52
$IIMTW,+20.5,C*3F
$GPRMB,A,4.00,R,003,004,4917.24,N,12309.57,W,001.3,052.5,000.5,V*3A
$GPRMB,A,6,R,10.0,N,A*7F
$IIMWV,146,T,10.0,N,A*17
$IIRMC,100906,A,5450.266,N,00931.381,E,00.2,342,030813,,,A*4E
$IIVHW,,,063,M,00.0,N,,*61
$IIVLW,01359,N,000.0,N*5D
$IIVWR,148,R,09.8,N,,,,*6D
$IIDPT,002.6,-1.0,*44
$IIGLL,5450.266,N,00931.381,E,100906,A,A*59
$IIHDG,063,,,,*52
$IIMTW,+20.5,C*3F
$IIMWV,148,R,09.8,N,A*1F
$IIMWV,148,T,09.8,N,A*19
$IIRMC,100907,A,5450.266,N,00931.381,E,00.2,342,030813,,,A*4F
$IIVHW,,,063,M,00.0,N,,*61
$IIVLW,01359,N,000.0,N*5D
$IIVWR,151,R,09.5,N,,,,*68
$IIDPT,002.6,-1.0,*44
$IIGLL,5450.266,N,00931.381,E,100907,A,A*58
$IIHDG,063,,,,*52
$IIMTW,+20.5,C*3F
$IIMWV,153,R,09.2,N,A*1F
$IIMWV,151,T,09.5,N,A*1C
$IIRMC,100907,A,5450.266,N,00931.381,E,00.2,342,030813,,,A*4F
$IIVHW,,,064,M,00.0,N,,*66
$IIVLW,01359,N,000.0,N*5D
$IIVWR,153,R,09.2,N,,,,*6D
$GPRMB,A,5.00,R,003,004,4917.24,N,12309.57,W,001.3,052.5,000.5,V*3B
$IIDPT,002.6,-1.0,*44
$IIGLL,5450.266,N,00931.381,E,100907,A,A*58
$IIHDG,064,,,,*55
$IIMTW,+20.5,C*3F
$IIMWV,152,R,08.8,N,A*15
$IIMWV,153,T,09.2,N,A*19
$IIRMC,100909,A,5450.266,N,00931.381,E,00.2,342,030813,,,A*41
$IIVHW,,,064,M,00.0,N,,*66
$IIVLW,01359,N,000.0,N*5D
$IIVWR,152,R,08.8,N,,,,*67
$IIDPT,002.6,-1.0,*44
$IIGLL,5450.266,N,00931.381,E,100909,A,A*56
$IIHDG,064,,,,*55
$IIMTW,+20.5,C*3F
$IIMWV,151,R,08.3,N,A*1D
$IIMWV,152,T,08.8,N,A*13
$IIRMC,100910,A,5450.266,N,00931.381,E,00.2,342,030813,,,A*49
$IIVHW,,,064,M,00.0,N,,*66
$IIVLW,01359,N,000.0,N*5D
$IIVWR,151,R,08.3,N,,,,*6F
$IIDPT,002.6,-1.0,*44
$IIGLL,5450.266,N,00931.381,E,100911,A,A*5F
$IIHDG,064,,,,*55
$IIMTW,+20.5,C*3F
$IIMWV,152,R,07.8,N,A*1A
$IIMWV,151,T,08.3,N,A*1B
$IIRMC,100911,A,5450.266,N,00931.381,E,00.2,342,030813,,,A*48
$GPRMB,A,6.00,R,003,004,4917.24,N,12309.57,W,001.3,052.5,000.5,V*38
$IIVHW,,,064,M,00.0,N,,*66
$IIVLW,01359,N,000.0,N*5D
$IIVWR,152,R,07.8,N,,,,*68
$IIDPT,002.6,-1.0,*44
$IIGLL,5450.266,N,00931.381,E,100912,A,A*5C
$IIHDG,063,,,,*52
$IIMTW,+20.5,C*3F
$IIMWV,154,R,07.3,N,A*17
$IIMWV,152,T,07.8,N,A*1C
$IIRMC,100912,A,5450.266,N,00931.381,E,00.2,342,030813,,,A*4B
$IIVHW,,,063,M,00.0,N,,*61
$IIVLW,01359,N,000.0,N*5D
$IIVWR,154,R,06.9,N,,,,*6E
$IIDPT,002.6,-1.0,*44
$IIGLL,5450.266,N,00931.381,E,100913,A,A*5D
$IIHDG,063,,,,*52
$IIMTW,+20.5,C*3F
$IIMWV,154,R,06.9,N,A*1C
$IIMWV,154,T,07.3,N,A*11
$IIRMC,100913,A,5450.266,N,00931.381,E,00.2,342,030813,,,A*4A
$IIVHW,,,063,M,00.0,N,,*61
$IIVLW,01359,N,000.0,N*5D
$IIVWR,156,R,06.7,N,,,,*62
$IIDPT,002.6,-1.0,*44
$IIGLL,5450.266,N,00931.381,E,100914,A,A*5A
$IIHDG,062,,,,*53
$IIMTW,+20.5,C*3F
$IIMWV,156,R,06.7,N,A*10
$GPRMB,A,7.00,R,003,004,4917.24,N,12309.57,W,001.3,052.5,000.5,V*39
$GPRMB,A,7.T,06.9,N,A*74
$IIRMC,100914,A,5450.266,N,00931.381,E,00.2,342,030813,,,A*4D
$IIVHW,,,061,M,00.0,N,,*63
$IIVLW,01359,N,000.0,N*5D
$IIVWR,156,R,06.5,N,,,,*60
$IIDPT,002.6,-1.0,*44
$IIGLL,5450.267,N,00931.381,E,100915,A,A*5A
$IIHDG,061,,,,*50
$IIMTW,+20.5,C*3F
$IIMWV,156,R,06.5,N,A*12
$IIMWV,156,T,06.7,N,A*16
$IIRMC,100916,A,5450.267,N,00931.381,E,00.2,342,030813,,,A*4E
$IIVHW,,,061,M,00.0,N,,*63
$IIVLW,01359,N,000.0,N*5D
$IIVWR,162,R,06.4,N,,,,*66
$IIDPT,002.6,-1.0,*44
$IIGLL,5450.267,N,00931.381,E,100916,A,A*59
$IIHDG,061,,,,*50
$IIMTW,+20.5,C*3F
$IIMWV,162,R,06.4,N,A*14
$IIMWV,162,T,06.4,N,A*12
$IIRMC,100917,A,5450.267,N,00931.380,E,00.2,342,030813,,,A*4E
$IIVHW,,,061,M,00.0,N,,*63
$IIVLW,01359,N,000.0,N*5D
$IIVWR,161,R,06.4,N,,,,*65
$IIDPT,002.6,-1.0,*44
$GPRMB,A,8.00,R,003,004,4917.24,N,12309.57,W,001.3,052.5,000.5,V*36
$GPGLL,5450.267,N,00931.380,E,100917,A,A*4E
$IIHDG,061,,,,*50
$IIMTW,+20.5,C*3F
$IIMWV,161,R,06.3,N,A*10
$IIMWV,161,T,06.4,N,A*11
$IIRMC,100918,A,5450.267,N,00931.380,E,00.2,342,030813,,,A*41
$IIVHW,,,061,M,00.0,N,,*63
$IIVLW,01359,N,000.0,N*5D
$IIVWR,161,R,06.3,N,,,,*62
$IIDPT,002.6,-1.0,*44
$IIGLL,5450.267,N,00931.380,E,100918,A,A*56
$IIHDG,061,,,,*50
$IIMTW,+20.5,C*3F
$IIMWV,156,R,06.3,N,A*14
$IIMWV,161,T,06.3,N,A*16
$IIRMC,100919,A,5450.267,N,00931.380,E,00.2,342,030813,,,A*40
$IIVHW,,,061,M,00.0,N,,*63
$IIVLW,01359,N,000.0,N*5D
$IIVWR,156,R,06.3,N,,,,*66
$IIDPT,002.6,-1.0,*44
$IIGLL,5450.267,N,00931.380,E,100919,A,A*57
$IIHDG,062,,,,*53
$IIMTW,+20.5,C*3F
$IIMWV,006,R,00.0,N,A*15
$IIMWV,156,T,06.3,N,A*12
$IIRMC,100920,A,5450.267,N,00931.380,E,00.2,342,030813,,,A*4A
$IIVHW,,,062,M,00.0,N,,*60
$GPRMB,A,9.00,R,003,004,4917.24,N,12309.57,W,001.3,052.5,000.5,V*37
$GPRMB,A,9.00,R,00.0,N*32
$IIVWR,006,R,00.0,N,,,,*67
$IIDPT,002.6,-1.0,*44
$IIGLL,5450.267,N,00931.380,E,100921,A,A*5C
$IIHDG,061,,,,*50
$IIMTW,+20.5,C*3F
$IIMWV,147,R,06.6,N,A*11
$IIMWV,006,T,00.0,N,A*13
$IIRMC,100921,A,5450.267,N,00931.380,E,00.2,342,030813,,,A*4B
$IIVHW,,,061,M,00.0,N,,*63
$IIVLW,01359,N,000.0,N*5D
$IIVWR,147,R,06.6,N,,,,*63
$IIDPT,002.6,-1.0,*44
$IIGLL,5450.267,N,00931.380,E,100922,A,A*5F
$IIHDG,061,,,,*50
$IIMTW,+20.5,C*3F
$IIMWV,148,R,06.8,N,A*10
$IIMWV,147,T,06.6,N,A*17
$IIRMC,100922,A,5450.267,N,00931.380,E,00.2,342,030813,,,A*48
$IIVHW,,,061,M,00.0,N,,*63
$IIVLW,01359,N,000.0,N*5D
$IIVWR,147,R,07.0,N,,,,*64
$IIDPT,002.6,-1.0,*44
$IIGLL,5450.267,N,00931.380,E,100923,A,A*5E
$IIHDG,060,,,,*51
$IIMTW,+20.5,C*3F
$IIMWV,147,R,07.0,N,A*16
$IIMWV,148,T,06.8,N,A*16
$GPRMB,A,0.00,R,003,004,4917.24,N,12309.57,W,001.3,052.5,000.5,V*3E
$GPRMB,A,0.03,A,5450.267,N,00931.380,E,00.2,342,030813,,,A*26
$IIVHW,,,060,M,00.0,N,,*62
$IIVLW,01359,N,000.0,N*5D
$IIVWR,148,R,07.1,N,,,,*6A
$IIDPT,002.6,-1.0,*44
$IIGLL,5450.267,N,00931.380,E,100924,A,A*59
$IIHDG,060,,,,*51
$IIMTW,+20.5,C*3F
$IIMWV,148,R,07.1,N,A*18
$IIMWV,147,T,07.0,N,A*10
$IIRMC,100924,A,5450.267,N,00931.380,E,00.2,342,030813,,,A*4E
$IIVHW,,,061,M,00.0,N,,*63
$IIVLW,01359,N,000.0,N*5D
$IIVWR,146,R,07.2,N,,,,*67
$IIDPT,002.6,-1.0,*44
$IIGLL,5450.267,N,00931.380,E,100925,A,A*58
$IIHDG,061,,,,*50
$IIMTW,+21.0,C*3B
$IIMWV,146,R,07.2,N,A*15
$IIMWV,148,T,07.1,N,A*1E
$IIRMC,100926,A,5450.267,N,00931.380,E,00.2,332,030813,,,A*4B
$IIVHW,,,061,M,00.0,N,,*63
$IIVLW,01359,N,000.0,N*5D
$IIVWR,143,R,07.3,N,,,,*63
$IIDPT,002.6,-1.0,*44
$GPRMB,A,1.00,R,003,004,4917.24,N,12309.57,W,001.3,052.5,000.5,V*3F
$GPRMB,A,1.00,R,003,004,4917E,100926,A,A*2F
$IIHDG,061,,,,*50
$IIMTW,+21.0,C*3B
$IIMWV,143,R,07.3,N,A*11
$IIMWV,143,T,07.3,N,A*17
$IIRMC,100927,A,5450.267,N,00931.379,E,00.5,323,030813,,,A*4B
$IIVHW,,,060,M,00.0,N,,*62
$IIVLW,01359,N,000.0,N*5D
$IIVWR,142,R,07.2,N,,,,*63
$IIDPT,002.6,-1.0,*44
$IIGLL,5450.267,N,00931.379,E,100927,A,A*5C
$IIHDG,060,,,,*51
$IIMTW,+21.0,C*3B
$IIMWV,145,R,07.2,N,A*16
$IIMWV,142,T,07.2,N,A*17
$IIRMC,100928,A,5450.267,N,00931.379,E,00.2,315,030813,,,A*46
$IIVHW,,,060,M,00.0,N,,*62
$IIVLW,01359,N,000.0,N*5D
$IIVWR,145,R,07.2,N,,,,*64
$IIDPT,002.6,-1.0,*44
$IIGLL,5450.267,N,00931.379,E,100928,A,A*53
$IIHDG,060,,,,*51
$IIMTW,+21.0,C*3B
$IIMWV,145,R,07.5,N,A*11
$IIMWV,145,T,07.2,N,A*10
$IIRMC,100929,A,5450.267,N,00931.379,E,00.2,315,030813,,,A*47
$IIVHW,,,059,M,00.0,N,,*68
$IIVLW,01359,N,000.0,N*5D
$GPRMB,A,2.00,R,003,004,4917.24,N,12309.57,W,001.3,052.5,000.5,V*3C
$GPRMB,A45,R,07.5,N,,,,*0A
$IIDPT,002.6,-1.0,*44
$IIGLL,5450.267,N,00931.379,E,100929,A,A*52
$IIHDG,059,,,,*5B
$IIMTW,+21.0,C*3B
$IIMWV,142,R,07.5,N,A*16
$IIMWV,145,T,07.5,N,A*17
$IIRMC,100929,A,5450.267,N,00931.379,E,00.2,315,030813,,,A*47
$IIVHW,,,059,M,00.0,N,,*68
$IIVLW,01359,N,000.0,N*5D
$IIVWR,142,R,07.5,N,,,,*64
$IIDPT,002.6,-1.0,*44
$IIGLL,5450.267,N,00931.379,E,100929,A,A*52
$IIHDG,059,,,,*5B
$IIMTW,+21.0,C*3B
$IIMWV,141,R,07.3,N,A*13
$IIMWV,142,T,07.5,N,A*10
$IIRMC,100929,A,5450.267,N,00931.379,E,00.2,315,030813,,,A*47
$IIVHW,,,059,M,00.0,N,,*68
$IIVLW,01359,N,000.0,N*5D
$IIVWR,141,R,07.3,N,,,,*61
$IIDPT,002.6,-1.0,*44
$IIGLL,5450.267,N,00931.379,E,100929,A,A*52
$IIHDG,059,,,,*5B
$IIMTW,+21.0,C*3B
$IIMWV,140,R,07.1,N,A*10
$IIMWV,141,T,07.3,N,A*15
$GPRMB,A,3.00,R,003,004,4917.24,N,12309.57,W,001.3,052.5,000.5,V*3D
$GPRMB,A,3.00,R,003,004,4917.24,N,12309.0.2,315,030813,,,A*46
$IIVHW,,,059,M,00.0,N,,*68
$IIVLW,01359,N,000.0,N*5D
$IIVWR,135,R,06.7,N,,,,*67
$IIDPT,002.6,-1.0,*44
$IIGLL,5450.267,N,00931.379,E,100933,A,A*59
$IIHDG,059,,,,*5B
$IIMTW,+21.0,C*3B
$IIMWV,135,R,06.7,N,A*15
$IIMWV,140,T,07.1,N,A*16
$IIRMC,100933,A,5450.267,N,00931.379,E,00.2,315,030813,,,A*4C
$IIVHW,,,059,M,00.0,N,,*68
$IIVLW,01359,N,000.0,N*5D
$IIVWR,134,R,06.6,N,,,,*67
$IIDPT,002.6,-1.0,*44
$IIGLL,5450.267,N,00931.379,E,100933,A,A*59
$IIHDG,060,,,,*51
$IIMTW,+21.0,C*3B
$IIMWV,134,R,06.6,N,A*15
$IIMWV,135,T,06.7,N,A*13
$IIRMC,100933,A,5450.267,N,00931.379,E,00.2,315,030813,,,A*4C
$IIVHW,,,060,M,00.0,N,,*62
$IIVLW,01359,N,000.0,N*5D
$IIVWR,131,R,06.1,N,,,,*65
$IIDPT,002.6,-1.0,*44
$IIGLL,5450.267,N,00931.379,E,100933,A,A*59
$IIHDG,060,,,,*51
$IIMTW,+21.0,C*3B
$GPRMB,A,4.00,R,003,004,4917.24,N,12309.57,W,001.3,052.5,000.5,V*3A
$GPRMB,A,1,R,06.1,N,A*7E
$IIMWV,134,T,06.6,N,A*13
$IIRMC,100936,A,5450.267,N,00931.379,E,00.2,315,030813,,,A*49
$IIVHW,,,060,M,00.0,N,,*62
$IIVLW,01359,N,000.0,N*5D
$IIVWR,129,R,05.7,N,,,,*69
$IIDPT,002.6,-1.0,*44
$IIGLL,5450.267,N,00931.379,E,100936,A,A*5C
$IIHDG,060,,,,*51
$IIMTW,+20.5,C*3F
$IIMWV,129,R,05.7,N,A*1B
$IIMWV,129,T,05.7,N,A*1D
$IIRMC,100937,A,5450.267,N,00931.379,E,00.2,315,030813,,,A*48
$IIVHW,,,059,M,00.0,N,,*68
$IIVLW,01359,N,000.0,N*5D
$IIVWR,129,R,05.4,N,,,,*6A
$IIDPT,002.6,-1.0,*44
$IIGLL,5450.267,N,00931.379,E,100937,A,A*5D
$IIHDG,059,,,,*5B
$IIMTW,+20.5,C*3F
$IIMWV,131,R,05.4,N,A*11
$IIMWV,129,T,05.4,N,A*1E
$IIRMC,100938,A,5450.266,N,00931.379,E,00.2,315,030813,,,A*46
$IIVHW,,,060,M,00.0,N,,*62
$IIVLW,01359,N,000.0,N*5D
$IIVWR,131,R,05.4,N,,,,*63
$GPRMB,A,5.00,R,003,004,4917.24,N,12309.57,W,001.3,052.5,000.5,V*3B
$IIDPT,002.6,-1.0,*44
$IIGLL,5450.266,N,00931.379,E,100938,A,A*53
$IIHDG,060,,,,*51
$IIMTW,+20.5,C*3F
$IIMWV,132,R,05.6,N,A*10
$IIMWV,131,T,05.4,N,A*17
$IIRMC,100939,A,5450.266,N,00931.379,E,00.2,315,030813,,,A*47
$IIVHW,,,060,M,00.0,N,,*62
$IIVLW,01359,N,000.0,N*5D
$IIVWR,132,R,05.6,N,,,,*62
$IIDPT,002.6,-1.0,*44
$IIGLL,5450.266,N,00931.379,E,100939,A,A*52
$IIHDG,060,,,,*51
$IIMTW,+20.5,C*3F
$IIMWV,134,R,05.7,N,A*17
$IIMWV,132,T,05.6,N,A*16
$IIRMC,100939,A,5450.266,N,00931.379,E,00.2,315,030813,,,A*47
$IIVHW,,,060,M,00.0,N,,*62
$IIVLW,01359,N,000.0,N*5D
$IIVWR,134,R,05.7,N,,,,*65
$IIDPT,002.6,-1.0,*44
$IIGLL,5450.266,N,00931.378,E,100941,A,A*5C
$IIHDG,060,,,,*51
$IIMTW,+20.5,C*3F
$IIMWV,139,R,06.0,N,A*1E
$IIMWV,134,T,05.7,N,A*11
$IIRMC,100941,A,5450.266,N,00931.378,E,00.2,315,030813,,,A*49
$GPRMB,A,6.00,R,003,004,4917.24,N,12309.57,W,001.3,052.5,000.5,V*38
$IIVHW,,,060,M,00.0,N,,*62
$IIVLW,01359,N,000.0,N*5D
$IIVWR,139,R,06.0,N,,,,*6C
$IIDPT,002.6,-1.0,*44
$IIGLL,5450.266,N,00931.378,E,100942,A,A*5F
$IIHDG,059,,,,*5B
$IIMTW,+21.0,C*3B
$IIMWV,144,R,06.4,N,A*10
$IIMWV,139,T,06.0,N,A*18
$IIRMC,100942,A,5450.266,N,00931.378,E,00.2,318,030813,,,A*47
$IIVHW,,,059,M,00.0,N,,*68
$IIVLW,01359,N,000.0,N*5D
$IIVWR,147,R,07.0,N,,,,*64
$IIDPT,002.6,-1.0,*44
$IIGLL,5450.266,N,00931.378,E,100943,A,A*5E
$IIHDG,059,,,,*5B
$IIMTW,+21.0,C*3B
$IIMWV,147,R,07.0,N,A*16
$IIMWV,144,T,06.4,N,A*16
$IIRMC,100943,A,5450.266,N,00931.378,E,00.2,318,030813,,,A*46
$IIVHW,,,059,M,00.0,N,,*68
$IIVLW,01359,N,000.0,N*5D
$IIVWR,149,R,07.2,N,,,,*68
$IIDPT,002.6,-1.0,*44
$IIGLL,5450.266,N,00931.378,E,100944,A,A*59
$IIHDG,059,,,,*5B
$IIMTW,+21.0,C*3B
$IIMWV,149,R,07.2,N,A*1A
$GPRMB,A,7.00,R,003,004,4917.24,N,12309.57,W,001.3,052.5,000.5,V*39
$GPRMB,A,7,T,07.0,N,A*7E
$IIRMC,100944,A,5450.266,N,00931.378,E,00.3,310,030813,,,A*48
$IIVHW,,,060,M,00.0,N,,*62
$IIVLW,01359,N,000.0,N*5D
$IIVWR,150,R,07.3,N,,,,*61
$IIDPT,002.6,-1.0,*44
$IIGLL,5450.266,N,00931.378,E,100945,A,A*58
$IIHDG,060,,,,*51
$IIMTW,+21.0,C*3B
$IIMWV,150,R,07.3,N,A*13
$IIMWV,149,T,07.2,N,A*1C
$IIRMC,100945,A,5450.266,N,00931.378,E,00.3,304,030813,,,A*4C
$IIVHW,,,060,M,00.0,N,,*62
$IIVLW,01359,N,000.0,N*5D
$IIVWR,154,R,07.3,N,,,,*65
$IIDPT,002.6,-1.0,*44
$IIGLL,5450.266,N,00931.378,E,100945,A,A*58
$IIHDG,060,,,,*51
$IIMTW,+21.0,C*3B
$IIMWV,154,R,07.3,N,A*17
$IIMWV,154,T,07.3,N,A*11
$IIRMC,100947,A,5450.265,N,00931.378,E,00.2,299,030813,,,A*49
$IIVHW,,,061,M,00.0,N,,*63
$IIVLW,01359,N,000.0,N*5D
$IIVWR,155,R,07.4,N,,,,*63
$IIDPT,002.6,-1.0,*44
$GPRMB,A,8.00,R,003,004,4917.24,N,12309.57,W,001.3,052.5,000.5,V*36
$GPGLL,5450.265,N,00931.378,E,100947,A,A*4E
$IIHDG,061,,,,*50
$IIMTW,+21.0,C*3B
$IIMWV,155,R,07.4,N,A*11
$IIMWV,155,T,07.4,N,A*17
$IIRMC,100948,A,5450.265,N,00931.378,E,00.3,292,030813,,,A*4C
$IIVHW,,,061,M,00.0,N,,*63
$IIVLW,01359,N,000.0,N*5D
$IIVWR,155,R,07.4,N,,,,*63
$IIDPT,002.4,-1.0,*46
$IIGLL,5450.265,N,00931.378,E,100948,A,A*56
$IIHDG,061,,,,*50
$IIMTW,+21.0,C*3B
$IIMWV,156,R,07.4,N,A*12
$IIMWV,155,T,07.4,N,A*17
$IIRMC,100949,A,5450.265,N,00931.378,E,00.3,292,030813,,,A*4D
$IIVHW,,,061,M,00.0,N,,*63
$IIVLW,01359,N,000.0,N*5D
$IIVWR,156,R,07.4,N,,,,*60
$IIDPT,002.4,-1.0,*46
$IIGLL,5450.265,N,00931.378,E,100949,A,A*57
$IIHDG,061,,,,*50
$IIMTW,+21.0,C*3B
$IIMWV,156,R,07.4,N,A*12
$IIMWV,156,T,07.4,N,A*14
$IIRMC,100950,A,5450.265,N,00931.378,E,00.3,292,030813,,,A*45
$IIVHW,,,061,M,00.0,N,,*63
$GPRMB,A,9.00,R,003,004,4917.24,N,12309.57,W,001.3,052.5,000.5,V*37
$GPRMB,A,9.00,R,00.0,N*32
$IIVWR,156,R,07.4,N,,,,*60
$IIDPT,002.4,-1.0,*46
$IIGLL,5450.265,N,00931.378,E,100951,A,A*5E
$IIHDG,061,,,,*50
$IIMTW,+21.0,C*3B
$IIMWV,159,R,07.2,N,A*1B
$IIMWV,156,T,07.4,N,A*14
$IIRMC,100951,A,5450.265,N,00931.378,E,00.3,292,030813,,,A*44
$IIVHW,,,061,M,00.0,N,,*63
$IIVLW,01359,N,000.0,N*5D
$IIVWR,159,R,07.2,N,,,,*69
$IIDPT,002.4,-1.0,*46
$IIGLL,5450.265,N,00931.378,E,100952,A,A*5D
$IIHDG,061,,,,*50
$IIMTW,+21.0,C*3B
$IIMWV,161,R,06.9,N,A*1A
$IIMWV,159,T,07.2,N,A*1D
$IIRMC,100952,A,5450.265,N,00931.378,E,00.3,292,030813,,,A*47
$IIVHW,,,061,M,00.0,N,,*63
$IIVLW,01359,N,000.0,N*5D
$IIVWR,159,R,06.8,N,,,,*62
$IIDPT,002.4,-1.0,*46
$IIGLL,5450.265,N,00931.378,E,100953,A,A*5C
$IIHDG,061,,,,*50
$IIMTW,+21.0,C*3B
$IIMWV,159,R,06.8,N,A*10
$IIMWV,161,T,06.9,N,A*1C
$GPRMB,A,0.00,R,003,004,4917.24,N,12309.57,W,001.3,052.5,000.5,V*3E
$GPRMB,A,0.03,A,5450.265,N,00931.378,E,00.3,292,030813,,,A*2E
$IIVHW,,,061,M,00.0,N,,*63
$IIVLW,01359,N,000.0,N*5D
$IIVWR,161,R,06.7,N,,,,*66
$IIDPT,002.4,-1.0,*46
$IIGLL,5450.265,N,00931.379,E,100954,A,A*5A
$IIHDG,062,,,,*53
$IIMTW,+21.0,C*3B
$IIMWV,161,R,06.7,N,A*14
$IIMWV,159,T,06.8,N,A*16
$IIRMC,100954,A,5450.265,N,00931.379,E,00.2,282,030813,,,A*40
$IIVHW,,,061,M,00.0,N,,*63
$IIVLW,01359,N,000.0,N*5D
$IIVWR,006,R,00.0,N,,,,*67
$IIDPT,002.4,-1.0,*46
$IIGLL,5450.265,N,00931.379,E,100955,A,A*5B
$IIHDG,061,,,,*50
$IIMTW,+21.0,C*3B
$IIMWV,006,R,00.0,N,A*15
$IIMWV,161,T,06.7,N,A*12
$IIRMC,100956,A,5450.265,N,00931.379,E,00.2,282,030813,,,A*42
$IIVHW,,,061,M,00.0,N,,*63
$IIVLW,01359,N,000.0,N*5D
$IIVWR,167,R,06.6,N,,,,*61
$IIDPT,002.4,-1.0,*46
$GPRMB,A,1.00,R,003,004,4917.24,N,12309.57,W,001.3,052.5,000.5,V*3F
$GPRMB,A,1.00,R,003,004,4917.,100956,A,A*43
$IIHDG,061,,,,*50
$IIMTW,+21.0,C*3B
$IIMWV,167,R,06.6,N,A*13
$IIMWV,167,T,06.6,N,A*15
$IIRMC,100957,A,5450.265,N,00931.379,E,00.2,282,030813,,,A*43
$IIVHW,,,061,M,00.0,N,,*63
$IIVLW,01359,N,000.0,N*5D
$IIVWR,171,R,06.8,N,,,,*68
$IIDPT,002.4,-1.0,*46
$IIGLL,5450.265,N,00931.379,E,100957,A,A*59
$IIHDG,061,,,,*50
$IIMTW,+21.0,C*3B
$IIMWV,172,R,06.5,N,A*14
$IIMWV,171,T,06.8,N,A*1C
$IIRMC,100958,A,5450.265,N,00931.379,E,00.2,282,030813,,,A*4C
$IIVHW,,,060,M,00.0,N,,*62
$IIVLW,01359,N,000.0,N*5D
$IIVWR,172,R,06.5,N,,,,*66
$IIDPT,002.4,-1.0,*46
$IIGLL,5450.265,N,00931.379,E,100958,A,A*56
$IIHDG,060,,,,*51
$GPRMB,A,2.00,R,003,004,4917.24,N,12309.57,W,001.3,052.5,000.5,V*3C
$IIMTW,+21.0,C*3B
$IIMWV,172,R,06.5,N,A*14
$IIMWV,172,T,06.5,N,A*12
$IIRMC,100959,A,5450.265,N,00931.379,E,00.3,288,030813,,,A*46
$IIVHW,,,061,M,00.0,N,,*63
$IIVLW,01359,N,000.0,N*5D
$IIVWR,172,R,06.5,N,,,,*66
$IIDPT,002.4,-1.0,*46
$IIGLL,5450.265,N,00931.379,E,100959,A,A*57
$IIHDG,062,,,,*53
$IIMTW,+21.0,C*3B
$IIMWV,171,R,06.3,N,A*11
$IIMWV,171,T,06.2,N,A*16
$IIRMC,101001,A,5450.265,N,00931.378,E,00.3,288,030813,,,A*42
$IIVHW,,,062,M,00.0,N,,*60
$IIVLW,01359,N,000.0,N*5D
$IIVWR,171,R,06.3,N,,,,*63
$IIDPT,002.4,-1.0,*46
$IIGLL,5450.265,N,00931.378,E,101002,A,A*50
$IIHDG,061,,,,*50
$IIMTW,+21.0,C*3B
$IIMWV,167,R,06.3,N,A*16
$IIMWV,171,T,06.3,N,A*17
$IIRMC,101002,A,5450.265,N,00931.378,E,00.3,288,030813,,,A*41
$GPRMB,A,3.00,R,003,004,4917.24,N,12309.57,W,001.3,052.5,000.5,V*3D
$IIVHW,,,061,M,00.0,N,,*63
$IIVLW,01359,N,000.0,N*5D
$IIVWR,167,R,06.3,N,,,,*64
$IIDPT,002.4,-1.0,*46
$IIGLL,5450.265,N,00931.378,E,101003,A,A*51
$IIHDG,061,,,,*50
$IIMTW,+21.0,C*3B
$IIMWV,166,R,06.5,N,A*11
$IIMWV,167,T,06.3,N,A*10
$IIRMC,101003,A,5450.265,N,00931.378,E,00.3,288,030813,,,A*40
$IIVHW,,,061,M,00.0,N,,*63
$IIVLW,01359,N,000.0,N*5D
$IIVWR,162,R,06.6,N,,,,*64
$IIDPT,002.4,-1.0,*46
$IIGLL,5450.265,N,00931.378,E,101004,A,A*56
$IIHDG,061,,,,*50
$IIMTW,+21.0,C*3B
$IIMWV,162,R,06.6,N,A*16
$IIMWV,166,T,06.5,N,A*17
$IIRMC,101004,A,5450.265,N,00931.378,E,00.3,288,030813,,,A*47
$IIVHW,,,061,M,00.0,N,,*63
$IIVLW,01359,N,000.0,N*5D
$IIVWR,161,R,06.8,N,,,,*69
$IIDPT,002.4,-1.0,*46
$IIGLL,5450.265,N,00931.378,E,101005,A,A*57
$IIHDG,059,,,,*5B
$IIMTW,+21.0,C*3B
$IIMWV,161,R,06.8,N,A*1B
$GPRMB,A,4.00,R,003,004,4917.24,N,12309.57,W,001.3,052.5,000.5,V*3A
$GPRMB,A,4,T,06.6,N,A*7A
$IIRMC,101005,A,5450.265,N,00931.378,E,00.2,292,030813,,,A*4C
$IIVHW,,,059,M,00.0,N,,*68
$IIVLW,01359,N,000.0,N*5D
$IIVWR,165,R,06.9,N,,,,*6C
$IIDPT,002.4,-1.0,*46
$IIGLL,5450.265,N,00931.378,E,101006,A,A*54
$IIHDG,059,,,,*5B
$IIMTW,+21.0,C*3B
$IIMWV,165,R,06.9,N,A*1E
$IIMWV,161,T,06.8,N,A*1D
$IIRMC,101007,A,5450.265,N,00931.378,E,00.2,292,030813,,,A*4E
$IIVHW,,,060,M,00.0,N,,*62
$IIVLW,01359,N,000.0,N*5D
$IIVWR,166,R,07.1,N,,,,*66
$IIDPT,002.4,-1.0,*46
$IIGLL,5450.265,N,00931.378,E,101007,A,A*55
$IIHDG,060,,,,*51
$IIMTW,+21.0,C*3B
$IIMWV,166,R,07.1,N,A*14
$IIMWV,166,T,07.1,N,A*12
$IIRMC,101008,A,5450.265,N,00931.378,E,00.2,292,030813,,,A*41
$IIVHW,,,061,M,00.0,N,,*63
$IIVLW,01359,N,000.0,N*5D
$IIVWR,163,R,07.2,N,,,,*60
$IIDPT,002.4,-1.0,*46
$GPRMB,A,5.00,R,003,004,4917.24,N,12309.57,W,001.3,052.5,000.5,V*3B
$GIGLL,5450.265,N,00931.378,E,101008,A,A*54
$IIHDG,061,,,,*50
$IIMTW,+21.0,C*3B
$IIMWV,162,R,07.2,N,A*13
$IIMWV,163,T,07.2,N,A*14
$IIRMC,101008,A,5450.265,N,00931.378,E,00.2,292,030813,,,A*41
$IIVHW,,,061,M,00.0,N,,*63
$IIVLW,01359,N,000.0,N*5D
$IIVWR,162,R,07.2,N,,,,*61
$IIDPT,002.4,-1.0,*46
$IIGLL,5450.265,N,00931.378,E,101008,A,A*5A
$IIHDG,061,,,,*50
$IIMTW,+21.0,C*3B
$IIMWV,159,R,07.1,N,A*18
$IIMWV,162,T,07.2,N,A*15
$IIRMC,101010,A,5450.265,N,00931.378,E,00.2,292,030813,,,A*48
$IIVHW,,,060,M,00.0,N,,*62
$IIVLW,01359,N,000.0,N*5D
$IIVWR,159,R,07.1,N,,,,*6A
$IIDPT,002.4,-1.0,*46
$IIGLL,5450.265,N,00931.378,E,101010,A,A*53
$IIHDG,059,,,,*5B
$IIMTW,+21.0,C*3B
$IIMWV,155,R,06.7,N,A*13
$IIMWV,159,T,07.1,N,A*1E
$IIRMC,101011,A,5450.265,N,00931.378,E,00.2,292,030813,,,A*49
$IIVHW,,,059,M,00.0,N,,*68
$GPRMB,A,6.00,R,003,004,4917.24,N,12309.57,W,001.3,052.5,000.5,V*38
$GPRMB,A,6.00,R,00.0,N*3D
$IIVWR,155,R,06.7,N,,,,*61
$IIDPT,002.4,-1.0,*46
$IIGLL,5450.265,N,00931.378,E,101012,A,A*51
$IIHDG,061,,,,*50
$IIMTW,+21.0,C*3B
$IIMWV,153,R,06.7,N,A*15
$IIMWV,155,T,06.7,N,A*15
$IIRMC,101012,A,5450.265,N,00931.378,E,00.2,292,030813,,,A*4A
$IIVHW,,,061,M,00.0,N,,*63
$IIVLW,01359,N,000.0,N*5D
$IIVWR,153,R,06.7,N,,,,*67
$IIDPT,002.4,-1.0,*46
$IIGLL,5450.265,N,00931.378,E,101013,A,A*50
$IIHDG,061,,,,*50
$IIMTW,+21.0,C*3B
$IIMWV,149,R,06.5,N,A*1C
$IIMWV,153,T,06.7,N,A*13
$IIRMC,101013,A,5450.265,N,00931.378,E,00.2,292,030813,,,A*4B
$IIVHW,,,061,M,00.0,N,,*63
$IIVLW,01359,N,000.0,N*5D
$IIVWR,143,R,06.3,N,,,,*62
$IIDPT,002.4,-1.0,*46
$IIGLL,5450.265,N,00931.378,E,101014,A,A*57
$IIHDG,059,,,,*5B
$IIMTW,+21.0,C*3B
$IIMWV,143,R,06.3,N,A*10
$IIMWV,149,T,06.5,N,A*1A
$GPRMB,A,7.00,R,003,004,4917.24,N,12309.57,W,001.3,052.5,000.5,V*39
$GPRMB,A,7.04,A,5450.265,N,00931.378,E,00.2,292,030813,,,A*2F
$IIVHW,,,059,M,00.0,N,,*68
$IIVLW,01359,N,000.0,N*5D
$IIVWR,137,R,06.3,N,,,,*61
$IIDPT,002.4,-1.0,*46
$IIGLL,5450.265,N,00931.378,E,101015,A,A*56
$IIHDG,059,,,,*5B
$IIMTW,+21.0,C*3B
$IIMWV,137,R,06.3,N,A*13
$IIMWV,143,T,06.3,N,A*16
$IIRMC,101015,A,5450.265,N,00931.378,E,00.2,292,030813,,,A*4D
$IIVHW,,,059,M,00.0,N,,*68
$IIVLW,01359,N,000.0,N*5D
$IIVWR,132,R,06.2,N,,,,*65
$IIDPT,002.4,-1.0,*46
$IIGLL,5450.265,N,00931.378,E,101016,A,A*55
$IIHDG,059,,,,*5B
$IIMTW,+21.0,C*3B
$IIMWV,132,R,06.2,N,A*17
$IIMWV,137,T,06.3,N,A*15
$IIRMC,101017,A,5450.265,N,00931.379,E,00.2,292,030813,,,A*4E
$IIVHW,,,059,M,00.0,N,,*68
$IIVLW,01359,N,000.0,N*5D
$IIVWR,129,R,06.0,N,,,,*6D
$IIDPT,002.5,-1.0,*47
$GPRMB,A,8.00,R,003,004,4917.24,N,12309.57,W,001.3,052.5,000.5,V*36
$GPRMB,A,8.00,R,003,004,4917.,101017,A,A*47
$IIHDG,059,,,,*5B
$IIMTW,+21.0,C*3B
$IIMWV,129,R,06.0,N,A*1F
$IIMWV,129,T,06.0,N,A*19
$IIRMC,101018,A,5450.265,N,00931.379,E,00.2,292,030813,,,A*41
$IIVHW,,,059,M,00.0,N,,*68
$IIVLW,01359,N,000.0,N*5D
$IIVWR,129,R,05.8,N,,,,*66
$IIDPT,002.5,-1.0,*47
$IIGLL,5450.265,N,00931.379,E,101018,A,A*5A
$IIHDG,059,,,,*5B
$IIMTW,+21.0,C*3B
$IIMWV,136,R,05.5,N,A*17
$IIMWV,129,T,05.8,N,A*12
$IIRMC,101019,A,5450.265,N,00931.379,E,00.2,292,030813,,,A*40
$IIVHW,,,060,M,00.0,N,,*62
$IIVLW,01359,N,000.0,N*5D
$IIVWR,136,R,05.5,N,,,,*65
$IIDPT,002.5,-1.0,*47
$IIGLL,5450.265,N,00931.379,E,101019,A,A*5B
$IIHDG,060,,,,*51
$IIMTW,+21.0,C*3B
$IIMWV,137,R,06.0,N,A*10
$IIMWV,136,T,05.5,N,A*11
$IIRMC,101020,A,5450.265,N,00931.379,E,00.2,292,030813,,,A*4A
$IIVHW,,,061,M,00.0,N,,*63
$IIVLW,01359,N,000.0,N*5D
$GPRMB,A,9.00,R,003,004,4917.24,N,12309.57,W,001.3,052.5,000.5,V*37
$GPRMB,A,7,R,06.0,N,,,,*14
$IIDPT,002.5,-1.0,*47
$IIGLL,5450.265,N,00931.379,E,101020,A,A*51
$IIHDG,061,,,,*50
$IIMTW,+21.0,C*3B
$IIMWV,139,R,06.4,N,A*1A
$IIMWV,137,T,06.0,N,A*16
$IIRMC,101021,A,5450.266,N,00931.379,E,00.2,292,030813,,,A*48
$IIVHW,,,061,M,00.0,N,,*63
$IIVLW,01359,N,000.0,N*5D
$IIVWR,139,R,06.4,N,,,,*68
$IIDPT,002.5,-1.0,*47
$IIGLL,5450.266,N,00931.379,E,101022,A,A*50
$IIHDG,061,,,,*50
$IIMTW,+21.0,C*3B
$IIMWV,140,R,06.7,N,A*17
$IIMWV,139,T,06.4,N,A*1C
$IIRMC,101022,A,5450.266,N,00931.379,E,00.2,292,030813,,,A*4B
$IIVHW,,,061,M,00.0,N,,*63
$IIVLW,01359,N,000.0,N*5D
$IIVWR,140,R,06.7,N,,,,*65
$IIDPT,002.5,-1.0,*47
$IIGLL,5450.266,N,00931.379,E,101023,A,A*51
$IIHDG,061,,,,*50
$IIMTW,+21.0,C*3B
$IIMWV,144,R,06.7,N,A*13
$IIMWV,140,T,06.7,N,A*11
$GPRMB,A,0.00,R,003,004,4917.24,N,12309.57,W,001.3,052.5,000.5,V*3E
$GPRMB,A,0.00,R,003,004,4917.24,N,12309.5.2,292,030813,,,A*4E
$IIVHW,,,061,M,00.0,N,,*63
$IIVLW,01359,N,000.0,N*5D
$IIVWR,146,R,06.8,N,,,,*6C
$IIDPT,002.5,-1.0,*47
$IIGLL,5450.266,N,00931.379,E,101024,A,A*56
$IIHDG,060,,,,*51
$IIMTW,+21.0,C*3B
$IIMWV,146,R,06.8,N,A*1E
$IIMWV,144,T,06.7,N,A*15
$IIRMC,101024,A,5450.266,N,00931.379,E,00.2,292,030813,,,A*4D
$IIVHW,,,060,M,00.0,N,,*62
$IIVLW,01359,N,000.0,N*5D
$IIVWR,146,R,06.8,N,,,,*6C
$IIDPT,002.5,-1.0,*47
$IIGLL,5450.266,N,00931.379,E,101025,A,A*57
$IIHDG,060,,,,*51
$IIMTW,+21.0,C*3B
$IIMWV,146,R,06.8,N,A*1E
$IIMWV,146,T,06.8,N,A*18
$IIRMC,101025,A,5450.266,N,00931.379,E,00.2,292,030813,,,A*4C
$IIVHW,,,060,M,00.0,N,,*62
$IIVLW,01359,N,000.0,N*5D
$IIVWR,144,R,07.0,N,,,,*67
$IIDPT,002.5,-1.0,*47
$IIGLL,5450.266,N,00931.379,E,101026,A,A*54
$IIHDG,060,,,,*51
$IIMTW,+21.0,C*3B
$GPRMB,A,1.00,R,003,004,4917.24,N,12309.57,W,001.3,052.5,000.5,V*3F
$GPRMB,A,1,R,07.0,N,A*7E
$IIMWV,146,T,06.8,N,A*18
$IIRMC,101027,A,5450.266,N,00931.379,E,00.2,292,030813,,,A*4E
$IIVHW,,,060,M,00.0,N,,*62
$IIVLW,01359,N,000.0,N*5D
$IIVWR,143,R,06.9,N,,,,*68
$IIDPT,002.5,-1.0,*47
$IIGLL,5450.266,N,00931.379,E,101027,A,A*55
$IIHDG,060,,,,*51
$IIMTW,+21.0,C*3B
$IIMWV,143,R,06.9,N,A*1A
$IIMWV,143,T,06.9,N,A*1C
$IIRMC,101028,A,5450.266,N,00931.379,E,00.2,292,030813,,,A*41
$IIVHW,,,062,M,00.0,N,,*60
$IIVLW,01359,N,000.0,N*5D
$IIVWR,143,R,06.5,N,,,,*64
$IIDPT,002.5,-1.0,*47
$IIGLL,5450.266,N,00931.379,E,101028,A,A*5A
$IIHDG,062,,,,*53
$IIMTW,+21.0,C*3B
$IIMWV,144,R,06.5,N,A*11
$IIMWV,143,T,06.5,N,A*10
$IIRMC,101029,A,5450.266,N,00931.379,E,00.2,292,030813,,,A*40
$IIVHW,,,062,M,00.0,N,,*60
$IIVLW,01359,N,000.0,N*5D
$IIVWR,144,R,06.5,N,,,,*63
$GPRMB,A,2.00,R,003,004,4917.24,N,12309.57,W,001.3,052.5,000.5,V*3C
$IIDPT,002.5,-1.0,*47
$IIGLL,5450.266,N,00931.379,E,101029,A,A*5B
$IIHDG,062,,,,*53
$IIMTW,+21.0,C*3B
$IIMWV,147,R,07.0,N,A*16
$IIMWV,144,T,06.5,N,A*17
$IIRMC,101030,A,5450.266,N,00931.378,E,00.2,292,030813,,,A*49
$IIVHW,,,061,M,00.0,N,,*63
$IIVLW,01359,N,000.0,N*5D
$IIVWR,147,R,07.0,N,,,,*64
$IIDPT,002.5,-1.0,*47
$IIGLL,5450.266,N,00931.378,E,101030,A,A*52
$IIHDG,061,,,,*50
$IIMTW,+21.0,C*3B
$IIMWV,147,R,07.2,N,A*14
$IIMWV,147,T,07.0,N,A*10
$IIRMC,101031,A,5450.266,N,00931.378,E,00.2,292,030813,,,A*48
$IIVHW,,,061,M,00.0,N,,*63
$IIVLW,01359,N,000.0,N*5D
$IIVWR,147,R,07.2,N,,,,*66
$IIDPT,002.5,-1.0,*47
$IIGLL,5450.266,N,00931.378,E,101032,A,A*50
$IIHDG,061,,,,*50
$IIMTW,+21.0,C*3B
$IIMWV,146,R,07.6,N,A*11
$IIMWV,147,T,07.2,N,A*12
$IIRMC,101032,A,5450.266,N,00931.378,E,00.2,292,030813,,,A*4B
$GPRMB,A,3.00,R,003,004,4917.24,N,12309.57,W,001.3,052.5,000.5,V*3D
$IIVHW,,,061,M,00.0,N,,*63
$IIVLW,01359,N,000.0,N*5D
$IIVWR,146,R,07.6,N,,,,*63
$IIDPT,002.5,-1.0,*47
$IIGLL,5450.266,N,00931.378,E,101033,A,A*51
$IIHDG,061,,,,*50
$IIMTW,+21.0,C*3B
$IIMWV,147,R,07.8,N,A*1E
$IIMWV,146,T,07.6,N,A*17
$IIRMC,101033,A,5450.266,N,00931.378,E,00.2,292,030813,,,A*4A
$IIVHW,,,061,M,00.0,N,,*63
$IIVLW,01359,N,000.0,N*5D
$IIVWR,149,R,08.0,N,,,,*65
$IIDPT,002.5,-1.0,*47
$IIGLL,5450.266,N,00931.378,E,101033,A,A*51
$IIHDG,060,,,,*51
$IIMTW,+21.0,C*3B
$IIMWV,149,R,08.0,N,A*17
$IIMWV,147,T,07.8,N,A*18
$IIRMC,101033,A,5450.266,N,00931.378,E,00.2,292,030813,,,A*4A
$IIVHW,,,060,M,00.0,N,,*62
$IIVLW,01359,N,000.0,N*5D
$IIVWR,152,R,08.4,N,,,,*6B
$IIDPT,002.5,-1.0,*47
$IIGLL,5450.265,N,00931.378,E,101035,A,A*54
$IIHDG,061,,,,*50
$IIMTW,+21.0,C*3B
$IIMWV,152,R,08.4,N,A*19
$GPRMB,A,4.00,R,003,004,4917.24,N,12309.57,W,001.3,052.5,000.5,V*3A
$GPRMB,A,4.T,08.0,N,A*70
$IIRMC,101035,A,5450.265,N,00931.378,E,00.2,292,030813,,,A*4F
$IIVHW,,,060,M,00.0,N,,*62
$IIVLW,01359,N,000.0,N*5D
$IIVWR,159,R,08.2,N,,,,*66
$IIDPT,002.5,-1.0,*47
$IIGLL,5450.265,N,00931.378,E,101036,A,A*57
$IIHDG,060,,,,*51
$IIMTW,+21.0,C*3B
$IIMWV,159,R,08.2,N,A*14
$IIMWV,152,T,08.4,N,A*1F
$IIRMC,101037,A,5450.266,N,00931.378,E,00.2,292,030813,,,A*4E
$IIVHW,,,061,M,00.0,N,,*63
$IIVLW,01359,N,000.0,N*5D
$IIVWR,006,R,00.0,N,,,,*67
$IIDPT,002.5,-1.0,*47
$IIGLL,5450.266,N,00931.378,E,101037,A,A*55
$IIHDG,061,,,,*50
$IIMTW,+21.0,C*3B
$IIMWV,006,R,00.0,N,A*15
$IIMWV,006,T,00.0,N,A*13
$IIRMC,101038,A,5450.266,N,00931.378,E,00.2,292,030813,,,A*41
$IIVHW,,,061,M,00.0,N,,*63
$IIVLW,01359,N,000.0,N*5D
$IIVWR,166,R,07.9,N,,,,*6E
$IIDPT,002.5,-1.0,*47
$GPRMB,A,5.00,R,003,004,4917.24,N,12309.57,W,001.3,052.5,000.5,V*3B
$GPGLL,5450.266,N,00931.378,E,101038,A,A*4D
$IIHDG,061,,,,*50
