$IIVHW,,,183,M,,,,*3E
$IIHDG,183,,,01,E*19
$IIMTW,+00.0,C*38
$IIVHW,,,184,M,01.6,N,,*6E
$IIVLW,01520,N,000.0,N*55
$IIHDG,184,,,01,E*1E
$IIMTW,+14.5,C*38
$IIVHW,,,186,M,01.3,N,,*69
$IIVLW,01520,N,000.0,N*55
$IIHDG,186,,,01,E*1C
$IIMTW,+14.5,C*38
$IIVHW,,,187,M,01.0,N,,*6B
$IIVLW,01520,N,000.0,N*55
$IIHDG,187,,,01,E*1D
$IIMTW,+14.5,C*38
$IIVHW,,,187,M,00.8,N,,*62
$IIVLW,01520,N,000.0,N*55
$IIHDG,187,,,01,E*1D
$IIMTW,+14.5,C*38
$IIVHW,,,187,M,00.7,N,,*6D
$IIVLW,01520,N,000.0,N*55
$IIHDG,187,,,01,E*1D
$IIMTW,+14.5,C*38
$IIVHW,,,186,M,00.5,N,,*6E
$IIVLW,01520,N,000.0,N*55
$IIHDG,186,,,01,E*1C
$IIMTW,+15.0,C*3C
$IIMWV,078,R,07.0,N,A*1B
$IIVHW,,,186,M,00.4,N,,*6F
$IIVLW,01520,N,000.0,N*55
$IIVWR,078,R,07.0,N,,,,*69
$IIHDG,186,,,01,E*1C
$IIMTW,+15.0,C*3C
$IIMWV,051,R,06.5,N,A*14
$IIMWV,082,T,06.8,N,A*11
$IIVHW,,,184,M,00.3,N,,*6A
$IIVLW,01520,N,000.0,N*55
$IIVWR,051,R,06.5,N,,,,*66
$IIDPT,014.6,-1.0,*43
$IIHDG,184,,,01,E*1E
$IIMTW,+15.0,C*3C
$IIMWV,069,R,07.1,N,A*1A
$IIMWV,054,T,06.1,N,A*13
$IIVHW,,,185,M,00.3,N,,*6B
$IIVLW,01520,N,000.0,N*55
$IIVWR,069,R,07.1,N,,,,*68
$IIDPT,014.5,-1.0,*40
$IIHDG,185,,,01,E*1F
$IIMTW,+15.0,C*3C
$IIMWV,059,R,08.1,N,A*16
$IIMWV,072,T,06.9,N,A*1F
$IIVHW,,,183,M,00.2,N,,*6C
$IIVLW,01520,N,000.0,N*55
$IIVWR,059,R,08.1,N,,,,*64
$IIDPT,014.5,-1.0,*40
$IIHDG,183,,,01,E*19
$IIMTW,+15.0,C*3C
$IIMWV,070,R,07.0,N,A*13
$IIMWV,060,T,07.9,N,A*1D
$IIVHW,,,181,M,00.2,N,,*6E
$IIVLW,01520,N,000.0,N*55
$IIVWR,070,R,07.0,N,,,,*61
$IIDPT,014.5,-1.0,*40
$IIHDG,181,,,01,E*1B
$IIMTW,+15.0,C*3C
$IIMWV,056,R,07.2,N,A*15
$IIMWV,072,T,06.8,N,A*1E
$IIVHW,,,181,M,00.1,N,,*6D
$IIVLW,01520,N,000.0,N*55
$IIVWR,056,R,07.2,N,,,,*67
$IIDPT,014.5,-1.0,*40
$IIHDG,181,,,01,E*1B
$IIMTW,+15.0,C*3C
$IIMWV,067,R,06.6,N,A*12
$IIMWV,057,T,07.0,N,A*10
$IIVHW,,,181,M,00.1,N,,*6D
$IIVLW,01520,N,000.0,N*55
$IIVWR,067,R,06.6,N,,,,*60
$IIDPT,014.5,-1.0,*40
$IIHDG,181,,,01,E*1B
$IIMTW,+15.0,C*3C
$IIMWV,064,R,07.9,N,A*1F
$IIMWV,068,T,06.4,N,A*19
$IIVHW,,,181,M,00.1,N,,*6D
$IIVLW,01520,N,000.0,N*55
$IIVWR,064,R,07.9,N,,,,*6D
$IIDPT,034.1,-1.0,*46
$IIHDG,181,,,01,E*1B
$IIMTW,+15.0,C*3C
$IIMWV,068,R,07.9,N,A*13
$IIMWV,065,T,07.8,N,A*19
$IIVHW,,,180,M,00.1,N,,*6C
$IIVLW,01520,N,000.0,N*55
$IIVWR,068,R,07.9,N,,,,*61
$IIDPT,034.1,-1.0,*46
$IIHDG,180,,,01,E*1A
$IIMTW,+15.0,C*3C
$IIMWV,060,R,07.7,N,A*15
$IIMWV,069,T,07.8,N,A*15
$IIVHW,,,181,M,00.0,N,,*6C
$IIVLW,01520,N,000.0,N*55
$IIVWR,060,R,07.7,N,,,,*67
$IIDPT,034.1,-1.0,*46
$IIHDG,181,,,01,E*1B
$IIMTW,+15.0,C*3C
$IIMWV,067,R,07.3,N,A*16
$IIMWV,061,T,07.5,N,A*10
$IIVHW,,,180,M,00.0,N,,*6D
$IIVLW,01520,N,000.0,N*55
$IIVWR,067,R,07.3,N,,,,*64
$IIDPT,034.1,-1.0,*46
$IIHDG,180,,,01,E*1A
$IIMTW,+15.0,C*3C
$IIMWV,057,R,07.2,N,A*14
$IIMWV,068,T,07.2,N,A*1E
$IIVHW,,,180,M,00.0,N,,*6D
$IIVLW,01520,N,000.0,N*55
$IIVWR,057,R,07.2,N,,,,*66
$IIDPT,034.2,-1.0,*45
$IIHDG,180,,,01,E*1A
$IIMTW,+15.0,C*3C
$IIMWV,057,R,07.3,N,A*15
$IIMWV,058,T,07.0,N,A*1F
$IIVHW,,,180,M,00.1,N,,*6C
$IIVLW,01520,N,000.0,N*55
$IIVWR,057,R,07.3,N,,,,*67
$IIDPT,035.9,-1.0,*4F
$IIHDG,180,,,01,E*1A
$IIMTW,+15.0,C*3C
$IIMWV,050,R,07.3,N,A*12
$IIMWV,058,T,07.1,N,A*1E
$IIVHW,,,180,M,00.1,N,,*6C
$IIVLW,01520,N,000.0,N*55
$IIVWR,050,R,07.3,N,,,,*60
$IIDPT,035.9,-1.0,*4F
$IIHDG,180,,,01,E*1A
$IIMTW,+15.0,C*3C
$IIMWV,062,R,07.6,N,A*16
$IIMWV,052,T,07.1,N,A*14
$IIVHW,,,181,M,00.1,N,,*6D
$IIVLW,01520,N,000.0,N*55
$IIVWR,062,R,07.6,N,,,,*64
$IIDPT,036.6,-1.0,*43
$IIHDG,181,,,01,E*1B
$IIMTW,+15.0,C*3C
$IIMWV,046,R,06.8,N,A*1F
$IIMWV,063,T,07.3,N,A*14
$IIVHW,,,181,M,00.2,N,,*6E
$IIVLW,01520,N,000.0,N*55
$IIVWR,046,R,06.8,N,,,,*6D
$IIDPT,036.7,-1.0,*42
$IIHDG,181,,,01,E*1B
$IIMTW,+15.0,C*3C
$IIMWV,058,R,07.2,N,A*1B
$IIMWV,048,T,06.4,N,A*1B
$IIVHW,,,182,M,00.3,N,,*6C
$IIVLW,01520,N,000.0,N*55
$IIVWR,058,R,07.2,N,,,,*69
$IIDPT,036.7,-1.0,*42
$IIHDG,182,,,01,E*18
$IIMTW,+15.0,C*3C
$IIMWV,056,R,07.5,N,A*12
$IIMWV,060,T,07.0,N,A*14
$IIVHW,,,183,M,00.3,N,,*6D
$IIVLW,01520,N,000.0,N*55
$IIVWR,056,R,07.5,N,,,,*60
$IIDPT,036.7,-1.0,*42
$IIHDG,183,,,01,E*19
$IIMTW,+15.0,C*3C
$IIMWV,052,R,07.4,N,A*17
$IIMWV,058,T,07.2,N,A*1D
$IIVHW,,,184,M,00.3,N,,*6A
$IIVLW,01520,N,000.0,N*55
$IIVWR,052,R,07.4,N,,,,*65
$IIDPT,036.7,-1.0,*42
$IIHDG,184,,,01,E*1E
$IIMTW,+15.0,C*3C
$IIMWV,053,R,08.2,N,A*1F
$IIMWV,055,T,07.1,N,A*13
$IIVHW,,,185,M,00.4,N,,*6C
$IIVLW,01520,N,000.0,N*55
$IIVWR,053,R,08.2,N,,,,*6D
$IIDPT,036.3,-1.0,*46
$IIHDG,185,,,01,E*1F
$IIMTW,+15.0,C*3C
$IIMWV,044,R,08.0,N,A*1B
$IIMWV,055,T,07.9,N,A*1B
$IIVHW,,,186,M,00.6,N,,*6D
$IIVLW,01520,N,000.0,N*55
$IIVWR,044,R,08.0,N,,,,*69
$IIDPT,036.3,-1.0,*46
$IIHDG,186,,,01,E*1C
$IIMTW,+15.0,C*3C
$IIMWV,056,R,07.9,N,A*1E
$IIMWV,047,T,07.5,N,A*14
$IIVHW,,,186,M,00.7,N,,*6C
$IIVLW,01520,N,000.0,N*55
$IIVWR,056,R,07.9,N,,,,*6C
$IIDPT,036.3,-1.0,*46
$IIHDG,186,,,01,E*1C
$IIMTW,+15.0,C*3C
$IIMWV,059,R,07.9,N,A*11
$IIMWV,060,T,07.4,N,A*10
$IIVHW,,,186,M,00.6,N,,*6D
$IIVLW,01520,N,000.0,N*55
$IIVWR,059,R,07.9,N,,,,*63
$IIDPT,036.3,-1.0,*46
$IIHDG,186,,,01,E*1C
$IIMTW,+15.5,C*39
$IIMWV,057,R,08.3,N,A*1A
$IIMWV,063,T,07.5,N,A*12
$IIVHW,,,187,M,00.8,N,,*62
$IIVLW,01520,N,000.0,N*55
$IIVWR,057,R,08.3,N,,,,*68
$IIDPT,036.3,-1.0,*46
$IIHDG,187,,,01,E*1D
$IIMTW,+15.5,C*39
$IIMWV,070,R,08.0,N,A*1C
$IIMWV,063,T,07.7,N,A*10
$IIVHW,,,187,M,00.9,N,,*63
$IIVLW,01520,N,000.0,N*55
$IIVWR,070,R,08.0,N,,,,*6E
$IIDPT,014.0,-1.0,*45
$IIHDG,187,,,01,E*1D
$IIMTW,+15.0,C*3C
$IIMWV,057,R,07.8,N,A*1E
$IIMWV,077,T,07.6,N,A*14
$IIVHW,,,187,M,01.0,N,,*6B
$IIVLW,01520,N,000.0,N*55
$IIVWR,057,R,07.8,N,,,,*6C
$IIDPT,014.0,-1.0,*45
$IIHDG,187,,,01,E*1D
$IIMTW,+15.0,C*3C
$IIMWV,058,R,07.5,N,A*1C
$IIMWV,064,T,07.2,N,A*12
$IIVHW,,,187,M,00.9,N,,*63
$IIVLW,01520,N,000.0,N*55
$IIVWR,058,R,07.5,N,,,,*6E
$IIDPT,014.0,-1.0,*45
$IIHDG,187,,,01,E*1D
$IIMTW,+15.0,C*3C
$IIMWV,052,R,07.6,N,A*15
$IIMWV,065,T,06.9,N,A*19
$IIVHW,,,187,M,01.0,N,,*6B
$IIVLW,01520,N,000.0,N*55
$IIVWR,052,R,07.6,N,,,,*67
$IIDPT,013.9,-1.0,*4B
$IIHDG,187,,,01,E*1D
$IIMTW,+15.0,C*3C
$IIMWV,057,R,06.9,N,A*1E
$IIMWV,059,T,06.9,N,A*16
$IIVHW,,,187,M,01.1,N,,*6A
$IIVLW,01520,N,000.0,N*55
$IIVWR,057,R,06.9,N,,,,*6C
$IIDPT,013.6,-1.0,*44
$IIHDG,187,,,01,E*1D
$IIMTW,+14.5,C*38
$IIMWV,062,R,07.2,N,A*12
$IIMWV,066,T,06.2,N,A*11
$IIVHW,,,187,M,01.3,N,,*68
$IIVLW,01520,N,000.0,N*55
$IIVWR,062,R,07.2,N,,,,*60
$IIDPT,013.7,-1.0,*45
$IIHDG,187,,,01,E*1D
$IIMTW,+14.5,C*38
$IIMWV,060,R,07.3,N,A*11
$IIMWV,073,T,06.6,N,A*11
$IIVHW,,,186,M,01.4,N,,*6E
$IIVLW,01520,N,000.0,N*55
$IIVWR,060,R,07.3,N,,,,*63
$IIDPT,013.7,-1.0,*45
$IIHDG,186,,,01,E*1C
$IIMTW,+15.0,C*3C
$IIMWV,058,R,07.6,N,A*1F
$IIMWV,071,T,06.6,N,A*13
$IIVHW,,,185,M,01.4,N,,*6D
$IIVLW,01520,N,000.0,N*55
$IIVWR,058,R,07.6,N,,,,*6D
$IIDPT,013.7,-1.0,*45
$IIHDG,185,,,01,E*1F
$IIMTW,+15.0,C*3C
$IIMWV,060,R,07.4,N,A*16
$IIMWV,069,T,06.8,N,A*14
$IIVHW,,,185,M,01.5,N,,*6C
$IIVLW,01520,N,000.0,N*55
$IIVWR,060,R,07.4,N,,,,*64
$IIDPT,013.7,-1.0,*45
$IIHDG,185,,,01,E*1F
$IIMTW,+15.0,C*3C
$IIMWV,074,R,07.4,N,A*13
$IIMWV,072,T,06.7,N,A*11
$IIVHW,,,185,M,01.6,N,,*6F
$IIVLW,01520,N,000.0,N*55
$IIVWR,074,R,07.4,N,,,,*61
$IIDPT,013.7,-1.0,*45
$IIHDG,185,,,01,E*1F
$IIMTW,+15.0,C*3C
$IIMWV,052,R,06.6,N,A*14
$IIMWV,087,T,07.1,N,A*1C
$IIVHW,,,186,M,01.5,N,,*6F
$IIVLW,01520,N,000.0,N*55
$IIVWR,052,R,06.6,N,,,,*66
$IIDPT,013.7,-1.0,*45
$IIHDG,186,,,01,E*1C
$IIMTW,+15.0,C*3C
$IIMWV,081,R,07.0,N,A*1D
$IIMWV,065,T,05.7,N,A*14
$IIVHW,,,186,M,01.4,N,,*6E
$IIVLW,01520,N,000.0,N*55
$IIVWR,081,R,07.0,N,,,,*6F
$IIDPT,013.7,-1.0,*45
$IIHDG,186,,,01,E*1C
$IIMTW,+15.0,C*3C
$IIMWV,053,R,07.4,N,A*16
$IIMWV,093,T,06.9,N,A*10
$IIVHW,,,186,M,01.4,N,,*6E
$IIVLW,01520,N,000.0,N*55
$IIVWR,053,R,07.4,N,,,,*64
$IIDPT,013.7,-1.0,*45
$IIHDG,186,,,01,E*1C
$IIMTW,+15.0,C*3C
$IIMWV,070,R,06.8,N,A*1A
$IIMWV,064,T,06.5,N,A*14
$IIVHW,,,186,M,01.5,N,,*6F
$IIVLW,01520,N,000.0,N*55
$IIVWR,070,R,06.8,N,,,,*68
$IIDPT,013.7,-1.0,*45
$IIHDG,186,,,01,E*1C
$IIMTW,+15.0,C*3C
$IIMWV,056,R,06.4,N,A*12
$IIMWV,083,T,06.3,N,A*1B
$IIVHW,,,186,M,01.5,N,,*6F
$IIVLW,01520,N,000.0,N*55
$IIVWR,056,R,06.4,N,,,,*60
$IIDPT,013.6,-1.0,*44
$IIHDG,186,,,01,E*1C
$IIMTW,+15.0,C*3C
$IIMWV,057,R,05.7,N,A*13
$IIMWV,070,T,05.6,N,A*11
$IIRMC,164406,A,4629.874,N,00641.255,E,01.9,185,190614,01,E,A*00
$IIVHW,,,186,M,01.6,N,,*6C
$IIVLW,01520,N,000.0,N*55
$IIVWR,057,R,05.7,N,,,,*61
$IIDPT,013.3,-1.0,*41
$IIGLL,4629.874,N,00641.255,E,164406,A,A*52
$IIHDG,183,,,01,E*19
$IIMTW,+15.0,C*3C
$IIMWV,051,R,05.6,N,A*14
$IIMWV,073,T,04.9,N,A*1C
$IIRMC,164407,A,4629.875,N,00641.254,E,02.1,186,190614,01,E,A*09
$IIVHW,,,183,M,01.6,N,,*69
$IIVLW,01520,N,000.0,N*55
$IIVWR,051,R,05.6,N,,,,*66
$IIDPT,013.3,-1.0,*41
$IIGLL,4629.873,N,00641.256,E,164408,A,A*58
$IIHDG,181,,,01,E*1B
$IIMTW,+15.0,C*3C
$IIMWV,045,R,04.9,N,A*1F
$IIMWV,066,T,04.7,N,A*16
$IIRMC,164408,A,4629.873,N,00641.256,E,02.3,184,190614,01,E,A*02
$IIVHW,,,181,M,01.5,N,,*68
$IIVLW,01520,N,000.0,N*55
$IIVWR,045,R,04.9,N,,,,*6D
$IIDPT,013.3,-1.0,*41
$IIGLL,4629.873,N,00641.255,E,164409,A,A*5A
$IIHDG,178,,,01,E*1D
$IIMTW,+15.0,C*3C
$IIMWV,042,R,05.4,N,A*14
$IIMWV,062,T,03.8,N,A*1A
$IIRMC,164409,A,4629.873,N,00641.255,E,02.1,177,190614,01,E,A*0E
$IIVHW,,,178,M,01.3,N,,*68
$IIVLW,01520,N,000.0,N*55
$IIVWR,051,R,04.9,N,,,,*68
$IIDPT,013.3,-1.0,*41
$IIGLL,4629.872,N,00641.254,E,164410,A,A*52
$IIHDG,175,,,01,E*10
$IIMTW,+15.0,C*3C
$IIMWV,051,R,04.9,N,A*1A
$IIMWV,055,T,04.3,N,A*12
$IIRMC,164410,A,4629.872,N,00641.254,E,02.1,177,190614,01,E,A*06
$IIVHW,,,175,M,01.4,N,,*62
$IIVLW,01520,N,000.0,N*55
$IIVWR,059,R,05.1,N,,,,*69
$IIDPT,013.3,-1.0,*41
$IIGLL,4629.872,N,00641.254,E,164411,A,A*53
$IIHDG,173,,,01,E*16
$IIMTW,+15.0,C*3C
$IIMWV,059,R,05.1,N,A*1B
$IIMWV,069,T,04.0,N,A*1E
$IIRMC,164411,A,4629.872,N,00641.254,E,02.3,172,190614,01,E,A*00
$IIVHW,,,171,M,01.5,N,,*67
$IIVLW,01520,N,000.0,N*55
$IIVWR,058,R,05.6,N,,,,*6F
$IIDPT,013.3,-1.0,*41
$IIGLL,4629.871,N,00641.255,E,164412,A,A*52
$IIHDG,171,,,01,E*14
$IIMTW,+15.0,C*3C
$IIMWV,058,R,05.6,N,A*1D
$IIMWV,076,T,04.4,N,A*14
$IIRMC,164413,A,4629.872,N,00641.253,E,02.2,175,190614,01,E,A*03
$IIVHW,,,171,M,01.6,N,,*64
$IIVLW,01520,N,000.0,N*55
$IIVWR,056,R,05.8,N,,,,*6F
$IIDPT,013.4,-1.0,*46
$IIGLL,4629.872,N,00641.253,E,164413,A,A*56
$IIHDG,171,,,01,E*14
$IIMTW,+15.0,C*3C
$IIMWV,056,R,05.8,N,A*1D
$IIMWV,072,T,05.0,N,A*15
$IIRMC,164414,A,4629.870,N,00641.255,E,02.5,161,190614,01,E,A*02
$IIVHW,,,170,M,01.6,N,,*65
$IIVLW,01520,N,000.0,N*55
$IIVWR,075,R,05.7,N,,,,*61
$IIDPT,013.5,-1.0,*47
$IIGLL,4629.870,N,00641.255,E,164414,A,A*55
$IIHDG,170,,,01,E*15
$IIMTW,+15.0,C*3C
$IIMWV,053,R,06.4,N,A*17
$IIMWV,093,T,05.5,N,A*1F
$IIRMC,164415,A,4629.869,N,00641.255,E,02.1,176,190614,01,E,A*09
$IIVHW,,,170,M,01.6,N,,*65
$IIVLW,01520,N,000.0,N*55
$IIVWR,053,R,06.4,N,,,,*65
$IIDPT,013.5,-1.0,*47
$IIGLL,4629.869,N,00641.255,E,164415,A,A*5C
$IIHDG,170,,,01,E*15
$IIMTW,+15.0,C*3C
$IIMWV,072,R,05.9,N,A*1A
$IIMWV,068,T,05.5,N,A*1B
$IIRMC,164416,A,4629.868,N,00641.255,E,02.4,171,190614,01,E,A*09
$IIVHW,,,169,M,01.4,N,,*6F
$IIVLW,01520,N,000.0,N*55
$IIVWR,072,R,05.9,N,,,,*68
$IIDPT,013.5,-1.0,*47
$IIGLL,4629.868,N,00641.255,E,164416,A,A*5E
$IIHDG,169,,,01,E*1D
$IIMTW,+15.0,C*3C
$IIMWV,064,R,06.3,N,A*14
$IIMWV,086,T,05.6,N,A*18
$IIRMC,164416,A,4629.868,N,00641.255,E,02.4,171,190614,01,E,A*09
$IIVHW,,,169,M,01.4,N,,*6F
$IIVLW,01520,N,000.0,N*55
$IIVWR,064,R,06.3,N,,,,*66
$IIDPT,013.5,-1.0,*47
$IIGLL,4629.867,N,00641.256,E,164418,A,A*5C
$IIHDG,169,,,01,E*1D
$IIMTW,+15.0,C*3C
$IIMWV,046,R,06.4,N,A*13
$IIMWV,078,T,05.7,N,A*18
$IIRMC,164418,A,4629.867,N,00641.256,E,02.1,177,190614,01,E,A*08
$IIVHW,,,169,M,01.5,N,,*6E
$IIVLW,01520,N,000.0,N*55
$IIVWR,046,R,06.4,N,,,,*61
$IIDPT,013.5,-1.0,*47
$IIGLL,4629.866,N,00641.255,E,164419,A,A*5F
$IIHDG,170,,,01,E*15
$IIMTW,+15.0,C*3C
$IIMWV,050,R,06.1,N,A*11
$IIMWV,059,T,05.3,N,A*1F
$IIRMC,164419,A,4629.866,N,00641.255,E,02.3,173,190614,01,E,A*0D
$IIVHW,,,170,M,01.5,N,,*66
$IIVLW,01520,N,000.0,N*55
$IIVWR,069,R,06.5,N,,,,*6D
$IIDPT,013.5,-1.0,*47
$IIGLL,4629.865,N,00641.256,E,164420,A,A*55
$IIHDG,168,,,01,E*1C
$IIMTW,+15.0,C*3C
$IIMWV,069,R,06.5,N,A*1F
$IIMWV,063,T,05.1,N,A*14
$IIRMC,164420,A,4629.865,N,00641.256,E,02.3,166,190614,01,E,A*03
$IIVHW,,,168,M,01.3,N,,*69
$IIVLW,01520,N,000.0,N*55
$IIVWR,057,R,06.1,N,,,,*64
$IIDPT,013.5,-1.0,*47
$IIGLL,4629.865,N,00641.255,E,164421,A,A*57
$IIHDG,170,,,01,E*15
$IIMTW,+15.0,C*3C
$IIMWV,057,R,06.1,N,A*16
$IIMWV,081,T,06.0,N,A*1A
$IIRMC,164421,A,4629.865,N,00641.255,E,02.2,182,190614,01,E,A*0A
$IIVHW,,,168,M,01.5,N,,*6F
$IIVLW,01520,N,000.0,N*55
$IIVWR,081,R,06.5,N,,,,*6B
$IIDPT,013.5,-1.0,*47
$IIGLL,4629.865,N,00641.255,E,164422,A,A*54
$IIHDG,168,,,01,E*1C
$IIMTW,+15.0,C*3C
$IIMWV,081,R,06.5,N,A*19
$IIMWV,072,T,05.3,N,A*16
$IIRMC,164423,A,4629.863,N,00641.256,E,02.1,185,190614,01,E,A*09
$IIVHW,,,168,M,01.5,N,,*6F
$IIVLW,01520,N,000.0,N*55
$IIVWR,058,R,05.9,N,,,,*60
$IIDPT,013.5,-1.0,*47
$IIGLL,4629.863,N,00641.256,E,164423,A,A*50
$IIHDG,168,,,01,E*1C
$IIMTW,+15.0,C*3C
$IIMWV,058,R,05.9,N,A*12
$IIMWV,073,T,05.2,N,A*16
$IIRMC,164424,A,4629.863,N,00641.256,E,02.4,162,190614,01,E,A*02
$IIVHW,,,168,M,01.6,N,,*6C
$IIVLW,01520,N,000.0,N*55
$IIVWR,068,R,05.5,N,,,,*6F
$IIDPT,013.5,-1.0,*47
$IIGLL,4629.863,N,00641.256,E,164424,A,A*57
$IIHDG,168,,,01,E*1C
$IIMTW,+15.0,C*3C
$IIMWV,078,R,05.4,N,A*1D
$IIMWV,087,T,05.1,N,A*1E
$IIRMC,164425,A,4629.862,N,00641.256,E,02.3,166,190614,01,E,A*01
$IIVHW,,,167,M,01.6,N,,*63
$IIVLW,01520,N,000.0,N*55
$IIVWR,078,R,05.4,N,,,,*6F
$IIDPT,013.4,-1.0,*46
$IIGLL,4629.862,N,00641.256,E,164425,A,A*57
$IIHDG,167,,,01,E*13
$IIMTW,+15.0,C*3C
$IIMWV,050,R,05.4,N,A*17
$IIMWV,097,T,05.2,N,A*1C
$IIRMC,164426,A,4629.862,N,00641.256,E,02.1,171,190614,01,E,A*06
$IIVHW,,,165,M,01.7,N,,*60
$IIVLW,01520,N,000.0,N*55
$IIVWR,050,R,05.4,N,,,,*65
$IIDPT,013.4,-1.0,*46
$IIGLL,4629.862,N,00641.256,E,164426,A,A*54
$IIHDG,166,,,01,E*12
$IIMTW,+15.0,C*3C
$IIMWV,054,R,04.9,N,A*1F
$IIMWV,067,T,04.4,N,A*14
$IIRMC,164427,A,4629.861,N,00641.256,E,02.4,169,190614,01,E,A*08
$IIVHW,,,166,M,01.7,N,,*63
$IIVLW,01520,N,000.0,N*55
$IIVWR,054,R,04.9,N,,,,*6D
$IIDPT,013.4,-1.0,*46
$IIGLL,4629.861,N,00641.257,E,164428,A,A*58
$IIHDG,165,,,01,E*11
$IIMTW,+15.0,C*3C
$IIMWV,064,R,05.1,N,A*15
$IIMWV,074,T,04.0,N,A*12
$IIRMC,164428,A,4629.861,N,00641.257,E,02.2,165,190614,01,E,A*0C
$IIVHW,,,165,M,01.7,N,,*60
$IIVLW,01520,N,000.0,N*55
$IIVWR,064,R,05.1,N,,,,*67
$IIDPT,013.3,-1.0,*41
$IIGLL,4629.860,N,00641.257,E,164429,A,A*58
$IIHDG,165,,,01,E*11
$IIMTW,+15.0,C*3C
$IIMWV,055,R,05.6,N,A*10
$IIMWV,085,T,04.5,N,A*19
$IIRMC,164429,A,4629.860,N,00641.257,E,01.9,178,190614,01,E,A*08
$IIVHW,,,165,M,01.7,N,,*60
$IIVLW,01520,N,000.0,N*55
$IIVWR,055,R,05.8,N,,,,*6C
$IIDPT,013.1,-1.0,*43
$IIGLL,4629.859,N,00641.257,E,164430,A,A*5A
$IIHDG,165,,,01,E*11
$IIMTW,+15.0,C*3C
$IIMWV,055,R,05.8,N,A*1E
$IIMWV,073,T,04.7,N,A*12
$IIRMC,164430,A,4629.859,N,00641.257,E,02.6,164,190614,01,E,A*0B
$IIVHW,,,165,M,01.4,N,,*63
$IIVLW,01520,N,000.0,N*55
$IIVWR,043,R,05.7,N,,,,*64
$IIDPT,013.1,-1.0,*43
$IIGLL,4629.858,N,00641.258,E,164431,A,A*55
$IIHDG,165,,,01,E*11
$IIMTW,+15.0,C*3C
$IIMWV,043,R,05.7,N,A*16
$IIMWV,069,T,05.0,N,A*1F
$IIRMC,164431,A,4629.858,N,00641.258,E,02.2,171,190614,01,E,A*04
$IIVHW,,,165,M,01.6,N,,*61
$IIVLW,01520,N,000.0,N*55
$IIVWR,047,R,04.9,N,,,,*6F
$IIDPT,013.1,-1.0,*43
$IIGLL,4629.858,N,00641.258,E,164432,A,A*56
$IIHDG,165,,,01,E*11
$IIMTW,+15.0,C*3C
$IIMWV,047,R,04.9,N,A*1D
$IIMWV,057,T,04.5,N,A*16
$IIRMC,164433,A,4629.856,N,00641.259,E,02.2,168,190614,01,E,A*01
$IIVHW,,,165,M,01.6,N,,*61
$IIVLW,01520,N,000.0,N*55
$IIVWR,042,R,05.1,N,,,,*63
$IIDPT,013.2,-1.0,*40
$IIGLL,4629.856,N,00641.259,E,164433,A,A*58
$IIHDG,165,,,01,E*11
$IIMTW,+15.0,C*3C
$IIMWV,042,R,05.1,N,A*11
$IIMWV,059,T,03.9,N,A*13
$IIRMC,164434,A,4629.856,N,00641.260,E,02.7,128,190614,01,E,A*0D
$IIVHW,,,165,M,01.7,N,,*60
$IIVLW,01520,N,000.0,N*55
$IIVWR,062,R,06.3,N,,,,*60
$IIDPT,013.2,-1.0,*40
$IIGLL,4629.856,N,00641.260,E,164434,A,A*55
$IIHDG,165,,,01,E*11
$IIMTW,+15.0,C*3C
$IIMWV,054,R,06.0,N,A*14
$IIMWV,078,T,05.6,N,A*19
$IIRMC,164435,A,4629.855,N,00641.260,E,02.5,152,190614,01,E,A*00
$IIVHW,,,166,M,01.7,N,,*63
$IIVLW,01520,N,000.0,N*55
$IIVWR,054,R,06.0,N,,,,*66
$IIDPT,013.4,-1.0,*46
$IIGLL,4629.855,N,00641.260,E,164435,A,A*57
$IIHDG,166,,,01,E*12
$IIMTW,+15.0,C*3C
$IIMWV,076,R,05.7,N,A*10
$IIMWV,085,T,06.3,N,A*1D
$IIRMC,164437,A,4629.854,N,00641.261,E,02.7,162,190614,01,E,A*03
$IIVHW,,,166,M,01.7,N,,*63
$IIVLW,01520,N,000.0,N*55
$IIVWR,076,R,05.7,N,,,,*62
$IIDPT,013.5,-1.0,*47
$IIGLL,4629.854,N,00641.261,E,164437,A,A*55
$IIHDG,166,,,01,E*12
$IIMTW,+15.0,C*3C
$IIMWV,045,R,06.1,N,A*15
$IIMWV,095,T,05.5,N,A*19
$IIRMC,164438,A,4629.854,N,00641.261,E,02.1,175,190614,01,E,A*0C
$IIVHW,,,166,M,01.8,N,,*6C
$IIVLW,01520,N,000.0,N*55
$IIVWR,045,R,06.1,N,,,,*67
$IIDPT,013.6,-1.0,*44
$IIGLL,4629.853,N,00641.261,E,164439,A,A*5C
$IIHDG,165,,,01,E*11
$IIMTW,+15.0,C*3C
$IIMWV,102,R,05.4,N,A*11
$IIMWV,060,T,04.9,N,A*1E
$IIRMC,164439,A,4629.853,N,00641.261,E,02.5,169,190614,01,E,A*03
$IIVHW,,,165,M,01.8,N,,*6F
$IIVLW,01520,N,000.0,N*55
$IIVWR,102,R,05.4,N,,,,*63
$IIDPT,013.6,-1.0,*44
$IIGLL,4629.852,N,00641.262,E,164440,A,A*50
$IIHDG,165,,,01,E*11
$IIMTW,+15.0,C*3C
$IIMWV,054,R,04.9,N,A*1F
$IIMWV,119,T,05.9,N,A*10
$IIRMC,164440,A,4629.852,N,00641.262,E,02.2,167,190614,01,E,A*06
$IIVHW,,,165,M,01.8,N,,*6F
$IIVLW,01520,N,000.0,N*55
$IIVWR,087,R,04.3,N,,,,*69
$IIDPT,013.6,-1.0,*44
$IIGLL,4629.851,N,00641.262,E,164441,A,A*52
$IIHDG,165,,,01,E*11
$IIMTW,+15.0,C*3C
$IIMWV,087,R,04.3,N,A*1B
$IIMWV,075,T,04.0,N,A*13
$IIRMC,164441,A,4629.851,N,00641.262,E,02.2,172,190614,01,E,A*00
$IIVHW,,,165,M,01.8,N,,*6F
$IIVLW,01520,N,000.0,N*55
$IIVWR,050,R,04.5,N,,,,*65
$IIDPT,013.5,-1.0,*47
$IIGLL,4629.850,N,00641.262,E,164442,A,A*50
$IIHDG,165,,,01,E*11
$IIMTW,+15.0,C*3C
$IIMWV,050,R,04.5,N,A*17
$IIMWV,110,T,04.5,N,A*14
$IIRMC,164442,A,4629.850,N,00641.262,E,02.5,164,190614,01,E,A*02
$IIVHW,,,163,M,01.8,N,,*69
$IIVLW,01520,N,000.0,N*55
$IIVWR,041,R,06.0,N,,,,*62
$IIDPT,013.3,-1.0,*41
$IIGLL,4629.850,N,00641.263,E,164443,A,A*50
$IIHDG,163,,,01,E*17
$IIMTW,+15.0,C*3C
$IIMWV,041,R,06.0,N,A*10
$IIMWV,074,T,03.5,N,A*10
$IIRMC,164444,A,4629.849,N,00641.263,E,02.3,169,190614,01,E,A*06
$IIVHW,,,163,M,01.8,N,,*69
$IIVLW,01520,N,000.0,N*55
$IIVWR,046,R,05.0,N,,,,*66
$IIDPT,013.2,-1.0,*40
$IIGLL,4629.849,N,00641.263,E,164444,A,A*5F
$IIHDG,163,,,01,E*17
$IIMTW,+15.0,C*3C
$IIMWV,046,R,05.0,N,A*14
$IIMWV,066,T,03.9,N,A*1F
$IIRMC,164445,A,4629.848,N,00641.263,E,01.9,161,190614,01,E,A*07
$IIVHW,,,162,M,01.8,N,,*68
$IIVLW,01520,N,000.0,N*55
$IIVWR,043,R,06.1,N,,,,*61
$IIDPT,013.2,-1.0,*40
$IIGLL,4629.848,N,00641.263,E,164445,A,A*5F
$IIHDG,162,,,01,E*16
$IIMTW,+15.0,C*3C
$IIMWV,038,R,05.8,N,A*15
$IIMWV,057,T,04.8,N,A*1B
$IIRMC,164446,A,4629.848,N,00641.263,E,01.9,165,190614,01,E,A*00
$IIVHW,,,160,M,01.8,N,,*6A
$IIVLW,01520,N,000.0,N*55
$IIVWR,038,R,05.8,N,,,,*67
$IIDPT,013.1,-1.0,*43
$IIGLL,4629.848,N,00641.263,E,164446,A,A*5C
$IIHDG,160,,,01,E*14
$IIMTW,+15.0,C*3C
$IIMWV,053,R,05.5,N,A*15
$IIMWV,052,T,04.4,N,A*12
$IIRMC,164447,A,4629.847,N,00641.263,E,02.4,158,190614,01,E,A*0E
$IIVHW,,,159,M,01.8,N,,*60
$IIVLW,01520,N,000.0,N*55
$IIVWR,053,R,05.5,N,,,,*67
$IIDPT,012.9,-1.0,*4A
$IIGLL,4629.847,N,00641.263,E,164447,A,A*52
$IIHDG,159,,,01,E*1E
$IIMTW,+15.0,C*3C
$IIMWV,062,R,06.2,N,A*13
$IIMWV,071,T,04.6,N,A*11
$IIRMC,164448,A,4629.847,N,00641.264,E,02.5,157,190614,01,E,A*08
$IIVHW,,,159,M,01.8,N,,*60
$IIVLW,01520,N,000.0,N*55
$IIVWR,062,R,06.2,N,,,,*61
$IIDPT,012.9,-1.0,*4A
$IIGLL,4629.846,N,00641.264,E,164449,A,A*5A
$IIHDG,159,,,01,E*1E
$IIMTW,+15.0,C*3C
$IIMWV,075,R,05.8,N,A*1C
$IIMWV,078,T,05.5,N,A*1A
$IIRMC,164449,A,4629.846,N,00641.264,E,02.1,174,190614,01,E,A*0D
$IIVHW,,,159,M,01.8,N,,*60
$IIVLW,01520,N,000.0,N*55
$IIVWR,075,R,05.8,N,,,,*6E
$IIDPT,012.8,-1.0,*4B
$IIGLL,4629.846,N,00641.264,E,164450,A,A*52
$IIHDG,159,,,01,E*1E
$IIMTW,+15.0,C*3C
$IIMWV,065,R,06.4,N,A*12
$IIMWV,094,T,05.6,N,A*1B
$IIRMC,164450,A,4629.846,N,00641.264,E,01.7,155,190614,01,E,A*03
$IIVHW,,,159,M,01.8,N,,*60
$IIVLW,01520,N,000.0,N*55
$IIVWR,067,R,07.9,N,,,,*6E
$IIDPT,012.8,-1.0,*4B
$IIGLL,4629.845,N,00641.264,E,164451,A,A*50
$IIHDG,159,,,01,E*1E
$IIMTW,+15.0,C*3C
$IIMWV,067,R,07.9,N,A*1C
$IIMWV,083,T,05.8,N,A*13
$IIRMC,164451,A,4629.845,N,00641.264,E,02.3,155,190614,01,E,A*06
$IIVHW,,,159,M,01.9,N,,*61
$IIVLW,01520,N,000.0,N*55
$IIVWR,064,R,09.1,N,,,,*6B
$IIDPT,012.8,-1.0,*4B
$IIGLL,4629.845,N,00641.264,E,164452,A,A*53
$IIHDG,160,,,01,E*14
$IIMTW,+15.0,C*3C
$IIMWV,064,R,09.1,N,A*19
$IIMWV,081,T,07.2,N,A*19
$IIRMC,164452,A,4629.845,N,00641.264,E,01.7,182,190614,01,E,A*08
$IIVHW,,,162,M,02.0,N,,*63
$IIVLW,01520,N,000.0,N*55
$IIVWR,063,R,09.2,N,,,,*6F
$IIDPT,012.8,-1.0,*4B
$IIGLL,4629.844,N,00641.265,E,164453,A,A*52
$IIHDG,162,,,01,E*16
$IIMTW,+15.0,C*3C
$IIMWV,063,R,09.2,N,A*1D
$IIMWV,076,T,08.3,N,A*1F
$IIRMC,164454,A,4629.842,N,00641.266,E,03.8,160,190614,01,E,A*0A
$IIVHW,,,163,M,02.0,N,,*62
$IIVLW,01520,N,000.0,N*55
$IIVWR,056,R,09.3,N,,,,*68
$IIDPT,012.8,-1.0,*4B
$IIGLL,4629.842,N,00641.266,E,164454,A,A*50
$IIHDG,163,,,01,E*17
$IIMTW,+15.0,C*3C
$IIMWV,056,R,09.3,N,A*1A
$IIMWV,068,T,08.3,N,A*10
$IIRMC,164455,A,4629.841,N,00641.266,E,03.5,162,190614,01,E,A*07
$IIVHW,,,164,M,02.1,N,,*64
$IIVLW,01520,N,000.0,N*55
$IIVWR,053,R,09.1,N,,,,*6F
$IIDPT,012.8,-1.0,*4B
$IIGLL,4629.841,N,00641.266,E,164455,A,A*52
$IIHDG,164,,,01,E*10
$IIMTW,+15.0,C*3C
$IIMWV,053,R,08.7,N,A*1A
$IIMWV,066,T,07.8,N,A*1A
$IIRMC,164456,A,4629.841,N,00641.266,E,02.3,175,190614,01,E,A*05
$IIVHW,,,167,M,02.2,N,,*64
$IIVLW,01520,N,000.0,N*55
$IIVWR,053,R,08.7,N,,,,*68
$IIDPT,012.8,-1.0,*4B
$IIGLL,4629.841,N,00641.266,E,164456,A,A*51
$IIHDG,167,,,01,E*13
$IIMTW,+15.0,C*3C
$IIMWV,066,R,09.3,N,A*19
$IIMWV,067,T,07.5,N,A*16
$IIRMC,164457,A,4629.937,N,00641.139,E,03.5,163,190614,01,E,A*0D
$IIVHW,,,167,M,02.2,N,,*64
$IIVLW,01520,N,000.0,N*55
$IIVWR,066,R,09.3,N,,,,*6B
$IIDPT,012.8,-1.0,*4B
$IIGLL,4629.937,N,00641.139,E,164457,A,A*59
$IIHDG,168,,,01,E*1C
$IIMTW,+15.0,C*3C
$IIMWV,054,R,09.4,N,A*1F
$IIMWV,080,T,08.5,N,A*10
$IIRMC,164458,A,4629.937,N,00641.143,E,03.5,172,190614,01,E,A*0F
$IIVHW,,,168,M,02.3,N,,*6A
$IIVLW,01520,N,000.0,N*55
$IIVWR,054,R,09.4,N,,,,*6D
$IIDPT,012.8,-1.0,*4B
$IIGLL,4629.933,N,00641.144,E,164459,A,A*59
$IIHDG,169,,,01,E*1D
$IIMTW,+15.0,C*3C
$IIMWV,064,R,08.8,N,A*11
$IIMWV,067,T,08.2,N,A*1E
$IIRMC,164459,A,4629.933,N,00641.144,E,03.5,168,190614,01,E,A*06
$IIVHW,,,169,M,02.4,N,,*6C
$IIVLW,01520,N,000.0,N*55
$IIVWR,064,R,08.8,N,,,,*63
$IIDPT,012.8,-1.0,*4B
$IIGLL,4629.931,N,00641.143,E,164500,A,A*51
$IIHDG,171,,,01,E*14
$IIMTW,+15.0,C*3C
$IIMWV,057,R,09.1,N,A*19
$IIMWV,080,T,08.0,N,A*15
$IIRMC,164500,A,4629.931,N,00641.143,E,03.6,172,190614,01,E,A*06
$IIVHW,,,171,M,02.4,N,,*65
$IIVLW,01520,N,000.0,N*55
$IIVWR,065,R,09.4,N,,,,*6F
$IIDPT,012.8,-1.0,*4B
$IIGLL,4629.926,N,00641.144,E,164501,A,A*51
$IIHDG,171,,,01,E*14
$IIMTW,+15.0,C*3C
$IIMWV,065,R,09.4,N,A*1D
$IIMWV,072,T,08.0,N,A*18
$IIRMC,164501,A,4629.926,N,00641.144,E,03.9,171,190614,01,E,A*0A
$IIVHW,,,171,M,02.4,N,,*65
$IIVLW,01520,N,000.0,N*55
$IIVWR,052,R,09.5,N,,,,*6A
$IIDPT,012.9,-1.0,*4A
$IIGLL,4629.926,N,00641.144,E,164502,A,A*52
$IIHDG,172,,,01,E*17
$IIMTW,+15.0,C*3C
$IIMWV,052,R,09.5,N,A*18
$IIMWV,081,T,08.6,N,A*12
$IIRMC,164502,A,4629.926,N,00641.144,E,03.8,174,190614,01,E,A*0D
$IIVHW,,,173,M,02.6,N,,*65
$IIVLW,01520,N,000.0,N*55
$IIVWR,056,R,09.7,N,,,,*6C
$IIDPT,012.9,-1.0,*4A
$IIGLL,4629.925,N,00641.144,E,164503,A,A*50
$IIHDG,173,,,01,E*16
$IIMTW,+15.0,C*3C
$IIMWV,056,R,09.7,N,A*1E
$IIMWV,067,T,08.1,N,A*1D
$IIRMC,164504,A,4629.925,N,00641.142,E,03.6,179,190614,01,E,A*0D
$IIVHW,,,174,M,02.6,N,,*62
$IIVLW,01520,N,000.0,N*55
$IIVWR,057,R,09.9,N,,,,*63
$IIDPT,012.9,-1.0,*4A
$IIGLL,4629.925,N,00641.142,E,164504,A,A*51
$IIHDG,174,,,01,E*11
$IIMTW,+15.5,C*39
$IIMWV,057,R,09.9,N,A*11
$IIMWV,073,T,08.6,N,A*1F
$IIRMC,164505,A,4629.923,N,00641.142,E,04.0,176,190614,01,E,A*04
$IIVHW,,,175,M,02.7,N,,*62
$IIVLW,01520,N,000.0,N*55
$IIVWR,056,R,09.5,N,,,,*6E
$IIDPT,012.9,-1.0,*4A
$IIGLL,4629.923,N,00641.142,E,164505,A,A*56
$IIHDG,175,,,01,E*10
$IIMTW,+15.5,C*39
$IIMWV,057,R,09.9,N,A*11
$IIMWV,072,T,08.2,N,A*1A
$IIRMC,164506,A,4629.922,N,00641.143,E,03.9,174,190614,01,E,A*0B
$IIVHW,,,175,M,02.8,N,,*6D
$IIVLW,01520,N,000.1,N*54
$IIVWR,057,R,09.9,N,,,,*63
$IIDPT,012.9,-1.0,*4A
$IIGLL,4629.922,N,00641.143,E,164506,A,A*55
$IIHDG,175,,,01,E*10
$IIMTW,+16.0,C*3F
$IIMWV,048,R,09.7,N,A*11
$IIMWV,073,T,08.6,N,A*1F
$IIRMC,164507,A,4629.922,N,00641.142,E,04.0,177,190614,01,E,A*06
$IIVHW,,,175,M,02.8,N,,*6D
$IIVLW,01520,N,000.1,N*54
$IIVWR,048,R,09.7,N,,,,*63
$IIDPT,012.9,-1.0,*4A
$IIGLL,4629.922,N,00641.142,E,164507,A,A*55
$IIHDG,176,,,01,E*13
$IIMTW,+15.5,C*39
$IIMWV,047,R,09.4,N,A*1D
$IIMWV,063,T,07.9,N,A*1E
$IIRMC,164508,A,4629.921,N,00641.141,E,03.9,176,190614,01,E,A*06
$IIVHW,,,176,M,02.8,N,,*6E
$IIVLW,01520,N,000.1,N*54
$IIVWR,047,R,09.4,N,,,,*6F
$IIDPT,012.9,-1.0,*4A
$IIGLL,4629.920,N,00641.141,E,164509,A,A*5A
$IIHDG,177,,,01,E*12
$IIMTW,+15.5,C*39
$IIMWV,039,R,09.9,N,A*19
$IIMWV,063,T,07.6,N,A*11
$IIRMC,164509,A,4629.920,N,00641.141,E,03.9,176,190614,01,E,A*06
$IIVHW,,,177,M,02.9,N,,*6E
$IIVLW,01520,N,000.1,N*54
$IIVWR,039,R,09.9,N,,,,*6B
$IIDPT,012.9,-1.0,*4A
$IIGLL,4629.919,N,00641.141,E,164510,A,A*58
$IIHDG,177,,,01,E*12
$IIMTW,+15.5,C*39
$IIMWV,041,R,10.3,N,A*14
$IIMWV,052,T,07.8,N,A*1D
$IIRMC,164510,A,4629.919,N,00641.141,E,04.0,178,190614,01,E,A*04
$IIVHW,,,177,M,03.0,N,,*66
$IIVLW,01520,N,000.1,N*54
$IIVWR,035,R,10.4,N,,,,*62
$IIDPT,012.8,-1.0,*4B
$IIGLL,4629.918,N,00641.141,E,164511,A,A*58
$IIHDG,179,,,01,E*1C
$IIMTW,+15.5,C*39
$IIMWV,035,R,10.4,N,A*10
$IIMWV,055,T,08.1,N,A*1C
$IIRMC,164511,A,4629.918,N,00641.141,E,04.0,181,190614,01,E,A*02
$IIVHW,,,179,M,03.0,N,,*68
$IIVLW,01520,N,000.1,N*54
$IIVWR,043,R,11.5,N,,,,*63
$IIDPT,012.8,-1.0,*4B
$IIGLL,4629.917,N,00641.142,E,164512,A,A*57
$IIHDG,179,,,01,E*1C
$IIMTW,+15.5,C*39
$IIMWV,043,R,11.5,N,A*11
$IIMWV,047,T,08.0,N,A*1E
$IIRMC,164512,A,4629.917,N,00641.142,E,04.2,179,190614,01,E,A*08
$IIVHW,,,180,M,03.1,N,,*6F
$IIVLW,01520,N,000.1,N*54
$IIVWR,043,R,11.0,N,,,,*66
$IIDPT,012.8,-1.0,*4B
$IIGLL,4629.916,N,00641.141,E,164513,A,A*54
$IIHDG,180,,,01,E*1A
$IIMTW,+16.0,C*3F
$IIMWV,043,R,11.0,N,A*14
$IIMWV,056,T,09.3,N,A*1C
$IIRMC,164514,A,4629.915,N,00641.141,E,04.0,183,190614,01,E,A*08
$IIVHW,,,181,M,03.1,N,,*6E
$IIVLW,01520,N,000.1,N*54
$IIVWR,048,R,10.8,N,,,,*64
$IIDPT,012.8,-1.0,*4B
$IIGLL,4629.915,N,00641.141,E,164514,A,A*50
$IIHDG,181,,,01,E*1B
$IIMTW,+15.5,C*39
$IIMWV,048,R,10.8,N,A*16
$IIMWV,063,T,08.8,N,A*10
$IIRMC,164514,A,4629.915,N,00641.141,E,04.0,183,190614,01,E,A*08
$IIVHW,,,182,M,03.2,N,,*6E
$IIVLW,01520,N,000.1,N*54
$IIVWR,046,R,10.2,N,,,,*60
$IIDPT,012.8,-1.0,*4B
$IIGLL,4629.915,N,00641.141,E,164514,A,A*50
$IIHDG,182,,,01,E*18
$IIMTW,+16.0,C*3F
$IIMWV,044,R,10.1,N,A*13
$IIMWV,063,T,08.2,N,A*1A
$IIRMC,164516,A,4629.913,N,00641.141,E,04.5,184,190614,01,E,A*0E
$IIVHW,,,182,M,03.2,N,,*6E
$IIVLW,01520,N,000.1,N*54
$IIVWR,044,R,10.1,N,,,,*61
$IIDPT,012.8,-1.0,*4B
$IIGLL,4629.913,N,00641.141,E,164516,A,A*54
$IIHDG,182,,,01,E*18
$IIMTW,+15.5,C*39
$IIMWV,050,R,09.5,N,A*1A
$IIMWV,063,T,08.0,N,A*18
$IIRMC,164518,A,4629.911,N,00641.140,E,04.7,180,190614,01,E,A*05
$IIVHW,,,181,M,03.2,N,,*6D
$IIVLW,01520,N,000.1,N*54
$IIVWR,050,R,09.5,N,,,,*68
$IIDPT,013.0,-1.0,*42
$IIGLL,4629.911,N,00641.140,E,164518,A,A*59
$IIHDG,179,,,01,E*1C
$IIMTW,+15.5,C*39
$IIMWV,057,R,10.1,N,A*11
$IIMWV,070,T,07.7,N,A*12
$IIRMC,164519,A,4629.910,N,00641.141,E,04.0,168,190614,01,E,A*05
$IIVHW,,,179,M,03.2,N,,*6A
$IIVLW,01520,N,000.1,N*54
$IIVWR,057,R,10.1,N,,,,*63
$IIDPT,013.0,-1.0,*42
$IIGLL,4629.909,N,00641.141,E,164520,A,A*5A
$IIHDG,177,,,01,E*12
$IIMTW,+16.0,C*3F
$IIMWV,054,R,09.8,N,A*13
$IIMWV,076,T,08.6,N,A*1A
$IIRMC,164520,A,4629.909,N,00641.141,E,04.7,180,190614,01,E,A*06
$IIVHW,,,177,M,03.3,N,,*65
$IIVLW,01520,N,000.1,N*54
$IIVWR,054,R,09.8,N,,,,*61
$IIDPT,013.0,-1.0,*42
$IIGLL,4629.908,N,00641.141,E,164521,A,A*5A
$IIHDG,175,,,01,E*10
$IIMTW,+15.5,C*39
$IIMWV,060,R,09.5,N,A*19
$IIMWV,073,T,08.2,N,A*1B
$IIRMC,164521,A,4629.908,N,00641.141,E,05.0,163,190614,01,E,A*0D
$IIVHW,,,175,M,03.3,N,,*67
$IIVLW,01520,N,000.1,N*54
$IIVWR,058,R,09.3,N,,,,*66
$IIDPT,013.0,-1.0,*42
$IIGLL,4629.906,N,00641.141,E,164522,A,A*57
$IIHDG,174,,,01,E*11
$IIMTW,+16.5,C*3A
$IIMWV,058,R,09.3,N,A*14
$IIMWV,080,T,08.3,N,A*16
$IIRMC,164522,A,4629.906,N,00641.141,E,04.5,169,190614,01,E,A*0E
$IIVHW,,,174,M,03.3,N,,*66
$IIVLW,01520,N,000.1,N*54
$IIVWR,052,R,09.5,N,,,,*6A
$IIDPT,013.0,-1.0,*42
$IIGLL,4629.905,N,00641.142,E,164523,A,A*56
$IIHDG,172,,,01,E*17
$IIMTW,+16.5,C*3A
$IIMWV,052,R,09.5,N,A*18
$IIMWV,079,T,08.0,N,A*13
$IIRMC,164523,A,4629.905,N,00641.142,E,04.4,169,190614,01,E,A*0E
$IIVHW,,,172,M,03.4,N,,*67
$IIVLW,01520,N,000.1,N*54
$IIVWR,048,R,10.7,N,,,,*6B
$IIDPT,013.0,-1.0,*42
$IIGLL,4629.905,N,00641.142,E,164523,A,A*56
$IIHDG,172,,,01,E*17
$IIMTW,+16.5,C*3A
$IIMWV,048,R,10.7,N,A*19
$IIMWV,072,T,07.8,N,A*1F
$IIRMC,164525,A,4629.902,N,00641.142,E,04.4,171,190614,01,E,A*06
$IIVHW,,,171,M,03.5,N,,*65
$IIVLW,01520,N,000.1,N*54
$IIVWR,053,R,10.8,N,,,,*6E
$IIDPT,013.0,-1.0,*42
$IIGLL,4629.902,N,00641.142,E,164525,A,A*57
$IIHDG,171,,,01,E*14
$IIMTW,+16.5,C*3A
$IIMWV,053,R,10.8,N,A*1C
$IIMWV,071,T,09.0,N,A*1A
$IIRMC,164525,A,4629.902,N,00641.142,E,04.4,171,190614,01,E,A*06
$IIVHW,,,170,M,03.5,N,,*64
$IIVLW,01520,N,000.1,N*54
$IIVWR,052,R,09.8,N,,,,*67
$IIDPT,013.0,-1.0,*42
$IIGLL,4629.902,N,00641.142,E,164525,A,A*57
$IIHDG,170,,,01,E*15
$IIMTW,+15.5,C*39
$IIMWV,056,R,10.7,N,A*16
$IIMWV,073,T,08.0,N,A*19
$IIRMC,164527,A,4629.900,N,00641.143,E,05.2,164,190614,01,E,A*04
$IIVHW,,,170,M,03.6,N,,*67
$IIVLW,01520,N,000.1,N*54
$IIVWR,056,R,10.7,N,,,,*64
$IIDPT,013.0,-1.0,*42
$IIGLL,4629.900,N,00641.143,E,164527,A,A*56
$IIHDG,170,,,01,E*15
$IIMTW,+15.5,C*39
$IIMWV,047,R,10.4,N,A*15
$IIMWV,075,T,09.0,N,A*1E
$IIRMC,164528,A,4629.898,N,00641.143,E,04.6,176,190614,01,E,A*0D
$IIVHW,,,170,M,03.6,N,,*67
$IIVLW,01520,N,000.1,N*54
$IIVWR,047,R,10.4,N,,,,*67
$IIDPT,013.0,-1.0,*42
$IIGLL,4629.898,N,00641.143,E,164528,A,A*59
$IIHDG,170,,,01,E*15
$IIMTW,+15.5,C*39
$IIMWV,055,R,09.9,N,A*13
$IIMWV,066,T,08.1,N,A*1C
$IIRMC,164529,A,4629.897,N,00641.143,E,04.6,162,190614,01,E,A*06
$IIVHW,,,170,M,03.7,N,,*66
$IIVLW,01520,N,000.1,N*54
$IIVWR,055,R,09.9,N,,,,*61
$IIDPT,013.0,-1.0,*42
$IIGLL,4629.896,N,00641.144,E,164530,A,A*59
$IIHDG,171,,,01,E*14
$IIMTW,+15.5,C*39
$IIMWV,045,R,10.0,N,A*13
$IIMWV,077,T,08.3,N,A*1E
$IIRMC,164530,A,4629.896,N,00641.144,E,05.3,171,190614,01,E,A*0E
$IIVHW,,,171,M,03.8,N,,*68
$IIVLW,01520,N,000.1,N*54
$IIVWR,045,R,10.0,N,,,,*61
$IIDPT,013.0,-1.0,*42
$IIGLL,4629.895,N,00641.144,E,164531,A,A*5B
$IIHDG,171,,,01,E*14
$IIMTW,+15.5,C*39
$IIMWV,047,R,10.0,N,A*11
$IIMWV,065,T,07.8,N,A*19
$IIRMC,164531,A,4629.895,N,00641.144,E,05.0,170,190614,01,E,A*0E
$IIVHW,,,171,M,03.8,N,,*68
$IIVLW,01520,N,000.1,N*54
$IIVWR,045,R,10.0,N,,,,*61
$IIDPT,013.0,-1.0,*42
$IIGLL,4629.893,N,00641.144,E,164532,A,A*5E
$IIHDG,171,,,01,E*14
$IIMTW,+15.5,C*39
$IIMWV,045,R,10.0,N,A*13
$IIMWV,069,T,07.8,N,A*15
$IIRMC,164532,A,4629.893,N,00641.144,E,05.0,181,190614,01,E,A*05
$IIVHW,,,171,M,03.8,N,,*68
$IIVLW,01520,N,000.1,N*54
$IIVWR,042,R,09.7,N,,,,*69
$IIDPT,012.9,-1.0,*4A
$IIGLL,4629.892,N,00641.144,E,164533,A,A*5E
$IIHDG,171,,,01,E*14
$IIMTW,+15.5,C*39
$IIMWV,042,R,09.7,N,A*1B
$IIMWV,066,T,07.7,N,A*15
$IIRMC,164533,A,4629.892,N,00641.144,E,05.0,176,190614,01,E,A*0D
$IIVHW,,,171,M,03.9,N,,*69
$IIVLW,01520,N,000.1,N*54
$IIVWR,049,R,09.6,N,,,,*63
$IIDPT,012.8,-1.0,*4B
$IIGLL,4629.890,N,00641.144,E,164534,A,A*5B
$IIHDG,171,,,01,E*14
$IIMTW,+15.5,C*39
$IIMWV,049,R,09.6,N,A*11
$IIMWV,063,T,07.1,N,A*16
$IIRMC,164535,A,4629.889,N,00641.145,E,05.1,171,190614,01,E,A*06
$IIVHW,,,170,M,04.0,N,,*66
$IIVLW,01520,N,000.1,N*54
$IIVWR,052,R,09.5,N,,,,*6A
$IIDPT,012.8,-1.0,*4B
$IIGLL,4629.889,N,00641.145,E,164535,A,A*53
$IIHDG,170,,,01,E*15
$IIMTW,+15.5,C*39
$IIMWV,052,R,09.5,N,A*18
$IIMWV,077,T,07.7,N,A*15
$IIRMC,164536,A,4629.888,N,00641.145,E,05.4,167,190614,01,E,A*06
$IIVHW,,,170,M,04.0,N,,*66
$IIVLW,01520,N,000.1,N*54
$IIVWR,044,R,09.2,N,,,,*6A
$IIDPT,012.8,-1.0,*4B
$IIGLL,4629.888,N,00641.145,E,164536,A,A*51
$IIHDG,170,,,01,E*15
$IIMTW,+15.5,C*39
$IIMWV,046,R,09.8,N,A*10
$IIMWV,069,T,06.7,N,A*1B
$IIRMC,164537,A,4629.886,N,00641.145,E,05.3,170,190614,01,E,A*08
$IIVHW,,,171,M,04.0,N,,*67
$IIVLW,01520,N,000.1,N*54
$IIVWR,046,R,09.8,N,,,,*62
$IIDPT,012.8,-1.0,*4B
$IIGLL,4629.886,N,00641.145,E,164537,A,A*5E
$IIHDG,171,,,01,E*14
$IIMTW,+16.0,C*3F
$IIMWV,046,R,10.1,N,A*11
$IIMWV,067,T,07.5,N,A*16
$IIRMC,164539,A,4629.883,N,00641.146,E,05.4,170,190614,01,E,A*07
$IIVHW,,,171,M,04.1,N,,*66
$IIVLW,01520,N,000.1,N*54
$IIVWR,046,R,10.1,N,,,,*63
$IIDPT,012.8,-1.0,*4B
$IIGLL,4629.883,N,00641.146,E,164539,A,A*56
$IIHDG,172,,,01,E*17
$IIMTW,+16.0,C*3F
$IIMWV,041,R,10.2,N,A*15
$IIMWV,069,T,07.7,N,A*1A
$IIRMC,164540,A,4629.882,N,00641.146,E,05.4,171,190614,01,E,A*09
$IIVHW,,,172,M,04.1,N,,*65
$IIVLW,01520,N,000.1,N*54
$IIVWR,041,R,10.2,N,,,,*67
$IIDPT,012.8,-1.0,*4B
$IIGLL,4629.880,N,00641.147,E,164541,A,A*5B
$IIHDG,172,,,01,E*17
$IIMTW,+16.0,C*3F
$IIMWV,051,R,09.5,N,A*1B
$IIMWV,063,T,07.5,N,A*12
$IIRMC,164541,A,4629.880,N,00641.147,E,05.4,170,190614,01,E,A*0A
$IIVHW,,,172,M,04.1,N,,*65
$IIVLW,01520,N,000.1,N*54
$IIVWR,051,R,09.5,N,,,,*69
$IIDPT,012.8,-1.0,*4B
$IIGLL,4629.879,N,00641.147,E,164542,A,A*5E
$IIHDG,173,,,01,E*16
$IIMTW,+16.0,C*3F
$IIMWV,049,R,09.8,N,A*1F
$IIMWV,077,T,07.5,N,A*17
$IIRMC,164542,A,4629.879,N,00641.147,E,05.4,178,190614,01,E,A*07
$IIVHW,,,173,M,04.2,N,,*67
$IIVLW,01520,N,000.1,N*54
$IIVWR,045,R,10.0,N,,,,*61
$IIDPT,012.8,-1.0,*4B
$IIGLL,4629.877,N,00641.147,E,164543,A,A*51
$IIHDG,173,,,01,E*16
$IIMTW,+16.0,C*3F
$IIMWV,045,R,10.0,N,A*13
$IIMWV,073,T,07.6,N,A*10
$IIRMC,164543,A,4629.877,N,00641.147,E,05.5,176,190614,01,E,A*07
$IIVHW,,,173,M,04.2,N,,*67
$IIVLW,01520,N,000.1,N*54
$IIVWR,045,R,09.8,N,,,,*61
$IIDPT,012.8,-1.0,*4B
$IIGLL,4629.877,N,00641.147,E,164543,A,A*51
$IIHDG,173,,,01,E*16
$IIMTW,+16.0,C*3F
$IIMWV,045,R,09.8,N,A*13
$IIMWV,068,T,07.6,N,A*1A
$IIRMC,164543,A,4629.877,N,00641.147,E,05.5,176,190614,01,E,A*07
$IIVHW,,,173,M,04.2,N,,*67
$IIVLW,01520,N,000.1,N*54
$IIVWR,052,R,10.2,N,,,,*65
$IIDPT,012.8,-1.0,*4B
$IIGLL,4629.875,N,00641.148,E,164545,A,A*5A
$IIHDG,173,,,01,E*16
$IIMTW,+16.0,C*3F
$IIMWV,052,R,10.2,N,A*17
$IIMWV,069,T,07.4,N,A*19
$IIRMC,164546,A,4629.873,N,00641.148,E,05.2,174,190614,01,E,A*0C
$IIVHW,,,173,M,04.2,N,,*67
$IIVLW,01520,N,000.1,N*54
$IIVWR,048,R,09.6,N,,,,*62
$IIDPT,012.8,-1.0,*4B
$IIGLL,4629.873,N,00641.148,E,164546,A,A*5F
$IIHDG,173,,,01,E*16
$IIMTW,+15.5,C*39
$IIMWV,048,R,09.6,N,A*10
$IIMWV,073,T,07.4,N,A*12
$IIRMC,164547,A,4629.872,N,00641.148,E,05.2,172,190614,01,E,A*0A
$IIVHW,,,173,M,04.2,N,,*67
$IIVLW,01520,N,000.1,N*54
$IIVWR,045,R,10.0,N,,,,*61
$IIDPT,012.8,-1.0,*4B
$IIGLL,4629.872,N,00641.148,E,164547,A,A*5F
$IIHDG,173,,,01,E*16
$IIMTW,+15.5,C*39
$IIMWV,052,R,10.0,N,A*15
$IIMWV,069,T,07.6,N,A*1B
$IIRMC,164548,A,4629.870,N,00641.148,E,05.2,174,190614,01,E,A*01
$IIVHW,,,174,M,04.2,N,,*60
$IIVLW,01520,N,000.1,N*54
$IIVWR,052,R,10.0,N,,,,*67
$IIDPT,012.8,-1.0,*4B
$IIGLL,4629.870,N,00641.148,E,164548,A,A*52
$IIHDG,174,,,01,E*11
$IIMTW,+15.5,C*39
$IIMWV,053,R,10.1,N,A*15
$IIMWV,076,T,08.1,N,A*1D
$IIRMC,164549,A,4629.869,N,00641.148,E,05.2,178,190614,01,E,A*04
$IIVHW,,,175,M,04.2,N,,*61
$IIVLW,01520,N,000.1,N*54
$IIVWR,053,R,10.1,N,,,,*67
$IIDPT,012.8,-1.0,*4B
$IIGLL,4629.869,N,00641.148,E,164549,A,A*5B
$IIHDG,178,,,01,E*1D
$IIMTW,+15.5,C*39
$IIMWV,051,R,10.2,N,A*14
$IIMWV,077,T,08.2,N,A*1F
$IIRMC,164550,A,4629.867,N,00641.148,E,05.2,180,190614,01,E,A*05
$IIVHW,,,178,M,04.2,N,,*6C
$IIVLW,01520,N,000.1,N*54
$IIVWR,051,R,10.2,N,,,,*66
$IIDPT,012.8,-1.0,*4B
$IIGLL,4629.866,N,00641.148,E,164551,A,A*5D
$IIHDG,179,,,01,E*1C
$IIMTW,+15.5,C*39
$IIMWV,048,R,10.1,N,A*1F
$IIMWV,075,T,08.1,N,A*1E
$IIRMC,164551,A,4629.866,N,00641.148,E,05.0,181,190614,01,E,A*06
$IIVHW,,,179,M,04.2,N,,*6D
$IIVLW,01520,N,000.1,N*54
$IIVWR,048,R,10.1,N,,,,*6D
$IIDPT,012.8,-1.0,*4B
$IIGLL,4629.865,N,00641.148,E,164552,A,A*5D
$IIHDG,181,,,01,E*1B
$IIMTW,+16.0,C*3F
$IIMWV,041,R,10.3,N,A*14
$IIMWV,071,T,07.8,N,A*1C
$IIRMC,164552,A,4629.865,N,00641.148,E,05.1,184,190614,01,E,A*02
$IIVHW,,,181,M,04.2,N,,*6A
$IIVLW,01520,N,000.1,N*54
$IIVWR,053,R,09.6,N,,,,*68
$IIDPT,012.8,-1.0,*4B
$IIGLL,4629.863,N,00641.148,E,164553,A,A*5A
$IIHDG,182,,,01,E*18
$IIMTW,+16.0,C*3F
$IIMWV,053,R,09.6,N,A*1A
$IIMWV,063,T,07.5,N,A*12
$IIRMC,164553,A,4629.863,N,00641.148,E,05.1,187,190614,01,E,A*06
$IIVHW,,,182,M,04.2,N,,*69
$IIVLW,01521,N,000.1,N*55
$IIVWR,050,R,10.0,N,,,,*65
$IIDPT,012.8,-1.0,*4B
$IIGLL,4629.862,N,00641.148,E,164554,A,A*5C
$IIHDG,183,,,01,E*19
$IIMTW,+16.0,C*3F
$IIMWV,050,R,10.0,N,A*17
$IIMWV,079,T,07.7,N,A*1B
$IIRMC,164554,A,4629.862,N,00641.148,E,05.4,180,190614,01,E,A*02
$IIVHW,,,183,M,04.2,N,,*68
$IIVLW,01521,N,000.1,N*55
$IIVWR,053,R,10.3,N,,,,*65
$IIDPT,012.8,-1.0,*4B
$IIGLL,4629.862,N,00641.148,E,164554,A,A*5C
$IIHDG,183,,,01,E*19
$IIMTW,+16.0,C*3F
$IIMWV,053,R,10.3,N,A*17
$IIMWV,074,T,08.0,N,A*1E
$IIRMC,164556,A,4629.859,N,00641.148,E,05.2,185,190614,01,E,A*0B
$IIVHW,,,185,M,04.2,N,,*6E
$IIVLW,01521,N,000.1,N*55
$IIVWR,057,R,10.2,N,,,,*60
$IIDPT,012.8,-1.0,*4B
$IIGLL,4629.859,N,00641.148,E,164556,A,A*56
$IIHDG,185,,,01,E*1F
$IIMTW,+16.0,C*3F
$IIMWV,057,R,10.2,N,A*12
$IIMWV,081,T,08.5,N,A*11
$IIRMC,164557,A,4629.858,N,00641.148,E,05.6,183,190614,01,E,A*09
$IIVHW,,,185,M,04.2,N,,*6E
$IIVLW,01521,N,000.1,N*55
$IIVWR,063,R,12.7,N,,,,*60
$IIDPT,012.8,-1.0,*4B
$IIGLL,4629.858,N,00641.148,E,164557,A,A*56
$IIHDG,185,,,01,E*1F
$IIMTW,+16.0,C*3F
$IIMWV,055,R,13.0,N,A*11
$IIMWV,082,T,11.3,N,A*1C
$IIRMC,164558,A,4629.857,N,00641.147,E,05.3,189,190614,01,E,A*09
$IIVHW,,,186,M,04.1,N,,*6E
$IIVLW,01521,N,000.1,N*55
$IIVWR,055,R,13.0,N,,,,*63
$IIDPT,012.8,-1.0,*4B
$IIGLL,4629.857,N,00641.147,E,164558,A,A*59
$IIHDG,186,,,01,E*1C
$IIMTW,+16.0,C*3F
$IIMWV,042,R,13.6,N,A*11
$IIMWV,074,T,10.8,N,A*1F
$IIRMC,164600,A,4629.854,N,00641.147,E,05.7,180,190614,01,E,A*09
$IIVHW,,,188,M,04.2,N,,*63
$IIVLW,01521,N,000.1,N*55
$IIVWR,042,R,13.6,N,,,,*63
$IIDPT,012.8,-1.0,*4B
$IIGLL,4629.854,N,00641.147,E,164600,A,A*54
$IIHDG,187,,,01,E*1D
$IIMTW,+16.0,C*3F
$IIMWV,047,R,11.8,N,A*18
$IIMWV,057,T,10.7,N,A*11
$IIRMC,164601,A,4629.852,N,00641.147,E,04.9,195,190614,01,E,A*05
$IIVHW,,,187,M,04.2,N,,*6C
$IIVLW,01521,N,000.1,N*55
$IIVWR,047,R,11.8,N,,,,*6A
$IIDPT,012.8,-1.0,*4B
$IIGLL,4629.851,N,00641.147,E,164602,A,A*53
$IIHDG,187,,,01,E*1D
$IIMTW,+15.5,C*39
$IIMWV,050,R,12.4,N,A*11
$IIMWV,066,T,09.4,N,A*18
$IIRMC,164602,A,4629.851,N,00641.147,E,06.1,179,190614,01,E,A*0D
$IIVHW,,,187,M,04.1,N,,*6F
$IIVLW,01521,N,000.1,N*55
$IIVWR,050,R,12.4,N,,,,*63
$IIDPT,012.8,-1.0,*4B
$IIGLL,4629.849,N,00641.146,E,164603,A,A*5A
$IIHDG,187,,,01,E*1D
$IIMTW,+15.5,C*39
$IIMWV,036,R,11.0,N,A*16
$IIMWV,069,T,10.1,N,A*1A
$IIRMC,164603,A,4629.849,N,00641.146,E,05.5,181,190614,01,E,A*04
$IIVHW,,,187,M,04.1,N,,*6F
$IIVLW,01521,N,000.1,N*55
$IIVWR,038,R,10.2,N,,,,*69
$IIDPT,012.8,-1.0,*4B
$IIGLL,4629.848,N,00641.146,E,164604,A,A*5C
$IIHDG,186,,,01,E*1C
$IIMTW,+15.5,C*39
$IIMWV,038,R,10.2,N,A*1B
$IIMWV,054,T,07.9,N,A*1A
$IIRMC,164604,A,4629.848,N,00641.146,E,05.6,181,190614,01,E,A*01
$IIVHW,,,186,M,04.1,N,,*6E
$IIVLW,01521,N,000.1,N*55
$IIVWR,040,R,10.0,N,,,,*64
$IIDPT,012.8,-1.0,*4B
$IIGLL,4629.846,N,00641.146,E,164605,A,A*53
$IIHDG,186,,,01,E*1C
$IIMTW,+16.0,C*3F
$IIMWV,040,R,10.0,N,A*16
$IIMWV,058,T,07.4,N,A*1B
$IIRMC,164605,A,4629.846,N,00641.146,E,05.0,185,190614,01,E,A*0C
$IIVHW,,,185,M,04.1,N,,*6D
$IIVLW,01521,N,000.1,N*55
$IIVWR,034,R,10.0,N,,,,*67
$IIDPT,012.8,-1.0,*4B
$IIGLL,4629.845,N,00641.146,E,164606,A,A*53
$IIHDG,185,,,01,E*1F
$IIMTW,+16.0,C*3F
$IIMWV,034,R,10.0,N,A*15
$IIMWV,061,T,07.3,N,A*16
$IIRMC,164607,A,4629.844,N,00641.145,E,05.1,183,190614,01,E,A*08
$IIVHW,,,185,M,04.1,N,,*6D
$IIVLW,01521,N,000.1,N*55
$IIVWR,033,R,10.3,N,,,,*63
$IIDPT,012.8,-1.0,*4B
$IIGLL,4629.844,N,00641.145,E,164607,A,A*50
$IIHDG,185,,,01,E*1F
$IIMTW,+16.0,C*3F
$IIMWV,033,R,10.3,N,A*11
$IIMWV,051,T,07.1,N,A*17
$IIRMC,164608,A,4629.842,N,00641.145,E,05.1,183,190614,01,E,A*01
$IIVHW,,,185,M,04.0,N,,*6C
$IIVLW,01521,N,000.1,N*55
$IIVWR,033,R,09.8,N,,,,*60
$IIDPT,012.8,-1.0,*4B
$IIGLL,4629.842,N,00641.145,E,164608,A,A*59
$IIHDG,185,,,01,E*1F
$IIMTW,+16.0,C*3F
$IIMWV,039,R,10.5,N,A*1D
$IIMWV,052,T,06.6,N,A*12
$IIRMC,164609,A,4629.841,N,00641.145,E,05.1,182,190614,01,E,A*02
$IIVHW,,,184,M,04.0,N,,*6D
$IIVLW,01521,N,000.1,N*55
$IIVWR,039,R,10.5,N,,,,*6F
$IIDPT,012.8,-1.0,*4B
$IIGLL,4629.841,N,00641.145,E,164609,A,A*5B
$IIHDG,184,,,01,E*1E
$IIMTW,+15.5,C*39
$IIMWV,041,R,10.5,N,A*12
$IIMWV,059,T,07.7,N,A*19
$IIRMC,164610,A,4629.840,N,00641.145,E,05.1,183,190614,01,E,A*0A
$IIVHW,,,185,M,04.0,N,,*6C
$IIVLW,01521,N,000.1,N*55
$IIVWR,041,R,10.5,N,,,,*60
$IIDPT,012.8,-1.0,*4B
$IIGLL,4629.840,N,00641.145,E,164610,A,A*52
$IIHDG,184,,,01,E*1E
$IIMTW,+15.5,C*39
$IIMWV,035,R,09.6,N,A*1A
$IIMWV,062,T,07.8,N,A*1E
$IIRMC,164611,A,4629.839,N,00641.144,E,05.0,185,190614,01,E,A*03
$IIVHW,,,184,M,04.0,N,,*6D
$IIVLW,01521,N,000.1,N*55
$IIVWR,035,R,09.6,N,,,,*68
$IIDPT,012.8,-1.0,*4B
$IIGLL,4629.837,N,00641.144,E,164612,A,A*51
$IIHDG,184,,,01,E*1E
$IIMTW,+15.5,C*39
$IIMWV,046,R,09.8,N,A*10
$IIMWV,055,T,06.6,N,A*15
$IIRMC,164612,A,4629.837,N,00641.144,E,05.0,181,190614,01,E,A*0A
$IIVHW,,,184,M,04.0,N,,*6D
$IIVLW,01521,N,000.1,N*55
$IIVWR,046,R,09.8,N,,,,*62
$IIDPT,012.8,-1.0,*4B
$IIGLL,4629.836,N,00641.144,E,164613,A,A*51
$IIHDG,185,,,01,E*1F
$IIMTW,+16.0,C*3F
$IIMWV,043,R,09.5,N,A*18
$IIMWV,069,T,07.5,N,A*18
$IIRMC,164613,A,4629.836,N,00641.144,E,04.9,184,190614,01,E,A*07
$IIVHW,,,185,M,04.0,N,,*6C
$IIVLW,01521,N,000.1,N*55
$IIVWR,043,R,09.8,N,,,,*67
$IIDPT,012.8,-1.0,*4B
$IIGLL,4629.835,N,00641.143,E,164614,A,A*52
$IIHDG,185,,,01,E*1F
$IIMTW,+15.5,C*39
$IIMWV,043,R,09.8,N,A*15
$IIMWV,065,T,07.0,N,A*11
$IIRMC,164614,A,4629.835,N,00641.143,E,05.1,186,190614,01,E,A*0F
$IIVHW,,,185,M,04.0,N,,*6C
$IIVLW,01521,N,000.1,N*55
$IIVWR,041,R,09.5,N,,,,*68
$IIDPT,012.8,-1.0,*4B
$IIGLL,4629.833,N,00641.143,E,164615,A,A*55
$IIHDG,185,,,01,E*1F
$IIMTW,+15.5,C*39
$IIMWV,041,R,09.5,N,A*1A
$IIMWV,065,T,07.2,N,A*13
$IIRMC,164615,A,4629.833,N,00641.143,E,04.9,187,190614,01,E,A*00
$IIVHW,,,185,M,04.0,N,,*6C
$IIVLW,01521,N,000.1,N*55
$IIVWR,041,R,10.0,N,,,,*65
$IIDPT,012.8,-1.0,*4B
$IIGLL,4629.833,N,00641.143,E,164615,A,A*55
$IIHDG,185,,,01,E*1F
$IIMTW,+15.5,C*39
$IIMWV,041,R,10.0,N,A*17
$IIMWV,063,T,06.9,N,A*1F
$IIRMC,164617,A,4629.830,N,00641.143,E,05.2,185,190614,01,E,A*09
$IIVHW,,,185,M,04.0,N,,*6C
$IIVLW,01521,N,000.1,N*55
$IIVWR,039,R,09.8,N,,,,*6A
$IIDPT,012.8,-1.0,*4B
$IIGLL,4629.830,N,00641.143,E,164617,A,A*54
$IIHDG,185,,,01,E*1F
$IIMTW,+15.5,C*39
$IIMWV,039,R,09.8,N,A*18
$IIMWV,059,T,07.0,N,A*1E
$IIRMC,164618,A,4629.829,N,00641.143,E,05.4,180,190614,01,E,A*0D
$IIVHW,,,185,M,04.0,N,,*6C
$IIVLW,01521,N,000.1,N*55
$IIVWR,048,R,10.6,N,,,,*6A
$IIDPT,012.8,-1.0,*4B
$IIGLL,4629.829,N,00641.143,E,164618,A,A*53
$IIHDG,185,,,01,E*1F
$IIMTW,+15.5,C*39
$IIMWV,050,R,10.4,N,A*13
$IIMWV,069,T,08.3,N,A*11
$IIRMC,164619,A,4629.827,N,00641.142,E,04.8,191,190614,01,E,A*0E
$IIVHW,,,186,M,04.0,N,,*6F
$IIVLW,01521,N,000.1,N*55
$IIVWR,050,R,10.4,N,,,,*61
$IIDPT,012.8,-1.0,*4B
$IIGLL,4629.827,N,00641.142,E,164619,A,A*5D
$IIHDG,186,,,01,E*1C
$IIMTW,+16.0,C*3F
$IIMWV,050,R,09.8,N,A*17
$IIMWV,072,T,08.4,N,A*1C
$IIRMC,164620,A,4629.826,N,00641.142,E,05.5,184,190614,01,E,A*0D
$IIVHW,,,187,M,03.9,N,,*60
$IIVLW,01521,N,000.1,N*55
$IIVWR,050,R,09.8,N,,,,*65
$IIDPT,012.8,-1.0,*4B
$IIGLL,4629.826,N,00641.142,E,164620,A,A*56
$IIHDG,187,,,01,E*1D
$IIMTW,+16.0,C*3F
$IIMWV,053,R,09.4,N,A*18
$IIMWV,074,T,07.8,N,A*19
$IIRMC,164621,A,4629.825,N,00641.142,E,04.9,190,190614,01,E,A*07
$IIVHW,,,187,M,03.9,N,,*60
$IIVLW,01521,N,000.1,N*55
$IIVWR,053,R,09.4,N,,,,*6A
$IIDPT,012.8,-1.0,*4B
$IIGLL,4629.823,N,00641.141,E,164622,A,A*52
$IIHDG,188,,,01,E*12
$IIMTW,+16.0,C*3F
$IIMWV,049,R,09.9,N,A*1E
$IIMWV,078,T,07.6,N,A*1B
$IIRMC,164622,A,4629.823,N,00641.141,E,05.2,187,190614,01,E,A*0D
$IIVHW,,,188,M,03.9,N,,*6F
$IIVLW,01521,N,000.1,N*55
$IIVWR,049,R,09.9,N,,,,*6C
$IIDPT,012.8,-1.0,*4B
$IIGLL,4629.822,N,00641.140,E,164623,A,A*53
$IIHDG,188,,,01,E*12
$IIMTW,+16.0,C*3F
$IIMWV,045,R,09.7,N,A*1C
$IIMWV,071,T,07.8,N,A*1C
$IIRMC,164623,A,4629.822,N,00641.140,E,04.4,203,190614,01,E,A*04
$IIVHW,,,188,M,03.9,N,,*6F
$IIVLW,01521,N,000.1,N*55
$IIVWR,045,R,09.4,N,,,,*6D
$IIDPT,012.8,-1.0,*4B
$IIGLL,4629.821,N,00641.139,E,164624,A,A*59
$IIHDG,188,,,01,E*12
$IIMTW,+16.0,C*3F
$IIMWV,045,R,09.4,N,A*1F
$IIMWV,068,T,07.3,N,A*1F
$IIRMC,164624,A,4629.821,N,00641.139,E,04.7,194,190614,01,E,A*00
$IIVHW,,,188,M,03.9,N,,*6F
$IIVLW,01521,N,000.1,N*55
$IIVWR,056,R,10.3,N,,,,*60
$IIDPT,012.8,-1.0,*4B
$IIGLL,4629.820,N,00641.139,E,164625,A,A*59
$IIHDG,188,,,01,E*12
$IIMTW,+16.0,C*3F
$IIMWV,056,R,10.3,N,A*12
$IIMWV,069,T,07.0,N,A*1D
$IIRMC,164625,A,4629.820,N,00641.139,E,04.8,188,190614,01,E,A*02
$IIVHW,,,188,M,03.9,N,,*6F
$IIVLW,01521,N,000.1,N*55
$IIVWR,048,R,10.2,N,,,,*6E
$IIDPT,012.8,-1.0,*4B
$IIGLL,4629.818,N,00641.139,E,164626,A,A*51
$IIHDG,188,,,01,E*12
$IIMTW,+16.0,C*3F
$IIMWV,048,R,10.2,N,A*1C
$IIMWV,078,T,08.6,N,A*14
$IIRMC,164627,A,4629.817,N,00641.139,E,05.2,184,190614,01,E,A*03
$IIVHW,,,186,M,03.9,N,,*61
$IIVLW,01521,N,000.1,N*55
$IIVWR,054,R,10.1,N,,,,*60
$IIDPT,012.8,-1.0,*4B
$IIGLL,4629.817,N,00641.139,E,164627,A,A*5F
$IIHDG,186,,,01,E*1C
$IIMTW,+15.5,C*39
$IIMWV,054,R,10.1,N,A*12
$IIMWV,076,T,08.3,N,A*1F
$IIRMC,164628,A,4629.815,N,00641.138,E,04.5,188,190614,01,E,A*05
$IIVHW,,,186,M,03.8,N,,*60
$IIVLW,01521,N,000.1,N*55
$IIVWR,051,R,09.7,N,,,,*6B
$IIDPT,012.8,-1.0,*4B
$IIGLL,4629.815,N,00641.138,E,164628,A,A*53
$IIHDG,186,,,01,E*1C
$IIMTW,+15.5,C*39
$IIMWV,050,R,09.3,N,A*1C
$IIMWV,074,T,07.8,N,A*19
$IIRMC,164629,A,4629.814,N,00641.138,E,05.0,183,190614,01,E,A*0A
$IIVHW,,,185,M,03.8,N,,*63
$IIVLW,01521,N,000.1,N*55
$IIVWR,050,R,09.3,N,,,,*6E
$IIDPT,012.8,-1.0,*4B
$IIGLL,4629.814,N,00641.138,E,164629,A,A*53
$IIHDG,185,,,01,E*1F
$IIMTW,+15.5,C*39
$IIMWV,057,R,09.4,N,A*1C
$IIMWV,073,T,07.4,N,A*12
$IIRMC,164630,A,4629.813,N,00641.138,E,04.3,186,190614,01,E,A*02
$IIVHW,,,185,M,03.8,N,,*63
$IIVLW,01521,N,000.1,N*55
$IIVWR,057,R,09.4,N,,,,*6E
$IIDPT,012.8,-1.0,*4B
$IIGLL,4629.813,N,00641.138,E,164630,A,A*5C
$IIHDG,184,,,01,E*1E
$IIMTW,+15.5,C*39
$IIMWV,053,R,09.9,N,A*15
$IIMWV,081,T,07.8,N,A*13
$IIRMC,164631,A,4629.812,N,00641.138,E,04.8,185,190614,01,E,A*0A
$IIVHW,,,184,M,03.8,N,,*62
$IIVLW,01521,N,000.1,N*55
$IIVWR,053,R,09.9,N,,,,*67
$IIDPT,012.8,-1.0,*4B
$IIGLL,4629.810,N,00641.138,E,164632,A,A*5D
$IIHDG,184,,,01,E*1E
$IIMTW,+15.5,C*39
$IIMWV,058,R,09.7,N,A*10
$IIMWV,075,T,08.1,N,A*1E
$IIRMC,164632,A,4629.810,N,00641.138,E,03.6,204,190614,01,E,A*08
$IIVHW,,,184,M,03.8,N,,*62
$IIVLW,01521,N,000.1,N*55
$IIVWR,058,R,09.7,N,,,,*62
$IIDPT,012.8,-1.0,*4B
$IIGLL,4629.809,N,00641.138,E,164633,A,A*54
$IIHDG,183,,,01,E*19
$IIMTW,+15.5,C*39
$IIMWV,060,R,08.9,N,A*14
$IIMWV,081,T,08.3,N,A*17
$IIRMC,164633,A,4629.809,N,00641.138,E,04.9,180,190614,01,E,A*06
$IIVHW,,,183,M,03.7,N,,*6A
$IIVLW,01521,N,000.1,N*55
$IIVWR,052,R,08.6,N,,,,*68
$IIDPT,012.8,-1.0,*4B
$IIGLL,4629.808,N,00641.137,E,164634,A,A*5D
$IIHDG,183,,,01,E*19
$IIMTW,+15.5,C*39
$IIMWV,052,R,08.6,N,A*1A
$IIMWV,085,T,07.7,N,A*18
$IIRMC,164634,A,4629.808,N,00641.137,E,04.6,186,190614,01,E,A*06
$IIVHW,,,183,M,03.7,N,,*6A
$IIVLW,01521,N,000.1,N*55
$IIVWR,052,R,08.5,N,,,,*6B
$IIDPT,012.8,-1.0,*4B
$IIGLL,4629.807,N,00641.137,E,164635,A,A*53
$IIHDG,183,,,01,E*19
$IIMTW,+15.5,C*39
$IIMWV,052,R,08.5,N,A*19
$IIMWV,078,T,06.8,N,A*14
$IIRMC,164635,A,4629.807,N,00641.137,E,04.6,182,190614,01,E,A*0C
$IIVHW,,,183,M,03.7,N,,*6A
$IIVLW,01521,N,000.1,N*55
$IIVWR,053,R,08.5,N,,,,*6A
$IIDPT,012.8,-1.0,*4B
$IIGLL,4629.805,N,00641.137,E,164636,A,A*52
$IIHDG,183,,,01,E*19
$IIMTW,+15.5,C*39
$IIMWV,053,R,08.5,N,A*18
$IIMWV,078,T,06.8,N,A*14
$IIRMC,164637,A,4629.804,N,00641.137,E,05.8,180,190614,01,E,A*00
$IIVHW,,,183,M,03.6,N,,*6B
$IIVLW,01521,N,000.1,N*55
$IIVWR,048,R,08.5,N,,,,*60
$IIDPT,012.8,-1.0,*4B
$IIGLL,4629.804,N,00641.137,E,164637,A,A*52
$IIHDG,183,,,01,E*19
$IIMTW,+15.5,C*39
$IIMWV,048,R,08.5,N,A*12
$IIMWV,073,T,06.4,N,A*13
$IIRMC,164638,A,4629.802,N,00641.137,E,04.9,181,190614,01,E,A*08
$IIVHW,,,182,M,03.6,N,,*6A
$IIVLW,01521,N,000.1,N*55
$IIVWR,058,R,08.5,N,,,,*61
$IIDPT,012.8,-1.0,*4B
$IIGLL,4629.802,N,00641.137,E,164638,A,A*5B
$IIHDG,182,,,01,E*18
$IIMTW,+15.5,C*39
$IIMWV,052,R,08.5,N,A*19
$IIMWV,084,T,07.2,N,A*1C
$IIRMC,164639,A,4629.801,N,00641.137,E,03.8,196,190614,01,E,A*0A
$IIVHW,,,180,M,03.6,N,,*68
$IIVLW,01521,N,000.1,N*55
$IIVWR,052,R,08.5,N,,,,*6B
$IIDPT,012.8,-1.0,*4B
$IIGLL,4629.801,N,00641.137,E,164639,A,A*59
$IIHDG,180,,,01,E*1A
$IIMTW,+15.5,C*39
$IIMWV,052,R,07.9,N,A*1A
$IIMWV,077,T,06.8,N,A*1B
$IIRMC,164639,A,4629.801,N,00641.137,E,03.8,196,190614,01,E,A*0A
$IIVHW,,,179,M,03.5,N,,*6D
$IIVLW,01521,N,000.2,N*56
$IIVWR,052,R,07.9,N,,,,*68
$IIDPT,012.8,-1.0,*4B
$IIGLL,4629.801,N,00641.137,E,164639,A,A*59
$IIHDG,177,,,01,E*12
$IIMTW,+15.5,C*39
$IIMWV,057,R,06.8,N,A*1F
$IIMWV,079,T,06.3,N,A*1E
$IIRMC,164641,A,4629.799,N,00641.136,E,04.6,177,190614,01,E,A*0C
$IIVHW,,,177,M,03.5,N,,*63
$IIVLW,01521,N,000.2,N*56
$IIVWR,057,R,06.8,N,,,,*6D
$IIDPT,012.8,-1.0,*4B
$IIGLL,4629.798,N,00641.136,E,164642,A,A*5B
$IIHDG,176,,,01,E*13
$IIMTW,+15.5,C*39
$IIMWV,050,R,07.3,N,A*12
$IIMWV,090,T,05.7,N,A*1E
$IIRMC,164642,A,4629.798,N,00641.136,E,04.4,174,190614,01,E,A*0F
$IIVHW,,,176,M,03.5,N,,*62
$IIVLW,01521,N,000.2,N*56
$IIVWR,050,R,07.3,N,,,,*60
$IIDPT,012.8,-1.0,*4B
$IIGLL,4629.797,N,00641.136,E,164643,A,A*55
$IIHDG,175,,,01,E*10
$IIMTW,+15.5,C*39
$IIMWV,053,R,06.9,N,A*1A
$IIMWV,079,T,05.7,N,A*19
$IIRMC,164643,A,4629.797,N,00641.136,E,04.4,170,190614,01,E,A*05
$IIVHW,,,175,M,03.5,N,,*61
$IIVLW,01521,N,000.2,N*56
$IIVWR,052,R,05.9,N,,,,*6A
$IIDPT,012.8,-1.0,*4B
$IIGLL,4629.795,N,00641.137,E,164644,A,A*51
$IIHDG,174,,,01,E*11
$IIMTW,+15.5,C*39
$IIMWV,052,R,05.9,N,A*18
$IIMWV,084,T,05.5,N,A*19
$IIRMC,164644,A,4629.795,N,00641.137,E,04.4,165,190614,01,E,A*05
$IIVHW,,,174,M,03.4,N,,*61
$IIVLW,01521,N,000.2,N*56
$IIVWR,063,R,06.1,N,,,,*63
$IIDPT,012.8,-1.0,*4B
$IIGLL,4629.794,N,00641.137,E,164645,A,A*51
$IIHDG,173,,,01,E*16
$IIMTW,+15.5,C*39
$IIMWV,063,R,06.1,N,A*11
$IIMWV,089,T,04.6,N,A*16
$IIRMC,164645,A,4629.794,N,00641.137,E,03.9,168,190614,01,E,A*02
$IIVHW,,,172,M,03.4,N,,*67
$IIVLW,01521,N,000.2,N*56
$IIVWR,052,R,05.6,N,,,,*65
$IIDPT,012.8,-1.0,*4B
$IIGLL,4629.793,N,00641.138,E,164646,A,A*5A
$IIHDG,172,,,01,E*17
$IIMTW,+15.5,C*39
$IIMWV,052,R,05.6,N,A*17
$IIMWV,099,T,05.4,N,A*14
$IIRMC,164647,A,4629.792,N,00641.138,E,04.1,165,190614,01,E,A*0B
$IIVHW,,,172,M,03.4,N,,*67
$IIVLW,01521,N,000.2,N*56
$IIVWR,060,R,06.2,N,,,,*63
$IIDPT,012.8,-1.0,*4B
$IIGLL,4629.792,N,00641.138,E,164647,A,A*5A
$IIHDG,172,,,01,E*17
$IIMTW,+15.5,C*39
$IIMWV,060,R,06.2,N,A*11
$IIMWV,093,T,05.3,N,A*19
$IIRMC,164648,A,4629.790,N,00641.138,E,04.1,177,190614,01,E,A*05
$IIVHW,,,171,M,03.3,N,,*63
$IIVLW,01521,N,000.2,N*56
$IIVWR,060,R,05.8,N,,,,*6A
$IIDPT,012.8,-1.0,*4B
$IIGLL,4629.790,N,00641.138,E,164648,A,A*57
$IIHDG,171,,,01,E*14
$IIMTW,+15.5,C*39
$IIMWV,066,R,05.5,N,A*13
$IIMWV,096,T,05.0,N,A*1F
$IIRMC,164649,A,4629.789,N,00641.139,E,04.1,175,190614,01,E,A*0F
$IIVHW,,,172,M,03.3,N,,*60
$IIVLW,01521,N,000.2,N*56
$IIVWR,066,R,05.5,N,,,,*61
$IIDPT,012.8,-1.0,*4B
$IIGLL,4629.789,N,00641.139,E,164649,A,A*5F
$IIHDG,172,,,01,E*17
$IIMTW,+15.5,C*39
$IIMWV,059,R,06.2,N,A*1B
$IIMWV,103,T,05.1,N,A*13
$IIRMC,164650,A,4629.788,N,00641.139,E,03.8,177,190614,01,E,A*0A
$IIVHW,,,173,M,03.3,N,,*61
$IIVLW,01521,N,000.2,N*56
$IIVWR,059,R,06.2,N,,,,*69
$IIDPT,012.8,-1.0,*4B
$IIGLL,4629.788,N,00641.139,E,164650,A,A*56
$IIHDG,175,,,01,E*10
$IIMTW,+15.5,C*39
$IIMWV,057,R,05.7,N,A*13
$IIMWV,091,T,05.3,N,A*1B
$IIRMC,164650,A,4629.788,N,00641.139,E,03.8,177,190614,01,E,A*0A
$IIVHW,,,175,M,03.2,N,,*66
$IIVLW,01521,N,000.2,N*56
$IIVWR,057,R,05.7,N,,,,*61
$IIDPT,012.8,-1.0,*4B
$IIGLL,4629.786,N,00641.139,E,164652,A,A*5A
$IIHDG,177,,,01,E*12
$IIMTW,+15.5,C*39
$IIMWV,057,R,06.8,N,A*1F
$IIMWV,094,T,04.7,N,A*1B
$IIRMC,164652,A,4629.786,N,00641.139,E,03.8,179,190614,01,E,A*08
$IIVHW,,,177,M,03.2,N,,*64
$IIVLW,01521,N,000.2,N*56
$IIVWR,057,R,06.8,N,,,,*6D
$IIDPT,012.8,-1.0,*4B
$IIGLL,4629.785,N,00641.139,E,164653,A,A*58
$IIHDG,178,,,01,E*1D
$IIMTW,+15.5,C*39
$IIMWV,057,R,06.5,N,A*12
$IIMWV,087,T,05.7,N,A*18
$IIRMC,164653,A,4629.785,N,00641.139,E,02.6,190,190614,01,E,A*02
$IIVHW,,,178,M,03.2,N,,*6B
$IIVLW,01521,N,000.2,N*56
$IIVWR,049,R,07.3,N,,,,*68
$IIDPT,012.8,-1.0,*4B
$IIGLL,4629.784,N,00641.139,E,164654,A,A*5E
$IIHDG,181,,,01,E*1B
$IIMTW,+15.5,C*39
$IIMWV,049,R,07.3,N,A*1A
$IIMWV,087,T,05.4,N,A*1B
$IIRMC,164654,A,4629.784,N,00641.139,E,03.7,185,190614,01,E,A*00
$IIVHW,,,181,M,03.1,N,,*6E
$IIVLW,01521,N,000.2,N*56
$IIVWR,050,R,07.3,N,,,,*60
$IIDPT,012.8,-1.0,*4B
$IIGLL,4629.783,N,00641.139,E,164655,A,A*58
$IIHDG,182,,,01,E*18
$IIMTW,+15.5,C*39
$IIMWV,050,R,07.3,N,A*12
$IIMWV,073,T,05.6,N,A*12
$IIRMC,164655,A,4629.783,N,00641.139,E,03.7,187,190614,01,E,A*04
$IIVHW,,,184,M,03.0,N,,*6A
$IIVLW,01521,N,000.2,N*56
$IIVWR,056,R,06.6,N,,,,*62
$IIDPT,012.7,-1.0,*44
$IIGLL,4629.782,N,00641.138,E,164656,A,A*5B
$IIHDG,184,,,01,E*1E
$IIMTW,+15.5,C*39
$IIMWV,056,R,06.6,N,A*10
$IIMWV,075,T,05.7,N,A*15
$IIRMC,164657,A,4629.781,N,00641.138,E,03.9,189,190614,01,E,A*05
$IIVHW,,,184,M,03.0,N,,*6A
$IIVLW,01521,N,000.2,N*56
$IIVWR,051,R,07.3,N,,,,*61
$IIDPT,012.7,-1.0,*44
$IIGLL,4629.781,N,00641.138,E,164657,A,A*59
$IIHDG,184,,,01,E*1E
$IIMTW,+15.5,C*39
$IIMWV,051,R,07.3,N,A*13
$IIMWV,075,T,05.7,N,A*15
$IIRMC,164657,A,4629.781,N,00641.138,E,03.9,189,190614,01,E,A*05
$IIVHW,,,185,M,03.0,N,,*6B
$IIVLW,01521,N,000.2,N*56
$IIVWR,062,R,07.7,N,,,,*65
$IIDPT,012.7,-1.0,*44
$IIGLL,4629.781,N,00641.138,E,164657,A,A*59
$IIHDG,185,,,01,E*1F
$IIMTW,+15.0,C*3C
$IIMWV,058,R,07.8,N,A*11
$IIMWV,085,T,06.7,N,A*19
$IIRMC,164659,A,4629.779,N,00641.138,E,03.8,182,190614,01,E,A*06
$IIVHW,,,185,M,02.9,N,,*63
$IIVLW,01521,N,000.2,N*56
$IIVWR,058,R,07.8,N,,,,*63
$IIDPT,012.7,-1.0,*44
$IIGLL,4629.779,N,00641.138,E,164659,A,A*50
$IIHDG,185,,,01,E*1F
$IIMTW,+15.0,C*3C
$IIMWV,059,R,08.3,N,A*14
$IIMWV,081,T,06.6,N,A*1C
$IIRMC,164700,A,4629.778,N,00641.138,E,03.4,196,190614,01,E,A*03
$IIVHW,,,185,M,02.9,N,,*63
$IIVLW,01521,N,000.2,N*56
$IIVWR,059,R,08.3,N,,,,*66
$IIDPT,012.7,-1.0,*44
$IIGLL,4629.778,N,00641.138,E,164700,A,A*5C
$IIHDG,185,,,01,E*1F
$IIMTW,+15.0,C*3C
$IIMWV,059,R,08.0,N,A*17
$IIMWV,080,T,07.2,N,A*18
$IIRMC,164700,A,4629.778,N,00641.138,E,03.4,196,190614,01,E,A*03
$IIVHW,,,185,M,02.9,N,,*63
$IIVLW,01521,N,000.2,N*56
$IIVWR,059,R,08.0,N,,,,*65
$IIDPT,012.7,-1.0,*44
$IIGLL,4629.776,N,00641.137,E,164702,A,A*5F
$IIHDG,185,,,01,E*1F
$IIMTW,+15.0,C*3C
$IIMWV,052,R,07.6,N,A*15
$IIMWV,081,T,06.8,N,A*12
$IIRMC,164702,A,4629.776,N,00641.137,E,04.1,183,190614,01,E,A*06
$IIVHW,,,185,M,02.9,N,,*63
$IIVLW,01521,N,000.2,N*56
$IIVWR,052,R,07.6,N,,,,*67
$IIDPT,012.7,-1.0,*44
$IIGLL,4629.775,N,00641.137,E,164703,A,A*5D
$IIHDG,185,,,01,E*1F
$IIMTW,+15.0,C*3C
$IIMWV,059,R,07.4,N,A*1C
$IIMWV,074,T,06.2,N,A*12
$IIRMC,164703,A,4629.775,N,00641.137,E,03.2,202,190614,01,E,A*0A
$IIVHW,,,185,M,02.9,N,,*63
$IIVLW,01521,N,000.2,N*56
$IIVWR,054,R,07.6,N,,,,*61
$IIDPT,012.7,-1.0,*44
$IIGLL,4629.774,N,00641.137,E,164704,A,A*5B
$IIHDG,185,,,01,E*1F
$IIMTW,+15.5,C*39
$IIMWV,054,R,07.6,N,A*13
$IIMWV,083,T,06.3,N,A*1B
$IIRMC,164704,A,4629.774,N,00641.137,E,03.2,198,190614,01,E,A*0C
$IIVHW,,,185,M,02.9,N,,*63
$IIVLW,01521,N,000.2,N*56
$IIVWR,059,R,07.6,N,,,,*6C
$IIDPT,012.7,-1.0,*44
$IIGLL,4629.773,N,00641.137,E,164705,A,A*5D
$IIHDG,184,,,01,E*1E
$IIMTW,+15.5,C*39
$IIMWV,059,R,07.6,N,A*1E
$IIMWV,076,T,06.2,N,A*10
$IIRMC,164705,A,4629.773,N,00641.137,E,03.9,177,190614,01,E,A*00
$IIVHW,,,183,M,02.9,N,,*65
$IIVLW,01521,N,000.2,N*56
$IIVWR,057,R,07.6,N,,,,*62
$IIDPT,012.7,-1.0,*44
$IIGLL,4629.772,N,00641.137,E,164706,A,A*5F
$IIHDG,183,,,01,E*19
$IIMTW,+15.5,C*39
$IIMWV,057,R,07.6,N,A*10
$IIMWV,081,T,06.5,N,A*1F
$IIRMC,164707,A,4629.771,N,00641.137,E,03.7,180,190614,01,E,A*06
$IIVHW,,,182,M,02.8,N,,*65
$IIVLW,01521,N,000.2,N*56
$IIVWR,062,R,06.9,N,,,,*6A
$IIDPT,012.7,-1.0,*44
$IIGLL,4629.771,N,00641.137,E,164707,A,A*5D
$IIHDG,182,,,01,E*18
$IIMTW,+15.5,C*39
$IIMWV,062,R,06.9,N,A*18
$IIMWV,087,T,06.0,N,A*1C
$IIRMC,164708,A,4629.770,N,00641.137,E,03.7,180,190614,01,E,A*08
$IIVHW,,,182,M,02.9,N,,*64
$IIVLW,01521,N,000.2,N*56
$IIVWR,069,R,07.2,N,,,,*6B
$IIDPT,012.7,-1.0,*44
$IIGLL,4629.770,N,00641.137,E,164708,A,A*53
$IIHDG,182,,,01,E*18
$IIMTW,+15.5,C*39
$IIMWV,062,R,06.9,N,A*18
$IIMWV,094,T,06.6,N,A*18
$IIRMC,164709,A,4629.769,N,00641.137,E,03.6,183,190614,01,E,A*03
$IIVHW,,,182,M,02.8,N,,*65
$IIVLW,01521,N,000.2,N*56
$IIVWR,062,R,06.9,N,,,,*6A
$IIDPT,012.7,-1.0,*44
$IIGLL,4629.769,N,00641.137,E,164709,A,A*5A
$IIHDG,182,,,01,E*18
$IIMTW,+15.5,C*39
$IIMWV,065,R,06.5,N,A*13
$IIMWV,087,T,06.0,N,A*1C
$IIRMC,164710,A,4629.768,N,00641.137,E,03.9,179,190614,01,E,A*00
$IIVHW,,,182,M,02.8,N,,*65
$IIVLW,01521,N,000.2,N*56
$IIVWR,065,R,06.5,N,,,,*61
$IIDPT,012.7,-1.0,*44
$IIGLL,4629.768,N,00641.137,E,164710,A,A*53
$IIHDG,182,,,01,E*18
$IIMTW,+15.5,C*39
$IIMWV,064,R,06.9,N,A*1E
$IIMWV,092,T,05.9,N,A*12
$IIRMC,164711,A,4629.767,N,00641.137,E,03.6,180,190614,01,E,A*07
$IIVHW,,,182,M,02.8,N,,*65
$IIVLW,01521,N,000.2,N*56
$IIVWR,064,R,06.9,N,,,,*6C
$IIDPT,012.7,-1.0,*44
$IIGLL,4629.766,N,00641.137,E,164712,A,A*5F
$IIHDG,182,,,01,E*18
$IIMTW,+15.5,C*39
$IIMWV,063,R,06.6,N,A*16
$IIMWV,089,T,06.2,N,A*10
$IIRMC,164712,A,4629.766,N,00641.137,E,03.7,182,190614,01,E,A*06
$IIVHW,,,182,M,02.8,N,,*65
$IIVLW,01521,N,000.2,N*56
$IIVWR,063,R,06.6,N,,,,*64
$IIDPT,012.8,-1.0,*4B
$IIGLL,4629.765,N,00641.137,E,164713,A,A*5D
$IIHDG,182,,,01,E*18
$IIMTW,+15.5,C*39
$IIMWV,064,R,06.6,N,A*11
$IIMWV,090,T,05.8,N,A*11
$IIRMC,164713,A,4629.765,N,00641.137,E,03.4,184,190614,01,E,A*01
$IIVHW,,,182,M,02.8,N,,*65
$IIVLW,01521,N,000.2,N*56
$IIVWR,063,R,06.9,N,,,,*6B
$IIDPT,012.8,-1.0,*4B
$IIGLL,4629.764,N,00641.137,E,164714,A,A*5B
$IIHDG,184,,,01,E*1E
$IIMTW,+15.5,C*39
$IIMWV,063,R,06.9,N,A*19
$IIMWV,090,T,05.9,N,A*10
$IIRMC,164714,A,4629.764,N,00641.137,E,03.4,190,190614,01,E,A*02
$IIVHW,,,184,M,02.8,N,,*63
$IIVLW,01521,N,000.2,N*56
$IIVWR,064,R,08.0,N,,,,*6B
$IIDPT,012.8,-1.0,*4B
$IIGLL,4629.763,N,00641.136,E,164715,A,A*5C
$IIHDG,184,,,01,E*1E
$IIMTW,+15.5,C*39
$IIMWV,064,R,08.0,N,A*19
$IIMWV,087,T,06.1,N,A*1D
$IIRMC,164715,A,4629.763,N,00641.136,E,03.5,182,190614,01,E,A*07
$IIVHW,,,185,M,02.8,N,,*62
$IIVLW,01521,N,000.2,N*56
$IIVWR,061,R,07.4,N,,,,*65
$IIDPT,012.8,-1.0,*4B
$IIGLL,4629.762,N,00641.136,E,164716,A,A*5E
$IIHDG,185,,,01,E*1F
$IIMTW,+15.5,C*39
$IIMWV,061,R,07.4,N,A*17
$IIMWV,085,T,07.2,N,A*1D
$IIRMC,164717,A,4629.761,N,00641.136,E,03.4,189,190614,01,E,A*0D
$IIVHW,,,186,M,02.8,N,,*61
$IIVLW,01521,N,000.2,N*56
$IIVWR,054,R,08.1,N,,,,*69
$IIDPT,012.8,-1.0,*4B
$IIGLL,4629.761,N,00641.136,E,164717,A,A*5C
$IIHDG,186,,,01,E*1C
$IIMTW,+15.5,C*39
$IIMWV,054,R,08.1,N,A*1B
$IIMWV,074,T,06.7,N,A*17
$IIRMC,164718,A,4629.760,N,00641.136,E,03.1,200,190614,01,E,A*04
$IIVHW,,,188,M,02.7,N,,*60
$IIVLW,01521,N,000.2,N*56
$IIVWR,050,R,08.4,N,,,,*68
$IIDPT,012.8,-1.0,*4B
$IIGLL,4629.760,N,00641.136,E,164718,A,A*52
$IIHDG,188,,,01,E*12
$IIMTW,+15.5,C*39
$IIMWV,053,R,08.5,N,A*18
$IIMWV,069,T,06.8,N,A*14
$IIRMC,164718,A,4629.760,N,00641.136,E,03.1,200,190614,01,E,A*04
$IIVHW,,,190,M,02.7,N,,*69
$IIVLW,01521,N,000.2,N*56
$IIVWR,053,R,08.5,N,,,,*6A
$IIDPT,012.8,-1.0,*4B
$IIGLL,4629.760,N,00641.136,E,164718,A,A*52
$IIHDG,190,,,01,E*1B
$IIMTW,+15.5,C*39
$IIMWV,050,R,09.2,N,A*1D
$IIMWV,070,T,07.2,N,A*17
$IIRMC,164720,A,4629.758,N,00641.135,E,03.4,196,190614,01,E,A*0E
$IIVHW,,,193,M,02.7,N,,*6A
$IIVLW,01521,N,000.2,N*56
$IIVWR,050,R,09.2,N,,,,*6F
$IIDPT,012.8,-1.0,*4B
$IIGLL,4629.758,N,00641.135,E,164720,A,A*51
$IIHDG,195,,,01,E*1E
$IIMTW,+15.5,C*39
$IIMWV,052,R,08.7,N,A*1B
$IIMWV,066,T,07.6,N,A*14
$IIRMC,164721,A,4629.757,N,00641.134,E,03.4,198,190614,01,E,A*0F
$IIVHW,,,195,M,02.7,N,,*6C
$IIVLW,01521,N,000.2,N*56
$IIVWR,052,R,08.7,N,,,,*69
$IIDPT,012.8,-1.0,*4B
$IIGLL,4629.756,N,00641.134,E,164722,A,A*5C
$IIHDG,197,,,01,E*1C
$IIMTW,+15.5,C*39
$IIMWV,006,R,00.0,N,A*15
$IIMWV,069,T,07.2,N,A*1F
