$IIVLW,01522,N,000.0,N*57
$IIDPT,011.4,*6A
$IIRMC,171438,A,4629.684,N,00640.971,E,01.3,006,190614,01,E,A*04
$IIVHW,,,004,M,00.1,N,,*61
$IIVLW,01522,N,000.0,N*57
$IIDPT,011.5,-1.0,*45
$IIGLL,4629.684,N,00640.971,E,171438,A,A*56
$IIHDG,004,,,01,E*17
$IIMTW,+15.0,C*3C
$IIVHW,,,003,M,00.1,N,,*66
$IIVLW,01522,N,000.0,N*57
$IIDPT,011.5,-1.0,*45
$IIHDG,003,,,01,E*10
$IIMTW,+15.0,C*3C
$IIRMC,171443,A,4629.688,N,00640.972,E,00.0,000,190614,01,E,A*03
$IIVHW,,,003,M,00.1,N,,*66
$IIVLW,01522,N,000.0,N*57
$IIDPT,011.5,-1.0,*45
$IIGLL,4629.688,N,00640.972,E,171443,A,A*55
$IIHDG,003,,,01,E*10
$IIMTW,+15.0,C*3C
$IIRMC,171444,A,4629.688,N,00640.973,E,01.0,337,190614,01,E,A*03
$IIVHW,,,002,M,00.1,N,,*67
$IIVLW,01522,N,000.0,N*57
$IIDPT,011.5,-1.0,*45
$IIGLL,4629.688,N,00640.973,E,171444,A,A*53
$IIHDG,002,,,01,E*11
$IIMTW,+15.0,C*3C
$IIRMC,171445,A,4629.689,N,00640.973,E,01.0,338,190614,01,E,A*0C
$IIVHW,,,001,M,00.1,N,,*64
$IIVLW,01522,N,000.0,N*57
$IIDPT,011.5,-1.0,*45
$IIGLL,4629.689,N,00640.973,E,171445,A,A*53
$IIHDG,001,,,01,E*12
$IIMTW,+15.0,C*3C
$IIRMC,171446,A,4629.689,N,00640.972,E,01.8,004,190614,01,E,A*0A
$IIVHW,,,000,M,00.0,N,,*64
$IIVLW,01522,N,000.0,N*57
$IIDPT,011.5,-1.0,*45
$IIGLL,4629.689,N,00640.972,E,171446,A,A*51
$IIHDG,000,,,01,E*13
$IIMTW,+15.0,C*3C
$IIRMC,171447,A,4629.689,N,00640.972,E,01.5,346,190614,01,E,A*03
$IIVHW,,,359,M,00.1,N,,*6A
$IIVLW,01522,N,000.0,N*57
$IIDPT,011.4,-1.0,*44
$IIGLL,4629.689,N,00640.972,E,171447,A,A*50
$IIHDG,359,,,01,E*1C
$IIMTW,+15.0,C*3C
$IIRMC,171448,A,4629.690,N,00640.972,E,01.3,352,190614,01,E,A*07
$IIVHW,,,358,M,00.1,N,,*6B
$IIVLW,01522,N,000.0,N*57
$IIDPT,011.4,-1.0,*44
$IIGLL,4629.690,N,00640.972,E,171448,A,A*57
$IIHDG,358,,,01,E*1D
$IIMTW,+16.0,C*3F
$IIRMC,171449,A,4629.691,N,00640.972,E,01.2,346,190614,01,E,A*03
$IIVHW,,,358,M,00.1,N,,*6B
$IIVLW,01522,N,000.0,N*57
$IIDPT,011.3,-1.0,*43
$IIGLL,4629.691,N,00640.972,E,171449,A,A*57
$IIHDG,358,,,01,E*1D
$IIMTW,+15.5,C*39
$IIRMC,171450,A,4629.692,N,00640.971,E,01.2,353,190614,01,E,A*0F
$IIVHW,,,357,M,00.1,N,,*64
$IIVLW,01522,N,000.0,N*57
$IIDPT,011.2,-1.0,*42
$IIGLL,4629.692,N,00640.971,E,171450,A,A*5F
$IIHDG,357,,,01,E*12
$IIMTW,+15.5,C*39
$IIRMC,171451,A,4629.691,N,00640.972,E,01.2,349,190614,01,E,A*05
$IIVHW,,,357,M,00.1,N,,*64
$IIVLW,01522,N,000.0,N*57
$IIDPT,011.2,-1.0,*42
$IIGLL,4629.691,N,00640.972,E,171451,A,A*5E
$IIHDG,357,,,01,E*12
$IIMTW,+15.5,C*39
$IIRMC,171453,A,4629.692,N,00640.973,E,01.1,357,190614,01,E,A*09
$IIVHW,,,357,M,00.0,N,,*65
$IIVLW,01522,N,000.0,N*57
$IIDPT,011.2,-1.0,*42
$IIGLL,4629.692,N,00640.973,E,171453,A,A*5E
$IIHDG,357,,,01,E*12
$IIMTW,+15.5,C*39
$IIRMC,171454,A,4629.693,N,00640.972,E,01.2,354,190614,01,E,A*0E
$IIVHW,,,357,M,00.0,N,,*65
$IIVLW,01522,N,000.0,N*57
$IIDPT,011.2,-1.0,*42
$IIGLL,4629.693,N,00640.972,E,171454,A,A*59
$IIHDG,357,,,01,E*12
$IIMTW,+15.5,C*39
$IIRMC,171455,A,4629.692,N,00640.972,E,01.0,350,190614,01,E,A*08
$IIVHW,,,357,M,00.0,N,,*65
$IIVLW,01522,N,000.0,N*57
$IIDPT,011.2,-1.0,*42
$IIGLL,4629.692,N,00640.972,E,171455,A,A*59
$IIHDG,357,,,01,E*12
$IIMTW,+16.0,C*3F
$IIRMC,171456,A,4629.692,N,00640.972,E,01.2,352,190614,01,E,A*0B
$IIVHW,,,358,M,00.0,N,,*6A
$IIVLW,01522,N,000.0,N*57
$IIDPT,011.2,-1.0,*42
$IIGLL,4629.692,N,00640.972,E,171456,A,A*5A
$IIHDG,358,,,01,E*1D
$IIMTW,+15.5,C*39
$IIRMC,171456,A,4629.692,N,00640.972,E,01.2,352,190614,01,E,A*0B
$IIVHW,,,358,M,00.0,N,,*6A
$IIVLW,01522,N,000.0,N*57
$IIDPT,011.2,-1.0,*42
$IIGLL,4629.692,N,00640.972,E,171456,A,A*5A
$IIHDG,358,,,01,E*1D
$IIMTW,+15.5,C*39
$IIRMC,171458,A,4629.693,N,00640.971,E,01.1,359,190614,01,E,A*0F
$IIVHW,,,359,M,00.0,N,,*6B
$IIVLW,01522,N,000.0,N*57
$IIDPT,011.2,-1.0,*42
$IIGLL,4629.693,N,00640.971,E,171458,A,A*56
$IIHDG,359,,,01,E*1C
$IIMTW,+15.5,C*39
$IIRMC,171459,A,4629.693,N,00640.971,E,01.2,351,190614,01,E,A*05
$IIVHW,,,359,M,00.0,N,,*6B
$IIVLW,01522,N,000.0,N*57
$IIDPT,011.3,-1.0,*43
$IIGLL,4629.693,N,00640.971,E,171459,A,A*57
$IIHDG,359,,,01,E*1C
$IIMTW,+15.5,C*39
$IIRMC,171459,A,4629.693,N,00640.971,E,01.2,351,190614,01,E,A*05
$IIVHW,,,000,M,00.0,N,,*64
$IIVLW,01522,N,000.0,N*57
$IIDPT,011.4,-1.0,*44
$IIGLL,4629.693,N,00640.971,E,171459,A,A*57
$IIHDG,000,,,01,E*13
$IIMTW,+15.5,C*39
$IIRMC,171501,A,4629.694,N,00640.971,E,01.1,356,190614,01,E,A*0A
$IIVHW,,,002,M,00.0,N,,*66
$IIVLW,01522,N,000.0,N*57
$IIDPT,011.4,-1.0,*44
$IIGLL,4629.694,N,00640.971,E,171501,A,A*5C
$IIHDG,002,,,01,E*11
$IIMTW,+15.5,C*39
$IIRMC,171502,A,4629.694,N,00640.971,E,01.2,001,190614,01,E,A*0B
$IIVHW,,,002,M,00.0,N,,*66
$IIVLW,01522,N,000.0,N*57
$IIDPT,011.4,-1.0,*44
$IIGLL,4629.694,N,00640.971,E,171502,A,A*5F
$IIHDG,002,,,01,E*11
$IIMTW,+15.5,C*39
$IIRMC,171503,A,4629.694,N,00640.971,E,01.1,350,190614,01,E,A*0E
$IIVHW,,,002,M,00.0,N,,*66
$IIVLW,01522,N,000.0,N*57
$IIDPT,011.4,-1.0,*44
$IIGLL,4629.694,N,00640.971,E,171503,A,A*5E
$IIHDG,002,,,01,E*11
$IIMTW,+15.5,C*39
$IIRMC,171504,A,4629.695,N,00640.971,E,01.4,006,190614,01,E,A*0D
$IIVHW,,,003,M,00.0,N,,*67
$IIVLW,01522,N,000.0,N*57
$IIDPT,011.2,-1.0,*42
$IIGLL,4629.695,N,00640.971,E,171504,A,A*58
$IIHDG,003,,,01,E*10
$IIMTW,+15.5,C*39
$IIRMC,171505,A,4629.695,N,00640.971,E,01.5,357,190614,01,E,A*0A
$IIVHW,,,002,M,00.0,N,,*66
$IIVLW,01522,N,000.0,N*57
$IIDPT,011.2,-1.0,*42
$IIGLL,4629.695,N,00640.971,E,171505,A,A*59
$IIHDG,002,,,01,E*11
$IIMTW,+15.5,C*39
$IIRMC,171506,A,4629.696,N,00640.971,E,01.3,002,190614,01,E,A*0F
$IIVHW,,,002,M,00.0,N,,*66
$IIVLW,01522,N,000.0,N*57
$IIDPT,011.2,-1.0,*42
$IIGLL,4629.696,N,00640.971,E,171506,A,A*59
$IIHDG,002,,,01,E*11
$IIMTW,+15.5,C*39
$IIRMC,171507,A,4629.696,N,00640.970,E,01.3,358,190614,01,E,A*03
$IIVHW,,,001,M,00.0,N,,*65
$IIVLW,01522,N,000.0,N*57
$IIDPT,011.0,-1.0,*40
$IIGLL,4629.696,N,00640.970,E,171507,A,A*59
$IIHDG,001,,,01,E*12
$IIMTW,+15.0,C*3C
$IIRMC,171508,A,4629.697,N,00640.971,E,01.4,359,190614,01,E,A*0A
$IIVHW,,,001,M,00.0,N,,*65
$IIVLW,01522,N,000.0,N*57
$IIDPT,011.1,-1.0,*41
$IIGLL,4629.697,N,00640.971,E,171508,A,A*56
$IIHDG,001,,,01,E*12
$IIMTW,+15.0,C*3C
$IIRMC,171509,A,4629.697,N,00640.971,E,01.1,359,190614,01,E,A*0E
$IIVHW,,,001,M,00.0,N,,*65
$IIVLW,01522,N,000.0,N*57
$IIDPT,011.1,-1.0,*41
$IIGLL,4629.697,N,00640.971,E,171509,A,A*57
$IIHDG,001,,,01,E*12
$IIMTW,+15.0,C*3C
$IIRMC,171510,A,4629.697,N,00640.971,E,01.4,357,190614,01,E,A*0D
$IIVHW,,,001,M,00.0,N,,*65
$IIVLW,01522,N,000.0,N*57
$IIDPT,011.1,-1.0,*41
$IIGLL,4629.697,N,00640.971,E,171510,A,A*5F
$IIHDG,001,,,01,E*12
$IIMTW,+15.0,C*3C
$IIRMC,171511,A,4629.698,N,00640.971,E,00.9,004,190614,01,E,A*0A
$IIVHW,,,002,M,00.0,N,,*66
$IIVLW,01522,N,000.0,N*57
$IIDPT,011.0,-1.0,*40
$IIGLL,4629.698,N,00640.971,E,171511,A,A*51
$IIHDG,002,,,01,E*11
$IIMTW,+15.0,C*3C
$IIRMC,171512,A,4629.698,N,00640.971,E,01.1,341,190614,01,E,A*02
$IIVHW,,,001,M,00.0,N,,*65
$IIVLW,01522,N,000.0,N*57
$IIDPT,011.0,-1.0,*40
$IIGLL,4629.698,N,00640.971,E,171512,A,A*52
$IIHDG,001,,,01,E*12
$IIMTW,+15.0,C*3C
$IIRMC,171513,A,4629.698,N,00640.971,E,01.0,007,190614,01,E,A*03
$IIVHW,,,002,M,00.0,N,,*66
$IIVLW,01522,N,000.0,N*57
$IIDPT,011.0,-1.0,*40
$IIGLL,4629.698,N,00640.971,E,171513,A,A*53
$IIHDG,002,,,01,E*11
$IIMTW,+15.0,C*3C
$IIRMC,171514,A,4629.699,N,00640.971,E,01.1,343,190614,01,E,A*07
$IIVHW,,,002,M,00.0,N,,*66
$IIVLW,01522,N,000.0,N*57
$IIDPT,011.0,-1.0,*40
$IIGLL,4629.699,N,00640.971,E,171514,A,A*55
$IIHDG,002,,,01,E*11
$IIMTW,+15.0,C*3C
$IIRMC,171515,A,4629.699,N,00640.970,E,00.0,343,190614,01,E,A*07
$IIVHW,,,001,M,00.0,N,,*65
$IIVLW,01522,N,000.0,N*57
$IIDPT,011.0,-1.0,*40
$IIGLL,4629.699,N,00640.970,E,171515,A,A*55
$IIHDG,001,,,01,E*12
$IIMTW,+15.0,C*3C
$IIRMC,171516,A,4629.699,N,00640.970,E,01.1,359,190614,01,E,A*0F
$IIVHW,,,001,M,00.0,N,,*65
$IIVLW,01522,N,000.0,N*57
$IIDPT,011.0,-1.0,*40
$IIGLL,4629.699,N,00640.970,E,171516,A,A*56
$IIHDG,001,,,01,E*12
$IIMTW,+15.0,C*3C
$IIRMC,171517,A,4629.699,N,00640.970,E,00.9,345,190614,01,E,A*0A
$IIVHW,,,001,M,00.0,N,,*65
$IIVLW,01522,N,000.0,N*57
$IIDPT,011.0,-1.0,*40
$IIGLL,4629.700,N,00640.971,E,171518,A,A*58
$IIHDG,001,,,01,E*12
$IIMTW,+15.0,C*3C
$IIRMC,171518,A,4629.700,N,00640.971,E,01.1,000,190614,01,E,A*0E
$IIVHW,,,002,M,00.0,N,,*66
$IIVLW,01522,N,000.0,N*57
$IIDPT,011.1,-1.0,*41
$IIGLL,4629.700,N,00640.970,E,171519,A,A*58
$IIHDG,002,,,01,E*11
$IIMTW,+15.0,C*3C
$IIRMC,171519,A,4629.700,N,00640.970,E,01.1,001,190614,01,E,A*0F
$IIVHW,,,002,M,00.0,N,,*66
$IIVLW,01522,N,000.0,N*57
$IIDPT,011.2,-1.0,*42
$IIGLL,4629.700,N,00640.970,E,171520,A,A*52
$IIHDG,002,,,01,E*11
$IIMTW,+15.0,C*3C
$IIRMC,171520,A,4629.700,N,00640.970,E,01.2,000,190614,01,E,A*07
$IIVHW,,,003,M,00.0,N,,*67
$IIVLW,01522,N,000.0,N*57
$IIDPT,011.2,-1.0,*42
$IIGLL,4629.700,N,00640.970,E,171521,A,A*53
$IIHDG,003,,,01,E*10
$IIMTW,+15.0,C*3C
$IIRMC,171521,A,4629.700,N,00640.970,E,00.9,352,190614,01,E,A*08
$IIVHW,,,003,M,00.0,N,,*67
$IIVLW,01522,N,000.0,N*57
$IIDPT,011.2,-1.0,*42
$IIGLL,4629.701,N,00640.970,E,171522,A,A*51
$IIHDG,003,,,01,E*10
$IIMTW,+15.0,C*3C
$IIRMC,171522,A,4629.701,N,00640.970,E,00.9,352,190614,01,E,A*0A
$IIVHW,,,003,M,00.0,N,,*67
$IIVLW,01522,N,000.0,N*57
$IIDPT,011.2,-1.0,*42
$IIGLL,4629.701,N,00640.970,E,171523,A,A*50
$IIHDG,003,,,01,E*10
$IIMTW,+15.0,C*3C
$IIRMC,171523,A,4629.701,N,00640.970,E,00.9,351,190614,01,E,A*08
$IIVHW,,,003,M,00.0,N,,*67
$IIVLW,01522,N,000.0,N*57
$IIDPT,011.3,-1.0,*43
$IIGLL,4629.701,N,00640.970,E,171523,A,A*50
$IIHDG,003,,,01,E*10
$IIMTW,+15.0,C*3C
$IIRMC,171523,A,4629.701,N,00640.970,E,00.9,351,190614,01,E,A*08
$IIVHW,,,003,M,00.0,N,,*67
$IIVLW,01522,N,000.0,N*57
$IIDPT,011.3,-1.0,*43
$IIGLL,4629.702,N,00640.970,E,171525,A,A*55
$IIHDG,003,,,01,E*10
$IIMTW,+15.0,C*3C
$IIRMC,171525,A,4629.702,N,00640.970,E,01.0,351,190614,01,E,A*05
$IIVHW,,,003,M,00.0,N,,*67
$IIVLW,01522,N,000.0,N*57
$IIDPT,011.2,-1.0,*42
$IIGLL,4629.702,N,00640.970,E,171526,A,A*56
$IIHDG,003,,,01,E*10
$IIMTW,+15.0,C*3C
$IIRMC,171526,A,4629.702,N,00640.970,E,01.0,343,190614,01,E,A*05
$IIVHW,,,002,M,00.0,N,,*66
$IIVLW,01522,N,000.0,N*57
$IIDPT,011.2,-1.0,*42
$IIGLL,4629.702,N,00640.970,E,171527,A,A*57
$IIHDG,002,,,01,E*11
$IIMTW,+15.0,C*3C
$IIRMC,171527,A,4629.702,N,00640.970,E,01.0,355,190614,01,E,A*03
$IIVHW,,,000,M,00.0,N,,*64
$IIVLW,01522,N,000.0,N*57
$IIDPT,011.3,-1.0,*43
$IIGLL,4629.703,N,00640.969,E,171529,A,A*50
$IIHDG,359,,,01,E*1C
$IIMTW,+15.0,C*3C
$IIRMC,171529,A,4629.703,N,00640.969,E,01.0,347,190614,01,E,A*07
$IIVHW,,,359,M,00.0,N,,*6B
$IIVLW,01522,N,000.0,N*57
$IIDPT,011.3,-1.0,*43
$IIGLL,4629.703,N,00640.969,E,171530,A,A*58
$IIHDG,356,,,01,E*13
$IIMTW,+15.0,C*3C
$IIRMC,171530,A,4629.703,N,00640.969,E,01.2,342,190614,01,E,A*08
$IIVHW,,,356,M,00.0,N,,*64
$IIVLW,01522,N,000.0,N*57
$IIDPT,011.3,-1.0,*43
$IIGLL,4629.703,N,00640.969,E,171531,A,A*59
$IIHDG,354,,,01,E*11
$IIMTW,+15.0,C*3C
$IIRMC,171531,A,4629.703,N,00640.969,E,01.1,342,190614,01,E,A*0A
$IIVHW,,,354,M,00.0,N,,*66
$IIVLW,01522,N,000.0,N*57
$IIDPT,011.3,-1.0,*43
$IIGLL,4629.704,N,00640.969,E,171532,A,A*5D
$IIHDG,351,,,01,E*14
$IIMTW,+15.0,C*3C
$IIRMC,171532,A,4629.704,N,00640.969,E,01.4,343,190614,01,E,A*0A
$IIVHW,,,351,M,00.0,N,,*63
$IIVLW,01522,N,000.0,N*57
$IIDPT,011.3,-1.0,*43
$IIGLL,4629.704,N,00640.969,E,171533,A,A*5C
$IIHDG,351,,,01,E*14
$IIMTW,+15.0,C*3C
$IIRMC,171533,A,4629.704,N,00640.969,E,01.4,355,190614,01,E,A*0C
$IIVHW,,,351,M,00.0,N,,*63
$IIVLW,01522,N,000.0,N*57
$IIDPT,011.2,-1.0,*42
$IIGLL,4629.704,N,00640.969,E,171534,A,A*5B
$IIHDG,348,,,01,E*1C
$IIMTW,+15.0,C*3C
$IIRMC,171534,A,4629.704,N,00640.969,E,01.1,330,190614,01,E,A*0D
$IIVHW,,,348,M,00.0,N,,*6B
$IIVLW,01522,N,000.0,N*57
$IIDPT,011.2,-1.0,*42
$IIGLL,4629.705,N,00640.968,E,171535,A,A*5A
$IIHDG,347,,,01,E*13
$IIMTW,+15.0,C*3C
$IIRMC,171535,A,4629.705,N,00640.968,E,01.3,329,190614,01,E,A*06
$IIVHW,,,347,M,00.0,N,,*64
$IIVLW,01522,N,000.0,N*57
$IIDPT,011.2,-1.0,*42
$IIGLL,4629.705,N,00640.968,E,171536,A,A*59
$IIHDG,344,,,01,E*10
$IIMTW,+15.0,C*3C
$IIRMC,171536,A,4629.705,N,00640.968,E,01.2,334,190614,01,E,A*08
$IIVHW,,,344,M,00.0,N,,*67
$IIVLW,01522,N,000.0,N*57
$IIDPT,011.2,-1.0,*42
$IIGLL,4629.705,N,00640.968,E,171537,A,A*58
$IIHDG,343,,,01,E*17
$IIMTW,+15.0,C*3C
$IIRMC,171537,A,4629.705,N,00640.968,E,01.2,320,190614,01,E,A*0C
$IIVHW,,,343,M,00.0,N,,*60
$IIVLW,01522,N,000.0,N*57
$IIDPT,011.2,-1.0,*42
$IIGLL,4629.706,N,00640.968,E,171538,A,A*54
$IIHDG,341,,,01,E*15
$IIMTW,+15.0,C*3C
$IIRMC,171538,A,4629.706,N,00640.968,E,01.0,008,190614,01,E,A*0B
$IIVHW,,,341,M,00.0,N,,*62
$IIVLW,01522,N,000.0,N*57
$IIDPT,011.2,-1.0,*42
$IIGLL,4629.706,N,00640.968,E,171539,A,A*55
$IIHDG,340,,,01,E*14
$IIMTW,+15.0,C*3C
$IIRMC,171539,A,4629.706,N,00640.968,E,00.8,347,190614,01,E,A*0B
$IIVHW,,,340,M,00.0,N,,*63
$IIVLW,01522,N,000.0,N*57
$IIDPT,011.2,-1.0,*42
$IIGLL,4629.706,N,00640.968,E,171539,A,A*55
$IIHDG,339,,,01,E*1A
$IIMTW,+15.0,C*3C
$IIRMC,171539,A,4629.706,N,00640.968,E,00.8,347,190614,01,E,A*0B
$IIVHW,,,339,M,00.0,N,,*6D
$IIVLW,01522,N,000.0,N*57
$IIDPT,011.2,-1.0,*42
$IIGLL,4629.706,N,00640.968,E,171541,A,A*5A
$IIHDG,339,,,01,E*1A
$IIMTW,+15.0,C*3C
$IIRMC,171541,A,4629.706,N,00640.968,E,00.9,318,190614,01,E,A*0F
$IIVHW,,,339,M,00.0,N,,*6D
$IIVLW,01522,N,000.0,N*57
$IIDPT,011.4,-1.0,*44
$IIGLL,4629.706,N,00640.968,E,171542,A,A*59
$IIHDG,339,,,01,E*1A
$IIMTW,+15.0,C*3C
$IIRMC,171542,A,4629.706,N,00640.968,E,00.7,329,190614,01,E,A*00
$IIVHW,,,339,M,00.0,N,,*6D
$IIVLW,01522,N,000.0,N*57
$IIDPT,011.4,-1.0,*44
$IIGLL,4629.706,N,00640.967,E,171543,A,A*57
$IIHDG,340,,,01,E*14
$IIMTW,+15.0,C*3C
$IIRMC,171543,A,4629.706,N,00640.967,E,00.7,325,190614,01,E,A*02
$IIVHW,,,340,M,00.0,N,,*63
$IIVLW,01522,N,000.0,N*57
$IIDPT,011.4,-1.0,*44
$IIGLL,4629.706,N,00640.967,E,171543,A,A*57
$IIHDG,341,,,01,E*15
$IIMTW,+15.0,C*3C
$IIRMC,171543,A,4629.706,N,00640.967,E,00.7,325,190614,01,E,A*02
$IIVHW,,,341,M,00.0,N,,*62
$IIVLW,01522,N,000.0,N*57
$IIDPT,011.4,-1.0,*44
$IIGLL,4629.707,N,00640.967,E,171545,A,A*50
$IIHDG,341,,,01,E*15
$IIMTW,+15.0,C*3C
$IIRMC,171545,A,4629.707,N,00640.967,E,00.8,339,190614,01,E,A*07
$IIVHW,,,341,M,00.0,N,,*62
$IIVLW,01522,N,000.0,N*57
$IIDPT,011.4,-1.0,*44
$IIGLL,4629.707,N,00640.967,E,171546,A,A*53
$IIHDG,343,,,01,E*17
$IIMTW,+15.0,C*3C
$IIRMC,171546,A,4629.707,N,00640.967,E,00.8,349,190614,01,E,A*03
$IIVHW,,,343,M,00.0,N,,*60
$IIVLW,01522,N,000.0,N*57
$IIDPT,011.2,-1.0,*42
$IIGLL,4629.708,N,00640.967,E,171547,A,A*5D
$IIHDG,345,,,01,E*11
$IIMTW,+15.0,C*3C
$IIRMC,171547,A,4629.708,N,00640.967,E,00.9,355,190614,01,E,A*01
$IIVHW,,,345,M,00.0,N,,*66
$IIVLW,01522,N,000.0,N*57
$IIDPT,011.2,-1.0,*42
$IIGLL,4629.708,N,00640.967,E,171548,A,A*52
$IIHDG,348,,,01,E*1C
$IIMTW,+15.0,C*3C
$IIRMC,171548,A,4629.708,N,00640.967,E,00.9,344,190614,01,E,A*0E
$IIVHW,,,348,M,00.0,N,,*6B
$IIVLW,01522,N,000.0,N*57
$IIDPT,011.2,-1.0,*42
$IIGLL,4629.709,N,00640.968,E,171549,A,A*5D
$IIHDG,352,,,01,E*17
$IIMTW,+15.0,C*3C
$IIRMC,171550,A,4629.709,N,00640.967,E,01.0,359,190614,01,E,A*02
$IIVHW,,,352,M,00.0,N,,*60
$IIVLW,01522,N,000.0,N*57
$IIDPT,011.2,-1.0,*42
$IIGLL,4629.709,N,00640.967,E,171550,A,A*5A
$IIHDG,355,,,01,E*10
$IIMTW,+15.0,C*3C
$IIRMC,171551,A,4629.709,N,00640.967,E,01.0,000,190614,01,E,A*0C
$IIVHW,,,355,M,00.0,N,,*67
$IIVLW,01522,N,000.0,N*57
$IIDPT,011.1,-1.0,*41
$IIGLL,4629.709,N,00640.967,E,171551,A,A*5B
$IIHDG,357,,,01,E*12
$IIMTW,+15.0,C*3C
$IIRMC,171552,A,4629.709,N,00640.967,E,00.6,009,190614,01,E,A*01
$IIVHW,,,357,M,00.0,N,,*65
$IIVLW,01522,N,000.0,N*57
$IIDPT,011.1,-1.0,*41
$IIGLL,4629.709,N,00640.967,E,171552,A,A*58
$IIHDG,000,,,01,E*13
$IIMTW,+15.0,C*3C
$IIRMC,171553,A,4629.710,N,00640.967,E,00.8,345,190614,01,E,A*0D
$IIVHW,,,000,M,00.0,N,,*64
$IIVLW,01522,N,000.0,N*57
$IIDPT,011.1,-1.0,*41
$IIGLL,4629.710,N,00640.967,E,171553,A,A*51
$IIHDG,002,,,01,E*11
$IIMTW,+15.0,C*3C
$IIRMC,171554,A,4629.710,N,00640.967,E,00.9,020,190614,01,E,A*0B
$IIVHW,,,002,M,00.0,N,,*66
$IIVLW,01522,N,000.0,N*57
$IIDPT,011.1,-1.0,*41
$IIGLL,4629.710,N,00640.967,E,171554,A,A*56
$IIHDG,005,,,01,E*16
$IIMTW,+15.0,C*3C
$IIRMC,171555,A,4629.710,N,00640.967,E,00.6,020,190614,01,E,A*05
$IIVHW,,,005,M,00.0,N,,*61
$IIVLW,01522,N,000.0,N*57
$IIDPT,010.9,-1.0,*48
$IIGLL,4629.710,N,00640.967,E,171555,A,A*57
$IIHDG,006,,,01,E*15
$IIMTW,+15.0,C*3C
$IIRMC,171556,A,4629.710,N,00640.967,E,00.7,018,190614,01,E,A*0C
$IIVHW,,,006,M,00.0,N,,*62
$IIVLW,01522,N,000.0,N*57
$IIDPT,010.9,-1.0,*48
$IIGLL,4629.710,N,00640.967,E,171556,A,A*54
$IIHDG,008,,,01,E*1B
$IIMTW,+15.0,C*3C
$IIRMC,171557,A,4629.710,N,00640.967,E,00.7,006,190614,01,E,A*02
$IIVHW,,,008,M,00.0,N,,*6C
$IIVLW,01522,N,000.0,N*57
$IIDPT,010.9,-1.0,*48
$IIGLL,4629.710,N,00640.967,E,171557,A,A*55
$IIHDG,009,,,01,E*1A
$IIMTW,+15.0,C*3C
$IIRMC,171558,A,4629.711,N,00640.968,E,00.8,014,190614,01,E,A*0F
$IIVHW,,,009,M,00.0,N,,*6D
$IIVLW,01522,N,000.0,N*57
$IIDPT,010.9,-1.0,*48
$IIGLL,4629.711,N,00640.968,E,171558,A,A*54
$IIHDG,011,,,01,E*13
$IIMTW,+15.0,C*3C
$IIRMC,171558,A,4629.711,N,00640.968,E,00.8,014,190614,01,E,A*0F
$IIVHW,,,011,M,00.0,N,,*64
$IIVLW,01522,N,000.0,N*57
$IIDPT,010.9,-1.0,*48
$IIGLL,4629.711,N,00640.968,E,171558,A,A*54
$IIHDG,012,,,01,E*10
$IIMTW,+15.0,C*3C
$IIRMC,171600,A,4629.711,N,00640.968,E,00.5,015,190614,01,E,A*0D
$IIVHW,,,012,M,00.0,N,,*67
$IIVLW,01522,N,000.0,N*57
$IIDPT,010.8,-1.0,*49
$IIGLL,4629.711,N,00640.968,E,171600,A,A*5A
$IIHDG,013,,,01,E*11
$IIMTW,+15.0,C*3C
$IIRMC,171601,A,4629.711,N,00640.968,E,00.6,022,190614,01,E,A*0B
$IIVHW,,,013,M,00.0,N,,*66
$IIVLW,01522,N,000.0,N*57
$IIDPT,010.9,-1.0,*48
$IIGLL,4629.711,N,00640.968,E,171601,A,A*5B
$IIHDG,014,,,01,E*16
$IIMTW,+15.0,C*3C
$IIRMC,171602,A,4629.711,N,00640.968,E,00.6,358,190614,01,E,A*06
$IIVHW,,,014,M,00.0,N,,*61
$IIVLW,01522,N,000.0,N*57
$IIDPT,011.1,-1.0,*41
$IIGLL,4629.711,N,00640.968,E,171602,A,A*58
$IIHDG,015,,,01,E*17
$IIMTW,+15.0,C*3C
$IIRMC,171603,A,4629.711,N,00640.968,E,00.7,035,190614,01,E,A*0E
$IIVHW,,,015,M,00.0,N,,*60
$IIVLW,01522,N,000.0,N*57
$IIDPT,011.1,-1.0,*41
$IIGLL,4629.711,N,00640.968,E,171603,A,A*59
$IIHDG,015,,,01,E*17
$IIMTW,+15.0,C*3C
$IIRMC,171604,A,4629.711,N,00640.968,E,00.6,035,190614,01,E,A*08
$IIVHW,,,015,M,00.0,N,,*60
$IIVLW,01522,N,000.0,N*57
$IIDPT,011.1,-1.0,*41
$IIGLL,4629.711,N,00640.968,E,171604,A,A*5E
$IIHDG,015,,,01,E*17
$IIMTW,+15.0,C*3C
$IIRMC,171604,A,4629.711,N,00640.968,E,00.6,035,190614,01,E,A*08
$IIVHW,,,015,M,00.0,N,,*60
$IIVLW,01522,N,000.0,N*57
$IIDPT,011.1,-1.0,*41
$IIGLL,4629.711,N,00640.968,E,171604,A,A*5E
$IIHDG,015,,,01,E*17
$IIMTW,+15.0,C*3C
$IIRMC,171606,A,4629.711,N,00640.968,E,00.6,017,190614,01,E,A*0A
$IIVHW,,,015,M,00.0,N,,*60
$IIVLW,01522,N,000.0,N*57
$IIDPT,011.1,-1.0,*41
$IIGLL,4629.711,N,00640.968,E,171606,A,A*5C
$IIHDG,015,,,01,E*17
$IIMTW,+15.0,C*3C
$IIRMC,171607,A,4629.712,N,00640.968,E,00.6,017,190614,01,E,A*08
$IIVHW,,,015,M,00.0,N,,*60
$IIVLW,01522,N,000.0,N*57
$IIDPT,011.1,-1.0,*41
$IIGLL,4629.712,N,00640.968,E,171607,A,A*5E
$IIHDG,015,,,01,E*17
$IIMTW,+15.0,C*3C
$IIRMC,171608,A,4629.712,N,00640.968,E,00.6,018,190614,01,E,A*08
$IIVHW,,,015,M,00.0,N,,*60
$IIVLW,01522,N,000.0,N*57
$IIDPT,011.0,-1.0,*40
$IIGLL,4629.712,N,00640.968,E,171608,A,A*51
$IIHDG,015,,,01,E*17
$IIMTW,+15.0,C*3C
$IIRMC,171608,A,4629.712,N,00640.968,E,00.6,018,190614,01,E,A*08
$IIVHW,,,015,M,00.0,N,,*60
$IIVLW,01522,N,000.0,N*57
$IIDPT,010.9,-1.0,*48
$IIGLL,4629.712,N,00640.968,E,171608,A,A*51
$IIHDG,015,,,01,E*17
$IIMTW,+15.0,C*3C
$IIRMC,171610,A,4629.712,N,00640.968,E,00.6,018,190614,01,E,A*01
$IIVHW,,,015,M,00.0,N,,*60
$IIVLW,01522,N,000.0,N*57
$IIDPT,010.7,-1.0,*46
$IIGLL,4629.712,N,00640.968,E,171610,A,A*58
$IIHDG,016,,,01,E*14
$IIMTW,+15.0,C*3C
$IIRMC,171611,A,4629.712,N,00640.968,E,00.8,029,190614,01,E,A*0C
$IIVHW,,,016,M,00.0,N,,*63
$IIVLW,01522,N,000.0,N*57
$IIDPT,010.7,-1.0,*46
$IIGLL,4629.712,N,00640.968,E,171611,A,A*59
$IIHDG,017,,,01,E*15
$IIMTW,+15.0,C*3C
$IIRMC,171612,A,4629.712,N,00640.968,E,00.6,029,190614,01,E,A*01
$IIVHW,,,017,M,00.0,N,,*62
$IIVLW,01522,N,000.0,N*57
$IIDPT,010.7,-1.0,*46
$IIGLL,4629.712,N,00640.968,E,171612,A,A*5A
$IIHDG,017,,,01,E*15
$IIMTW,+15.0,C*3C
$IIRMC,171613,A,4629.712,N,00640.968,E,00.5,029,190614,01,E,A*03
$IIVHW,,,017,M,00.0,N,,*62
$IIVLW,01522,N,000.0,N*57
$IIDPT,010.7,-1.0,*46
$IIGLL,4629.712,N,00640.968,E,171613,A,A*5B
$IIHDG,017,,,01,E*15
$IIMTW,+15.0,C*3C
$IIRMC,171614,A,4629.712,N,00640.968,E,00.8,039,190614,01,E,A*08
$IIVHW,,,017,M,00.0,N,,*62
$IIVLW,01522,N,000.0,N*57
$IIDPT,010.7,-1.0,*46
$IIGLL,4629.712,N,00640.968,E,171614,A,A*5C
$IIHDG,017,,,01,E*15
$IIMTW,+15.0,C*3C
$IIRMC,171615,A,4629.712,N,00640.969,E,00.0,039,190614,01,E,A*00
$IIVHW,,,017,M,00.0,N,,*62
$IIVLW,01522,N,000.0,N*57
$IIDPT,010.9,-1.0,*48
$IIGLL,4629.712,N,00640.969,E,171615,A,A*5C
$IIHDG,017,,,01,E*15
$IIMTW,+15.0,C*3C
$IIRMC,171616,A,4629.712,N,00640.969,E,00.9,028,190614,01,E,A*0A
$IIVHW,,,017,M,00.0,N,,*62
$IIVLW,01522,N,000.0,N*57
$IIDPT,011.0,-1.0,*40
$IIGLL,4629.712,N,00640.969,E,171616,A,A*5F
$IIHDG,017,,,01,E*15
$IIMTW,+15.0,C*3C
$IIRMC,171617,A,4629.713,N,00640.969,E,00.6,048,190614,01,E,A*03
$IIVHW,,,017,M,00.0,N,,*62
$IIVLW,01522,N,000.0,N*57
$IIDPT,011.0,-1.0,*40
$IIGLL,4629.713,N,00640.969,E,171617,A,A*5F
$IIHDG,017,,,01,E*15
$IIMTW,+15.0,C*3C
$IIRMC,171618,A,4629.712,N,00640.968,E,00.7,018,190614,01,E,A*08
$IIVHW,,,017,M,00.0,N,,*62
$IIVLW,01522,N,000.0,N*57
$IIDPT,011.0,-1.0,*40
$IIGLL,4629.712,N,00640.968,E,171618,A,A*50
$IIHDG,017,,,01,E*15
$IIMTW,+15.0,C*3C
$IIRMC,171619,A,4629.713,N,00640.968,E,00.7,040,190614,01,E,A*05
$IIVHW,,,017,M,00.0,N,,*62
$IIVLW,01522,N,000.0,N*57
$IIDPT,011.0,-1.0,*40
$IIGLL,4629.713,N,00640.968,E,171619,A,A*50
$IIHDG,018,,,01,E*1A
$IIMTW,+15.0,C*3C
$IIRMC,171620,A,4629.713,N,00640.968,E,00.6,008,190614,01,E,A*02
$IIVHW,,,018,M,00.0,N,,*6D
$IIVLW,01522,N,000.0,N*57
$IIDPT,011.0,-1.0,*40
$IIGLL,4629.713,N,00640.968,E,171620,A,A*5A
$IIHDG,019,,,01,E*1B
$IIMTW,+15.0,C*3C
$IIRMC,171621,A,4629.713,N,00640.969,E,00.6,034,190614,01,E,A*0D
$IIVHW,,,019,M,00.1,N,,*6D
$IIVLW,01522,N,000.0,N*57
$IIDPT,011.1,-1.0,*41
$IIGLL,4629.713,N,00640.969,E,171621,A,A*5A
$IIHDG,019,,,01,E*1B
$IIMTW,+15.0,C*3C
$IIRMC,171622,A,4629.713,N,00640.969,E,00.6,034,190614,01,E,A*0E
$IIVHW,,,019,M,00.1,N,,*6D
$IIVLW,01522,N,000.0,N*57
$IIDPT,011.1,-1.0,*41
$IIGLL,4629.713,N,00640.969,E,171622,A,A*59
$IIHDG,019,,,01,E*1B
$IIMTW,+15.0,C*3C
$IIRMC,171623,A,4629.713,N,00640.969,E,00.9,035,190614,01,E,A*01
$IIVHW,,,019,M,00.1,N,,*6D
$IIVLW,01522,N,000.0,N*57
$IIDPT,011.1,-1.0,*41
$IIGLL,4629.713,N,00640.969,E,171623,A,A*58
$IIHDG,019,,,01,E*1B
$IIMTW,+15.0,C*3C
$IIRMC,171624,A,4629.713,N,00640.969,E,00.8,041,190614,01,E,A*04
$IIVHW,,,019,M,00.1,N,,*6D
$IIVLW,01522,N,000.0,N*57
$IIDPT,011.1,-1.0,*41
$IIGLL,4629.713,N,00640.969,E,171624,A,A*5F
$IIHDG,019,,,01,E*1B
$IIMTW,+15.0,C*3C
$IIRMC,171625,A,4629.713,N,00640.969,E,01.0,025,190614,01,E,A*0E
$IIVHW,,,019,M,00.0,N,,*6C
$IIVLW,01522,N,000.0,N*57
$IIDPT,011.0,-1.0,*40
$IIGLL,4629.713,N,00640.969,E,171625,A,A*5E
$IIHDG,019,,,01,E*1B
$IIMTW,+15.0,C*3C
$IIRMC,171626,A,4629.714,N,00640.969,E,00.8,032,190614,01,E,A*05
$IIVHW,,,019,M,00.0,N,,*6C
$IIVLW,01522,N,000.0,N*57
$IIDPT,011.0,-1.0,*40
$IIGLL,4629.714,N,00640.969,E,171626,A,A*5A
$IIHDG,019,,,01,E*1B
$IIMTW,+15.0,C*3C
$IIRMC,171627,A,4629.714,N,00640.969,E,00.0,032,190614,01,E,A*0C
$IIVHW,,,019,M,00.1,N,,*6D
$IIVLW,01522,N,000.0,N*57
$IIDPT,011.0,-1.0,*40
$IIGLL,4629.714,N,00640.969,E,171627,A,A*5B
$IIHDG,020,,,01,E*11
$IIMTW,+15.0,C*3C
$IIRMC,171628,A,4629.714,N,00640.969,E,00.0,032,190614,01,E,A*03
$IIVHW,,,020,M,00.2,N,,*64
$IIVLW,01522,N,000.0,N*57
$IIDPT,011.0,-1.0,*40
$IIGLL,4629.714,N,00640.969,E,171628,A,A*54
$IIHDG,019,,,01,E*1B
$IIMTW,+15.0,C*3C
$IIRMC,171629,A,4629.714,N,00640.969,E,01.0,029,190614,01,E,A*09
$IIVHW,,,019,M,00.2,N,,*6E
$IIVLW,01522,N,000.0,N*57
$IIDPT,010.9,-1.0,*48
$IIGLL,4629.714,N,00640.969,E,171629,A,A*55
$IIHDG,020,,,01,E*11
$IIMTW,+15.0,C*3C
$IIRMC,171630,A,4629.714,N,00640.970,E,00.0,029,190614,01,E,A*08
$IIVHW,,,020,M,00.4,N,,*62
$IIVLW,01522,N,000.0,N*57
$IIDPT,010.9,-1.0,*48
$IIGLL,4629.714,N,00640.970,E,171630,A,A*55
$IIHDG,018,,,01,E*1A
$IIMTW,+15.0,C*3C
$IIRMC,171631,A,4629.715,N,00640.970,E,01.0,011,190614,01,E,A*02
$IIVHW,,,018,M,00.3,N,,*6E
$IIVLW,01522,N,000.0,N*57
$IIDPT,010.9,-1.0,*48
$IIGLL,4629.715,N,00640.970,E,171631,A,A*55
$IIHDG,018,,,01,E*1A
$IIMTW,+15.0,C*3C
$IIRMC,171632,A,4629.715,N,00640.970,E,01.1,037,190614,01,E,A*04
$IIVHW,,,018,M,00.4,N,,*69
$IIVLW,01522,N,000.0,N*57
$IIDPT,010.9,-1.0,*48
$IIGLL,4629.715,N,00640.970,E,171632,A,A*56
$IIHDG,018,,,01,E*1A
$IIMTW,+15.0,C*3C
$IIRMC,171633,A,4629.715,N,00640.970,E,00.7,027,190614,01,E,A*03
$IIVHW,,,018,M,00.4,N,,*69
$IIVLW,01522,N,000.0,N*57
$IIDPT,010.9,-1.0,*48
$IIGLL,4629.715,N,00640.970,E,171633,A,A*57
$IIHDG,017,,,01,E*15
$IIMTW,+15.0,C*3C
$IIRMC,171634,A,4629.716,N,00640.971,E,01.3,019,190614,01,E,A*0E
$IIVHW,,,017,M,00.3,N,,*61
$IIVLW,01522,N,000.0,N*57
$IIDPT,010.9,-1.0,*48
$IIGLL,4629.716,N,00640.971,E,171634,A,A*52
$IIHDG,017,,,01,E*15
$IIMTW,+15.0,C*3C
$IIRMC,171635,A,4629.716,N,00640.971,E,01.2,037,190614,01,E,A*02
$IIVHW,,,017,M,00.2,N,,*60
$IIVLW,01522,N,000.0,N*57
$IIDPT,010.9,-1.0,*48
$IIGLL,4629.716,N,00640.971,E,171635,A,A*53
$IIHDG,016,,,01,E*14
$IIMTW,+15.0,C*3C
$IIRMC,171636,A,4629.716,N,00640.971,E,00.9,021,190614,01,E,A*0C
$IIVHW,,,016,M,00.2,N,,*61
$IIVLW,01522,N,000.0,N*57
$IIDPT,010.9,-1.0,*48
$IIGLL,4629.716,N,00640.971,E,171636,A,A*50
$IIHDG,015,,,01,E*17
$IIMTW,+15.0,C*3C
$IIRMC,171637,A,4629.717,N,00640.971,E,00.9,014,190614,01,E,A*0A
$IIVHW,,,015,M,00.1,N,,*61
$IIVLW,01522,N,000.0,N*57
$IIDPT,011.0,-1.0,*40
$IIGLL,4629.717,N,00640.971,E,171637,A,A*50
$IIHDG,015,,,01,E*17
$IIMTW,+15.0,C*3C
$IIRMC,171638,A,4629.717,N,00640.971,E,00.9,017,190614,01,E,A*06
$IIVHW,,,015,M,00.1,N,,*61
$IIVLW,01522,N,000.0,N*57
$IIDPT,011.0,-1.0,*40
$IIGLL,4629.717,N,00640.971,E,171638,A,A*5F
$IIHDG,015,,,01,E*17
$IIMTW,+15.0,C*3C
$IIRMC,171639,A,4629.717,N,00640.971,E,01.0,009,190614,01,E,A*00
$IIVHW,,,015,M,00.1,N,,*61
$IIVLW,01522,N,000.0,N*57
$IIDPT,011.0,-1.0,*40
$IIGLL,4629.717,N,00640.971,E,171639,A,A*5E
$IIHDG,014,,,01,E*16
$IIMTW,+15.0,C*3C
$IIRMC,171640,A,4629.717,N,00640.971,E,01.0,015,190614,01,E,A*03
$IIVHW,,,014,M,00.1,N,,*60
$IIVLW,01522,N,000.0,N*57
$IIDPT,010.9,-1.0,*48
$IIGLL,4629.717,N,00640.971,E,171640,A,A*50
$IIHDG,014,,,01,E*16
$IIMTW,+15.0,C*3C
$IIRMC,171641,A,4629.718,N,00640.971,E,01.0,016,190614,01,E,A*0E
$IIVHW,,,014,M,00.0,N,,*61
$IIVLW,01522,N,000.0,N*57
$IIDPT,010.9,-1.0,*48
$IIGLL,4629.718,N,00640.971,E,171641,A,A*5E
$IIHDG,012,,,01,E*10
$IIMTW,+15.0,C*3C
$IIRMC,171642,A,4629.718,N,00640.971,E,01.0,011,190614,01,E,A*0A
$IIVHW,,,012,M,00.0,N,,*67
$IIVLW,01522,N,000.0,N*57
$IIDPT,010.9,-1.0,*48
$IIGLL,4629.718,N,00640.971,E,171642,A,A*5D
$IIHDG,012,,,01,E*10
$IIMTW,+15.0,C*3C
$IIRMC,171643,A,4629.718,N,00640.971,E,01.2,012,190614,01,E,A*0A
$IIVHW,,,012,M,00.0,N,,*67
$IIVLW,01522,N,000.0,N*57
$IIDPT,011.0,-1.0,*40
$IIGLL,4629.718,N,00640.971,E,171643,A,A*5C
$IIHDG,012,,,01,E*10
$IIMTW,+15.0,C*3C
$IIRMC,171644,A,4629.718,N,00640.972,E,00.8,027,190614,01,E,A*03
$IIVHW,,,012,M,00.0,N,,*67
$IIVLW,01522,N,000.0,N*57
$IIDPT,011.2,-1.0,*42
$IIGLL,4629.718,N,00640.972,E,171644,A,A*58
$IIHDG,012,,,01,E*10
$IIMTW,+15.0,C*3C
$IIRMC,171645,A,4629.718,N,00640.972,E,00.8,015,190614,01,E,A*03
$IIVHW,,,012,M,00.0,N,,*67
$IIVLW,01522,N,000.0,N*57
$IIDPT,011.2,-1.0,*42
$IIGLL,4629.718,N,00640.972,E,171645,A,A*59
$IIHDG,014,,,01,E*16
$IIMTW,+15.0,C*3C
$IIRMC,171646,A,4629.719,N,00640.972,E,01.2,037,190614,01,E,A*0A
$IIVHW,,,014,M,00.0,N,,*61
$IIVLW,01522,N,000.0,N*57
$IIDPT,011.2,-1.0,*42
$IIGLL,4629.719,N,00640.972,E,171646,A,A*5B
$IIHDG,015,,,01,E*17
$IIMTW,+15.0,C*3C
$IIRMC,171647,A,4629.719,N,00640.972,E,00.4,037,190614,01,E,A*0C
$IIVHW,,,015,M,00.0,N,,*60
$IIVLW,01522,N,000.0,N*57
$IIDPT,011.2,-1.0,*42
$IIGLL,4629.719,N,00640.972,E,171647,A,A*5A
$IIHDG,015,,,01,E*17
$IIMTW,+15.0,C*3C
$IIRMC,171648,A,4629.719,N,00640.972,E,00.7,019,190614,01,E,A*0C
$IIVHW,,,015,M,00.0,N,,*60
$IIVLW,01522,N,000.0,N*57
$IIDPT,011.2,-1.0,*42
$IIGLL,4629.719,N,00640.972,E,171648,A,A*55
$IIHDG,018,,,01,E*1A
$IIMTW,+15.0,C*3C
$IIRMC,171649,A,4629.719,N,00640.972,E,01.1,046,190614,01,E,A*00
$IIVHW,,,018,M,00.0,N,,*6D
$IIVLW,01522,N,000.0,N*57
$IIDPT,011.2,-1.0,*42
$IIGLL,4629.719,N,00640.972,E,171649,A,A*54
$IIHDG,020,,,01,E*11
$IIMTW,+15.0,C*3C
$IIRMC,171650,A,4629.719,N,00640.972,E,01.7,227,190614,01,E,A*0B
$IIVHW,,,020,M,00.2,N,,*64
$IIVLW,01522,N,000.0,N*57
$IIDPT,011.2,-1.0,*42
$IIGLL,4629.719,N,00640.972,E,171650,A,A*5C
$IIHDG,021,,,01,E*10
$IIMTW,+15.0,C*3C
$IIRMC,171651,A,4629.719,N,00640.972,E,01.0,038,190614,01,E,A*01
$IIVHW,,,021,M,00.3,N,,*64
$IIVLW,01522,N,000.0,N*57
$IIDPT,011.2,-1.0,*42
$IIGLL,4629.719,N,00640.972,E,171651,A,A*5D
$IIHDG,025,,,01,E*14
$IIMTW,+15.0,C*3C
$IIRMC,171652,A,4629.719,N,00640.972,E,01.0,056,190614,01,E,A*0A
$IIVHW,,,025,M,00.6,N,,*65
$IIVLW,01522,N,000.0,N*57
$IIDPT,011.1,-1.0,*41
$IIGLL,4629.719,N,00640.972,E,171652,A,A*5E
$IIHDG,027,,,01,E*16
$IIMTW,+15.0,C*3C
$IIRMC,171653,A,4629.719,N,00640.972,E,00.7,053,190614,01,E,A*08
$IIVHW,,,027,M,00.7,N,,*66
$IIVLW,01522,N,000.0,N*57
$IIDPT,011.1,-1.0,*41
$IIGLL,4629.719,N,00640.972,E,171653,A,A*5F
$IIHDG,030,,,01,E*10
$IIMTW,+15.0,C*3C
$IIRMC,171654,A,4629.720,N,00640.973,E,00.9,052,190614,01,E,A*0B
$IIVHW,,,030,M,00.7,N,,*60
$IIVLW,01522,N,000.0,N*57
$IIDPT,011.1,-1.0,*41
$IIGLL,4629.720,N,00640.973,E,171654,A,A*53
$IIHDG,031,,,01,E*11
$IIMTW,+15.5,C*39
$IIRMC,171654,A,4629.720,N,00640.973,E,00.9,052,190614,01,E,A*0B
$IIVHW,,,031,M,00.8,N,,*6E
$IIVLW,01522,N,000.0,N*57
$IIDPT,011.0,-1.0,*40
$IIGLL,4629.720,N,00640.973,E,171654,A,A*53
$IIHDG,033,,,01,E*13
$IIMTW,+15.5,C*39
$IIRMC,171656,A,4629.720,N,00640.973,E,00.9,060,190614,01,E,A*08
$IIVHW,,,033,M,00.7,N,,*63
$IIVLW,01522,N,000.0,N*57
$IIDPT,011.0,-1.0,*40
$IIGLL,4629.720,N,00640.973,E,171656,A,A*51
$IIHDG,034,,,01,E*14
$IIMTW,+15.5,C*39
$IIRMC,171657,A,4629.720,N,00640.974,E,01.2,048,190614,01,E,A*0E
$IIVHW,,,034,M,00.8,N,,*6B
$IIVLW,01522,N,000.0,N*57
$IIDPT,011.0,-1.0,*40
$IIGLL,4629.720,N,00640.974,E,171657,A,A*57
$IIHDG,035,,,01,E*15
$IIMTW,+15.5,C*39
$IIRMC,171658,A,4629.721,N,00640.974,E,01.2,057,190614,01,E,A*0E
$IIVHW,,,035,M,00.8,N,,*6A
$IIVLW,01522,N,000.0,N*57
$IIDPT,011.0,-1.0,*40
$IIGLL,4629.721,N,00640.974,E,171658,A,A*59
$IIHDG,036,,,01,E*16
$IIMTW,+15.5,C*39
$IIRMC,171659,A,4629.721,N,00640.975,E,01.2,046,190614,01,E,A*0E
$IIVHW,,,036,M,00.7,N,,*66
$IIVLW,01522,N,000.0,N*57
$IIDPT,011.0,-1.0,*40
$IIGLL,4629.721,N,00640.975,E,171659,A,A*59
$IIHDG,036,,,01,E*16
$IIMTW,+15.5,C*39
$IIRMC,171700,A,4629.721,N,00640.975,E,01.1,048,190614,01,E,A*0E
$IIVHW,,,036,M,00.5,N,,*64
$IIVLW,01522,N,000.0,N*57
$IIDPT,011.0,-1.0,*40
$IIGLL,4629.721,N,00640.975,E,171700,A,A*54
$IIHDG,036,,,01,E*16
$IIMTW,+15.5,C*39
$IIRMC,171701,A,4629.721,N,00640.975,E,01.1,045,190614,01,E,A*02
$IIVHW,,,036,M,00.4,N,,*65
$IIVLW,01522,N,000.0,N*57
$IIDPT,011.0,-1.0,*40
$IIGLL,4629.721,N,00640.975,E,171701,A,A*55
$IIHDG,036,,,01,E*16
$IIMTW,+15.5,C*39
$IIRMC,171702,A,4629.721,N,00640.975,E,01.1,046,190614,01,E,A*02
$IIVHW,,,036,M,00.3,N,,*62
$IIVLW,01522,N,000.0,N*57
$IIDPT,010.9,-1.0,*48
$IIGLL,4629.721,N,00640.975,E,171702,A,A*56
$IIHDG,036,,,01,E*16
$IIMTW,+15.5,C*39
$IIRMC,171703,A,4629.722,N,00640.976,E,01.1,043,190614,01,E,A*06
$IIVHW,,,036,M,00.3,N,,*62
$IIVLW,01522,N,000.0,N*57
$IIDPT,010.9,-1.0,*48
$IIGLL,4629.722,N,00640.976,E,171703,A,A*57
$IIHDG,034,,,01,E*14
$IIMTW,+15.5,C*39
$IIRMC,171704,A,4629.722,N,00640.976,E,01.1,039,190614,01,E,A*0C
$IIVHW,,,034,M,00.2,N,,*61
$IIVLW,01522,N,000.0,N*57
$IIDPT,010.8,-1.0,*49
$IIGLL,4629.722,N,00640.976,E,171704,A,A*50
$IIHDG,034,,,01,E*14
$IIMTW,+15.5,C*39
$IIRMC,171705,A,4629.722,N,00640.977,E,01.5,040,190614,01,E,A*06
$IIVHW,,,034,M,00.2,N,,*61
$IIVLW,01522,N,000.0,N*57
$IIDPT,010.8,-1.0,*49
$IIGLL,4629.722,N,00640.977,E,171705,A,A*50
$IIHDG,033,,,01,E*13
$IIMTW,+15.5,C*39
$IIRMC,171706,A,4629.723,N,00640.977,E,00.9,034,190614,01,E,A*0A
$IIVHW,,,033,M,00.1,N,,*65
$IIVLW,01522,N,000.0,N*57
$IIDPT,010.8,-1.0,*49
$IIGLL,4629.723,N,00640.977,E,171706,A,A*52
$IIHDG,033,,,01,E*13
$IIMTW,+15.5,C*39
$IIRMC,171706,A,4629.723,N,00640.977,E,00.9,034,190614,01,E,A*0A
$IIVHW,,,033,M,00.1,N,,*65
$IIVLW,01522,N,000.0,N*57
$IIDPT,010.8,-1.0,*49
$IIGLL,4629.723,N,00640.977,E,171706,A,A*52
$IIHDG,033,,,01,E*13
$IIMTW,+15.5,C*39
$IIRMC,171708,A,4629.723,N,00640.978,E,01.0,037,190614,01,E,A*00
$IIVHW,,,033,M,00.1,N,,*65
$IIVLW,01522,N,000.0,N*57
$IIDPT,010.8,-1.0,*49
$IIGLL,4629.723,N,00640.978,E,171708,A,A*53
$IIHDG,033,,,01,E*13
$IIMTW,+15.5,C*39
$IIRMC,171709,A,4629.723,N,00640.978,E,01.1,037,190614,01,E,A*00
$IIVHW,,,033,M,00.1,N,,*65
$IIVLW,01522,N,000.0,N*57
$IIDPT,010.9,-1.0,*48
$IIGLL,4629.723,N,00640.978,E,171709,A,A*52
$IIHDG,033,,,01,E*13
$IIMTW,+15.0,C*3C
$IIRMC,171710,A,4629.724,N,00640.978,E,01.3,043,190614,01,E,A*0E
$IIVHW,,,033,M,00.0,N,,*64
$IIVLW,01522,N,000.0,N*57
$IIDPT,011.0,-1.0,*40
$IIGLL,4629.724,N,00640.978,E,171710,A,A*5D
$IIHDG,032,,,01,E*12
$IIMTW,+15.0,C*3C
$IIRMC,171711,A,4629.724,N,00640.979,E,01.3,038,190614,01,E,A*02
$IIVHW,,,032,M,00.0,N,,*65
$IIVLW,01522,N,000.0,N*57
$IIDPT,011.0,-1.0,*40
$IIGLL,4629.724,N,00640.979,E,171711,A,A*5D
$IIHDG,032,,,01,E*12
$IIMTW,+15.0,C*3C
$IIRMC,171712,A,4629.724,N,00640.979,E,01.4,038,190614,01,E,A*06
$IIVHW,,,032,M,00.1,N,,*64
$IIVLW,01522,N,000.0,N*57
$IIDPT,011.0,-1.0,*40
$IIGLL,4629.724,N,00640.979,E,171712,A,A*5E
$IIHDG,032,,,01,E*12
$IIMTW,+15.0,C*3C
$IIRMC,171713,A,4629.724,N,00640.979,E,01.0,046,190614,01,E,A*0A
$IIVHW,,,032,M,00.1,N,,*64
$IIVLW,01522,N,000.0,N*57
$IIDPT,011.0,-1.0,*40
$IIGLL,4629.724,N,00640.979,E,171713,A,A*5F
$IIHDG,032,,,01,E*12
$IIMTW,+15.0,C*3C
$IIRMC,171714,A,4629.724,N,00640.979,E,01.3,032,190614,01,E,A*0D
$IIVHW,,,032,M,00.2,N,,*67
$IIVLW,01522,N,000.0,N*57
$IIDPT,011.1,-1.0,*41
$IIGLL,4629.724,N,00640.979,E,171714,A,A*58
$IIHDG,033,,,01,E*13
$IIMTW,+15.0,C*3C
$IIRMC,171715,A,4629.725,N,00640.980,E,01.3,046,190614,01,E,A*08
$IIVHW,,,033,M,00.2,N,,*66
$IIVLW,01522,N,000.0,N*57
$IIDPT,011.1,-1.0,*41
$IIGLL,4629.725,N,00640.980,E,171715,A,A*5E
$IIHDG,033,,,01,E*13
$IIMTW,+15.0,C*3C
$IIRMC,171715,A,4629.725,N,00640.980,E,01.3,046,190614,01,E,A*08
$IIVHW,,,033,M,00.2,N,,*66
$IIVLW,01522,N,000.0,N*57
$IIDPT,011.1,-1.0,*41
$IIGLL,4629.725,N,00640.980,E,171715,A,A*5E
$IIHDG,032,,,01,E*12
$IIMTW,+15.0,C*3C
$IIRMC,171717,A,4629.725,N,00640.980,E,01.4,043,190614,01,E,A*08
$IIVHW,,,032,M,00.1,N,,*64
$IIVLW,01522,N,000.0,N*57
$IIDPT,011.1,-1.0,*41
$IIGLL,4629.725,N,00640.980,E,171717,A,A*5C
$IIHDG,025,,,01,E*14
$IIRMC,171744,A,4629.735,N,00640.986,E,01.4,008,190614,01,E,A*06
$IIVHW,,,025,M,,,,*33
$IIGLL,4629.735,N,00640.986,E,171744,A,A*5D
$IIHDG,020,,,01,E*11
$IIMTW,+00.0,C*38
$IIRMC,171745,A,4629.735,N,00640.986,E,01.4,009,190614,01,E,A*06
$IIVHW,,,020,M,00.3,N,,*65
$IIVLW,01522,N,000.0,N*57
$IIGLL,4629.735,N,00640.986,E,171745,A,A*5C
$IIHDG,018,,,01,E*1A
$IIMTW,+14.5,C*38
$IIRMC,171746,A,4629.735,N,00640.986,E,01.5,009,190614,01,E,A*04
$IIVHW,,,018,M,00.3,N,,*6E
$IIVLW,01522,N,000.0,N*57
$IIGLL,4629.735,N,00640.986,E,171746,A,A*5F
$IIHDG,015,,,01,E*17
$IIMTW,+14.5,C*38
$IIRMC,171747,A,4629.736,N,00640.986,E,01.6,014,190614,01,E,A*09
$IIVHW,,,015,M,00.5,N,,*65
$IIVLW,01522,N,000.0,N*57
$IIDPT,011.7,-1.0,*47
$IIGLL,4629.736,N,00640.986,E,171747,A,A*5D
$IIHDG,013,,,01,E*11
$IIMTW,+14.5,C*38
$IIRMC,171748,A,4629.736,N,00640.986,E,01.5,010,190614,01,E,A*01
$IIVHW,,,013,M,00.5,N,,*63
$IIVLW,01522,N,000.0,N*57
$IIDPT,011.7,-1.0,*47
$IIGLL,4629.736,N,00640.986,E,171748,A,A*52
$IIHDG,013,,,01,E*11
$IIMTW,+14.5,C*38
$IIRMC,171749,A,4629.736,N,00640.986,E,01.5,014,190614,01,E,A*04
$IIVHW,,,013,M,00.5,N,,*63
$IIVLW,01522,N,000.0,N*57
$IIDPT,011.7,-1.0,*47
$IIGLL,4629.736,N,00640.986,E,171749,A,A*53
$IIHDG,012,,,01,E*10
$IIMTW,+14.5,C*38
$IIRMC,171750,A,4629.737,N,00640.987,E,01.5,013,190614,01,E,A*0B
$IIVHW,,,012,M,00.5,N,,*62
$IIVLW,01522,N,000.0,N*57
$IIDPT,011.7,-1.0,*47
$IIGLL,4629.737,N,00640.987,E,171750,A,A*5B
$IIHDG,011,,,01,E*13
$IIMTW,+15.0,C*3C
$IIMWV,319,R,03.2,N,A*19
$IIRMC,171751,A,4629.737,N,00640.987,E,01.5,011,190614,01,E,A*08
$IIVHW,,,011,M,00.4,N,,*60
$IIVLW,01522,N,000.0,N*57
$IIVWR,041,L,03.2,N,,,,*7B
$IIDPT,011.5,-1.0,*45
$IIGLL,4629.737,N,00640.987,E,171751,A,A*5A
$IIHDG,011,,,01,E*13
$IIMTW,+15.0,C*3C
$IIMWV,315,R,03.3,N,A*14
$IIMWV,312,T,02.8,N,A*1F
$IIRMC,171752,A,4629.738,N,00640.987,E,01.7,021,190614,01,E,A*05
$IIVHW,,,011,M,00.5,N,,*61
$IIVLW,01522,N,000.0,N*57
$IIVWR,045,L,03.3,N,,,,*7E
$IIDPT,011.5,-1.0,*45
$IIGLL,4629.738,N,00640.987,E,171753,A,A*57
$IIHDG,010,,,01,E*12
$IIMTW,+15.0,C*3C
$IIMWV,320,R,03.5,N,A*14
$IIMWV,307,T,02.8,N,A*1B
$IIRMC,171753,A,4629.738,N,00640.987,E,01.4,005,190614,01,E,A*01
$IIVHW,,,010,M,00.6,N,,*63
$IIVLW,01522,N,000.0,N*57
$IIVWR,040,L,03.5,N,,,,*7D
$IIDPT,011.4,-1.0,*44
$IIGLL,4629.738,N,00640.987,E,171754,A,A*50
$IIHDG,009,,,01,E*1A
$IIMTW,+15.0,C*3C
$IIMWV,316,R,03.8,N,A*1C
$IIMWV,312,T,02.9,N,A*1E
$IIRMC,171754,A,4629.738,N,00640.987,E,01.5,014,190614,01,E,A*07
$IIVHW,,,009,M,00.5,N,,*68
$IIVLW,01522,N,000.0,N*57
$IIVWR,041,L,03.9,N,,,,*70
$IIDPT,011.4,-1.0,*44
$IIGLL,4629.739,N,00640.987,E,171755,A,A*50
$IIHDG,009,,,01,E*1A
$IIMTW,+15.0,C*3C
$IIMWV,319,R,03.9,N,A*12
$IIMWV,309,T,03.3,N,A*1F
$IIRMC,171755,A,4629.739,N,00640.987,E,01.5,008,190614,01,E,A*0A
$IIVHW,,,009,M,00.6,N,,*6B
$IIVLW,01522,N,000.0,N*57
$IIVWR,034,L,04.3,N,,,,*7F
$IIDPT,011.4,-1.0,*44
$IIGLL,4629.739,N,00640.987,E,171756,A,A*53
$IIHDG,009,,,01,E*1A
$IIMTW,+15.0,C*3C
$IIMWV,326,R,04.3,N,A*13
$IIMWV,311,T,03.3,N,A*16
$IIRMC,171756,A,4629.739,N,00640.987,E,01.4,007,190614,01,E,A*07
$IIVHW,,,009,M,00.6,N,,*6B
$IIVLW,01522,N,000.0,N*57
$IIVWR,038,L,04.3,N,,,,*73
$IIDPT,011.4,-1.0,*44
$IIGLL,4629.740,N,00640.987,E,171757,A,A*5C
$IIHDG,009,,,01,E*1A
$IIMTW,+15.0,C*3C
$IIMWV,322,R,04.3,N,A*17
$IIMWV,320,T,03.7,N,A*10
$IIRMC,171758,A,4629.740,N,00640.987,E,01.6,012,190614,01,E,A*01
$IIVHW,,,009,M,00.5,N,,*68
$IIVLW,01522,N,000.0,N*57
$IIVWR,036,L,04.8,N,,,,*76
$IIDPT,011.4,-1.0,*44
$IIGLL,4629.740,N,00640.987,E,171758,A,A*53
$IIHDG,009,,,01,E*1A
$IIMTW,+15.0,C*3C
$IIMWV,324,R,04.8,N,A*1A
$IIMWV,319,T,04.2,N,A*18
$IIRMC,171759,A,4629.741,N,00640.987,E,01.5,004,190614,01,E,A*05
$IIVHW,,,007,M,00.7,N,,*64
$IIVLW,01522,N,000.0,N*57
$IIVWR,038,L,04.9,N,,,,*79
$IIDPT,011.4,-1.0,*44
$IIGLL,4629.741,N,00640.987,E,171759,A,A*53
$IIHDG,007,,,01,E*14
$IIMTW,+15.0,C*3C
$IIMWV,324,R,04.9,N,A*1B
$IIMWV,316,T,04.3,N,A*16
$IIRMC,171800,A,4629.741,N,00640.988,E,01.8,008,190614,01,E,A*08
$IIVHW,,,007,M,00.8,N,,*6B
$IIVLW,01522,N,000.0,N*57
$IIVWR,036,L,04.9,N,,,,*77
$IIDPT,011.4,-1.0,*44
$IIGLL,4629.741,N,00640.988,E,171800,A,A*5F
$IIHDG,007,,,01,E*14
$IIMTW,+15.0,C*3C
$IIMWV,326,R,05.2,N,A*13
$IIMWV,317,T,04.1,N,A*15
$IIRMC,171801,A,4629.742,N,00640.988,E,01.7,026,190614,01,E,A*09
$IIVHW,,,009,M,01.0,N,,*6C
$IIVLW,01522,N,000.0,N*57
$IIVWR,034,L,05.2,N,,,,*7F
$IIDPT,011.4,-1.0,*44
$IIGLL,4629.742,N,00640.988,E,171801,A,A*5D
$IIHDG,009,,,01,E*1A
$IIMTW,+15.0,C*3C
$IIMWV,328,R,05.3,N,A*1C
$IIMWV,319,T,04.3,N,A*19
$IIRMC,171802,A,4629.742,N,00640.988,E,01.9,016,190614,01,E,A*07
$IIVHW,,,009,M,01.1,N,,*6D
$IIVLW,01522,N,000.0,N*57
$IIVWR,032,L,05.3,N,,,,*78
$IIDPT,011.3,-1.0,*43
$IIGLL,4629.742,N,00640.989,E,171803,A,A*5E
$IIHDG,010,,,01,E*12
$IIMTW,+15.0,C*3C
$IIMWV,325,R,05.3,N,A*11
$IIMWV,320,T,04.4,N,A*14
$IIRMC,171803,A,4629.742,N,00640.989,E,02.0,030,190614,01,E,A*09
$IIVHW,,,010,M,01.1,N,,*65
$IIVLW,01522,N,000.0,N*57
$IIVWR,035,L,05.3,N,,,,*7F
$IIDPT,011.2,-1.0,*42
$IIGLL,4629.743,N,00640.989,E,171804,A,A*58
$IIHDG,011,,,01,E*13
$IIMTW,+15.0,C*3C
$IIMWV,326,R,05.4,N,A*15
$IIMWV,317,T,04.3,N,A*17
$IIRMC,171804,A,4629.743,N,00640.989,E,01.4,013,190614,01,E,A*09
$IIVHW,,,011,M,00.9,N,,*6D
$IIVLW,01522,N,000.0,N*57
$IIVWR,032,L,05.7,N,,,,*7C
$IIDPT,011.2,-1.0,*42
$IIGLL,4629.743,N,00640.989,E,171805,A,A*59
$IIHDG,011,,,01,E*13
$IIMTW,+15.0,C*3C
$IIMWV,328,R,05.7,N,A*18
$IIMWV,319,T,04.6,N,A*1C
$IIRMC,171805,A,4629.743,N,00640.989,E,01.8,011,190614,01,E,A*06
$IIVHW,,,011,M,00.9,N,,*6D
$IIVLW,01522,N,000.0,N*57
$IIVWR,039,L,05.6,N,,,,*76
$IIDPT,011.2,-1.0,*42
$IIGLL,4629.744,N,00640.990,E,171806,A,A*55
$IIHDG,012,,,01,E*10
$IIMTW,+15.0,C*3C
$IIMWV,321,R,05.6,N,A*10
$IIMWV,322,T,04.9,N,A*1B
$IIRMC,171806,A,4629.744,N,00640.990,E,01.7,027,190614,01,E,A*00
$IIVHW,,,012,M,00.8,N,,*6F
$IIVLW,01522,N,000.0,N*57
$IIVWR,041,L,05.6,N,,,,*79
$IIDPT,011.2,-1.0,*42
$IIGLL,4629.744,N,00640.990,E,171807,A,A*54
$IIHDG,012,,,01,E*10
$IIMTW,+15.5,C*39
$IIMWV,319,R,05.6,N,A*1B
$IIMWV,315,T,04.9,N,A*1F
$IIRMC,171808,A,4629.745,N,00640.990,E,01.7,013,190614,01,E,A*08
$IIVHW,,,012,M,00.9,N,,*6E
$IIVLW,01522,N,000.0,N*57
$IIVWR,040,L,05.4,N,,,,*7A
$IIDPT,011.2,-1.0,*42
$IIGLL,4629.745,N,00640.990,E,171808,A,A*5A
$IIHDG,012,,,01,E*10
$IIMTW,+15.5,C*39
$IIMWV,320,R,05.4,N,A*13
$IIMWV,313,T,04.6,N,A*16
$IIRMC,171809,A,4629.745,N,00640.990,E,01.7,017,190614,01,E,A*0D
$IIVHW,,,012,M,00.8,N,,*6F
$IIVLW,01522,N,000.0,N*57
$IIVWR,045,L,05.2,N,,,,*79
$IIDPT,011.2,-1.0,*42
$IIGLL,4629.745,N,00640.990,E,171809,A,A*5B
$IIHDG,012,,,01,E*10
$IIMTW,+15.5,C*39
$IIMWV,316,R,05.7,N,A*15
$IIMWV,307,T,04.5,N,A*10
$IIRMC,171810,A,4629.746,N,00640.990,E,01.5,008,190614,01,E,A*0A
$IIVHW,,,013,M,00.8,N,,*6E
$IIVLW,01522,N,000.0,N*57
$IIVWR,044,L,05.7,N,,,,*7D
$IIDPT,011.2,-1.0,*42
$IIGLL,4629.746,N,00640.990,E,171810,A,A*50
$IIHDG,013,,,01,E*11
$IIMTW,+15.5,C*39
$IIMWV,325,R,05.4,N,A*16
$IIMWV,309,T,05.0,N,A*1A
$IIRMC,171811,A,4629.746,N,00640.990,E,01.5,006,190614,01,E,A*05
$IIVHW,,,012,M,00.9,N,,*6E
$IIVLW,01522,N,000.0,N*57
$IIVWR,035,L,05.4,N,,,,*78
$IIDPT,011.2,-1.0,*42
$IIGLL,4629.746,N,00640.990,E,171811,A,A*51
$IIHDG,013,,,01,E*11
$IIMTW,+15.0,C*3C
$IIMWV,320,R,05.3,N,A*14
$IIMWV,319,T,04.6,N,A*1C
$IIRMC,171812,A,4629.747,N,00640.990,E,01.5,020,190614,01,E,A*03
$IIVHW,,,013,M,00.8,N,,*6E
$IIVLW,01522,N,000.0,N*57
$IIVWR,040,L,05.3,N,,,,*7D
$IIDPT,011.2,-1.0,*42
$IIGLL,4629.747,N,00640.990,E,171813,A,A*52
$IIHDG,012,,,01,E*10
$IIMTW,+15.0,C*3C
$IIMWV,326,R,05.1,N,A*10
$IIMWV,313,T,04.5,N,A*15
$IIRMC,171813,A,4629.747,N,00640.990,E,01.5,005,190614,01,E,A*05
$IIVHW,,,012,M,00.7,N,,*60
$IIVLW,01522,N,000.0,N*57
$IIVWR,034,L,05.1,N,,,,*7C
$IIDPT,011.2,-1.0,*42
$IIGLL,4629.748,N,00640.991,E,171814,A,A*5B
$IIHDG,012,,,01,E*10
$IIMTW,+15.0,C*3C
$IIMWV,334,R,04.8,N,A*1B
$IIMWV,320,T,04.4,N,A*14
$IIRMC,171814,A,4629.748,N,00640.991,E,01.7,014,190614,01,E,A*0E
$IIVHW,,,012,M,00.8,N,,*6F
$IIVLW,01522,N,000.0,N*57
$IIVWR,029,L,04.8,N,,,,*78
$IIDPT,011.2,-1.0,*42
$IIGLL,4629.748,N,00640.991,E,171815,A,A*5A
$IIHDG,012,,,01,E*10
$IIMTW,+15.0,C*3C
$IIMWV,331,R,04.8,N,A*1E
$IIMWV,329,T,04.0,N,A*19
$IIRMC,171815,A,4629.748,N,00640.991,E,01.5,014,190614,01,E,A*0D
$IIVHW,,,012,M,00.8,N,,*6F
$IIVLW,01522,N,000.0,N*57
$IIVWR,015,L,04.5,N,,,,*7A
$IIDPT,011.2,-1.0,*42
$IIGLL,4629.748,N,00640.991,E,171816,A,A*59
$IIHDG,012,,,01,E*10
$IIMTW,+15.0,C*3C
$IIMWV,345,R,04.5,N,A*10
$IIMWV,324,T,03.9,N,A*1A
$IIRMC,171816,A,4629.748,N,00640.991,E,01.7,010,190614,01,E,A*08
$IIVHW,,,012,M,00.6,N,,*61
$IIVLW,01522,N,000.0,N*57
$IIVWR,004,R,04.1,N,,,,*60
$IIDPT,011.1,-1.0,*41
$IIGLL,4629.749,N,00640.991,E,171817,A,A*59
$IIHDG,012,,,01,E*10
$IIMTW,+15.0,C*3C
$IIMWV,004,R,04.1,N,A*12
$IIMWV,343,T,03.7,N,A*15
$IIRMC,171818,A,4629.749,N,00640.991,E,01.6,011,190614,01,E,A*07
$IIVHW,,,012,M,00.6,N,,*61
$IIVLW,01522,N,000.0,N*57
$IIVWR,012,L,03.9,N,,,,*76
$IIDPT,011.1,-1.0,*41
$IIGLL,4629.749,N,00640.991,E,171818,A,A*56
$IIHDG,012,,,01,E*10
$IIMTW,+15.0,C*3C
$IIMWV,348,R,03.9,N,A*16
$IIMWV,346,T,03.2,N,A*15
$IIRMC,171819,A,4629.750,N,00640.991,E,01.4,003,190614,01,E,A*0F
$IIVHW,,,011,M,00.6,N,,*62
$IIVLW,01522,N,000.0,N*57
$IIVWR,002,L,03.8,N,,,,*76
$IIDPT,011.1,-1.0,*41
$IIGLL,4629.750,N,00640.991,E,171819,A,A*5F
$IIHDG,011,,,01,E*13
$IIMTW,+15.0,C*3C
$IIMWV,002,R,03.7,N,A*15
$IIMWV,358,T,03.2,N,A*1A
$IIRMC,171820,A,4629.750,N,00640.992,E,01.6,013,190614,01,E,A*05
$IIVHW,,,011,M,00.5,N,,*61
$IIVLW,01522,N,000.0,N*57
$IIVWR,002,R,03.7,N,,,,*67
$IIDPT,011.1,-1.0,*41
$IIGLL,4629.750,N,00640.992,E,171820,A,A*56
$IIHDG,011,,,01,E*13
$IIMTW,+15.0,C*3C
$IIMWV,352,R,03.4,N,A*10
$IIMWV,002,T,03.1,N,A*15
$IIRMC,171821,A,4629.750,N,00640.992,E,01.4,012,190614,01,E,A*07
$IIVHW,,,011,M,00.5,N,,*61
$IIVLW,01522,N,000.0,N*57
$IIVWR,008,L,03.4,N,,,,*70
$IIDPT,011.1,-1.0,*41
$IIGLL,4629.750,N,00640.992,E,171821,A,A*57
$IIHDG,011,,,01,E*13
$IIMTW,+15.0,C*3C
$IIMWV,000,R,03.4,N,A*14
$IIMWV,352,T,02.8,N,A*1B
$IIRMC,171822,A,4629.751,N,00640.992,E,01.6,009,190614,01,E,A*0D
$IIVHW,,,011,M,00.4,N,,*60
$IIVLW,01522,N,000.0,N*57
$IIVWR,000,R,03.4,N,,,,*66
$IIDPT,011.1,-1.0,*41
$IIGLL,4629.751,N,00640.992,E,171823,A,A*54
$IIHDG,012,,,01,E*10
$IIMTW,+15.0,C*3C
$IIMWV,354,R,03.4,N,A*16
$IIMWV,000,T,03.0,N,A*16
$IIRMC,171823,A,4629.751,N,00640.992,E,01.4,018,190614,01,E,A*0E
$IIVHW,,,012,M,00.4,N,,*63
$IIVLW,01522,N,000.0,N*57
$IIVWR,006,L,03.4,N,,,,*7E
$IIDPT,011.4,-1.0,*44
$IIGLL,4629.751,N,00640.992,E,171824,A,A*53
$IIHDG,012,,,01,E*10
$IIMTW,+15.0,C*3C
$IIMWV,353,R,03.4,N,A*11
$IIMWV,354,T,02.8,N,A*1D
$IIRMC,171824,A,4629.751,N,00640.992,E,01.4,014,190614,01,E,A*05
$IIVHW,,,012,M,00.4,N,,*63
$IIVLW,01522,N,000.0,N*57
$IIVWR,021,L,03.6,N,,,,*79
$IIDPT,011.4,-1.0,*44
$IIGLL,4629.752,N,00640.992,E,171825,A,A*51
$IIHDG,013,,,01,E*11
$IIMTW,+15.0,C*3C
$IIMWV,339,R,03.6,N,A*1F
$IIMWV,352,T,02.8,N,A*1B
$IIRMC,171825,A,4629.752,N,00640.992,E,01.5,015,190614,01,E,A*07
$IIVHW,,,013,M,00.4,N,,*62
$IIVLW,01522,N,000.0,N*57
$IIVWR,018,L,04.0,N,,,,*72
$IIDPT,011.4,-1.0,*44
$IIGLL,4629.752,N,00640.992,E,171826,A,A*52
$IIHDG,014,,,01,E*16
$IIMTW,+15.0,C*3C
$IIMWV,342,R,04.0,N,A*12
$IIMWV,337,T,03.0,N,A*11
$IIRMC,171826,A,4629.752,N,00640.992,E,01.3,021,190614,01,E,A*05
$IIVHW,,,015,M,00.3,N,,*63
$IIVLW,01522,N,000.0,N*57
$IIVWR,022,L,04.0,N,,,,*7B
$IIDPT,011.4,-1.0,*44
$IIGLL,4629.752,N,00640.992,E,171827,A,A*53
$IIHDG,015,,,01,E*17
$IIMTW,+15.0,C*3C
$IIMWV,338,R,04.0,N,A*1F
$IIMWV,340,T,03.6,N,A*17
$IIRMC,171828,A,4629.753,N,00640.992,E,01.4,021,190614,01,E,A*0D
$IIVHW,,,015,M,00.2,N,,*62
$IIVLW,01522,N,000.0,N*57
$IIVWR,023,L,04.0,N,,,,*7A
$IIDPT,011.3,-1.0,*43
$IIGLL,4629.753,N,00640.992,E,171828,A,A*5D
$IIHDG,015,,,01,E*17
$IIMTW,+15.0,C*3C
$IIMWV,337,R,04.0,N,A*10
$IIMWV,335,T,03.6,N,A*15
$IIRMC,171828,A,4629.753,N,00640.992,E,01.4,021,190614,01,E,A*0D
$IIVHW,,,015,M,00.3,N,,*63
$IIVLW,01522,N,000.0,N*57
$IIVWR,021,L,04.2,N,,,,*7A
$IIDPT,011.3,-1.0,*43
$IIGLL,4629.753,N,00640.992,E,171828,A,A*5D
$IIHDG,015,,,01,E*17
$IIMTW,+15.0,C*3C
$IIMWV,335,R,04.2,N,A*10
$IIMWV,337,T,03.8,N,A*19
$IIRMC,171830,A,4629.754,N,00640.992,E,01.5,020,190614,01,E,A*03
$IIVHW,,,015,M,00.4,N,,*64
$IIVLW,01522,N,000.0,N*57
$IIVWR,025,L,04.2,N,,,,*7E
$IIDPT,011.3,-1.0,*43
$IIGLL,4629.754,N,00640.992,E,171830,A,A*53
$IIHDG,015,,,01,E*17
$IIMTW,+15.0,C*3C
$IIMWV,336,R,04.5,N,A*14
$IIMWV,333,T,03.8,N,A*1D
$IIRMC,171831,A,4629.754,N,00640.993,E,01.4,024,190614,01,E,A*06
$IIVHW,,,016,M,00.4,N,,*67
$IIVLW,01522,N,000.0,N*57
$IIVWR,024,L,04.5,N,,,,*78
$IIDPT,011.2,-1.0,*42
$IIGLL,4629.754,N,00640.993,E,171831,A,A*53
$IIHDG,017,,,01,E*15
$IIMTW,+15.0,C*3C
$IIMWV,339,R,04.6,N,A*18
$IIMWV,333,T,04.0,N,A*12
$IIRMC,171832,A,4629.754,N,00640.993,E,01.2,016,190614,01,E,A*02
$IIVHW,,,017,M,00.4,N,,*66
$IIVLW,01522,N,000.0,N*57
$IIVWR,021,L,04.6,N,,,,*7E
$IIDPT,011.2,-1.0,*42
$IIGLL,4629.755,N,00640.993,E,171833,A,A*50
$IIHDG,017,,,01,E*15
$IIMTW,+15.0,C*3C
$IIMWV,333,R,04.8,N,A*1C
$IIMWV,337,T,04.0,N,A*16
$IIRMC,171833,A,4629.755,N,00640.993,E,01.3,024,190614,01,E,A*02
$IIVHW,,,017,M,00.4,N,,*66
$IIVLW,01522,N,000.0,N*57
$IIVWR,027,L,04.8,N,,,,*76
$IIDPT,011.2,-1.0,*42
$IIGLL,4629.755,N,00640.993,E,171834,A,A*57
$IIHDG,017,,,01,E*15
$IIMTW,+15.5,C*39
$IIMWV,333,R,04.9,N,A*1D
$IIMWV,330,T,04.2,N,A*13
$IIRMC,171834,A,4629.755,N,00640.993,E,01.3,021,190614,01,E,A*00
$IIVHW,,,017,M,00.5,N,,*67
$IIVLW,01522,N,000.0,N*57
$IIVWR,027,L,05.4,N,,,,*7B
$IIDPT,011.2,-1.0,*42
$IIGLL,4629.755,N,00640.993,E,171835,A,A*56
$IIHDG,017,,,01,E*15
$IIMTW,+15.0,C*3C
$IIMWV,333,R,05.4,N,A*11
$IIMWV,330,T,04.3,N,A*12
$IIRMC,171835,A,4629.755,N,00640.993,E,01.3,021,190614,01,E,A*01
$IIVHW,,,017,M,00.4,N,,*66
$IIVLW,01522,N,000.0,N*57
$IIVWR,031,L,05.2,N,,,,*7A
$IIDPT,011.1,-1.0,*41
$IIGLL,4629.756,N,00640.993,E,171836,A,A*56
$IIHDG,018,,,01,E*1A
$IIMTW,+15.0,C*3C
$IIMWV,329,R,05.2,N,A*1C
$IIMWV,331,T,05.0,N,A*11
$IIRMC,171836,A,4629.756,N,00640.993,E,01.4,023,190614,01,E,A*04
$IIVHW,,,019,M,00.5,N,,*69
$IIVLW,01522,N,000.0,N*57
$IIVWR,034,L,05.4,N,,,,*79
$IIDPT,011.0,-1.0,*40
$IIGLL,4629.756,N,00640.993,E,171837,A,A*57
$IIHDG,019,,,01,E*1B
$IIMTW,+15.0,C*3C
$IIMWV,326,R,05.4,N,A*15
$IIMWV,325,T,04.7,N,A*12
$IIRMC,171838,A,4629.757,N,00640.994,E,01.6,026,190614,01,E,A*0B
$IIVHW,,,019,M,00.6,N,,*6A
$IIVLW,01522,N,000.0,N*57
$IIVWR,034,L,05.4,N,,,,*79
$IIDPT,011.0,-1.0,*40
$IIGLL,4629.757,N,00640.994,E,171838,A,A*5E
$IIHDG,019,,,01,E*1B
$IIMTW,+15.0,C*3C
$IIMWV,326,R,05.4,N,A*15
$IIMWV,322,T,04.8,N,A*1A
$IIRMC,171839,A,4629.757,N,00640.994,E,01.8,027,190614,01,E,A*05
$IIVHW,,,020,M,00.7,N,,*61
$IIVLW,01522,N,000.0,N*57
$IIVWR,040,L,05.4,N,,,,*7A
$IIDPT,011.0,-1.0,*40
$IIGLL,4629.757,N,00640.994,E,171839,A,A*5F
$IIHDG,020,,,01,E*11
$IIMTW,+15.0,C*3C
$IIMWV,322,R,05.5,N,A*10
$IIMWV,315,T,04.8,N,A*1E
$IIRMC,171840,A,4629.757,N,00640.994,E,01.4,028,190614,01,E,A*08
$IIVHW,,,020,M,00.8,N,,*6E
$IIVLW,01522,N,000.0,N*57
$IIVWR,038,L,05.5,N,,,,*74
$IIDPT,011.0,-1.0,*40
$IIGLL,4629.757,N,00640.994,E,171840,A,A*51
$IIHDG,020,,,01,E*11
$IIMTW,+15.0,C*3C
$IIMWV,320,R,05.3,N,A*14
$IIMWV,315,T,04.8,N,A*1E
$IIRMC,171841,A,4629.758,N,00640.995,E,01.7,026,190614,01,E,A*0A
$IIVHW,,,020,M,00.9,N,,*6F
$IIVLW,01522,N,000.0,N*57
$IIVWR,040,L,05.3,N,,,,*7D
$IIDPT,011.0,-1.0,*40
$IIGLL,4629.758,N,00640.995,E,171841,A,A*5E
$IIHDG,020,,,01,E*11
$IIMTW,+15.0,C*3C
$IIMWV,317,R,05.3,N,A*10
$IIMWV,312,T,04.4,N,A*15
$IIRMC,171842,A,4629.758,N,00640.995,E,01.3,025,190614,01,E,A*0E
$IIVHW,,,020,M,01.0,N,,*67
$IIVLW,01522,N,000.0,N*57
$IIVWR,043,L,05.3,N,,,,*7E
$IIDPT,011.0,-1.0,*40
$IIGLL,4629.758,N,00640.995,E,171843,A,A*5C
$IIHDG,020,,,01,E*11
$IIMTW,+15.0,C*3C
$IIMWV,322,R,05.2,N,A*17
$IIMWV,307,T,04.5,N,A*10
$IIRMC,171843,A,4629.758,N,00640.995,E,01.6,020,190614,01,E,A*0F
$IIVHW,,,020,M,00.9,N,,*6F
$IIVLW,01522,N,000.0,N*57
$IIVWR,038,L,05.2,N,,,,*73
$IIDPT,011.0,-1.0,*40
$IIGLL,4629.759,N,00640.996,E,171844,A,A*59
$IIHDG,020,,,01,E*11
$IIMTW,+15.0,C*3C
$IIMWV,321,R,05.2,N,A*14
$IIMWV,314,T,04.4,N,A*13
$IIRMC,171844,A,4629.759,N,00640.996,E,02.3,026,190614,01,E,A*0A
$IIVHW,,,020,M,00.8,N,,*6E
$IIVLW,01522,N,000.0,N*57
$IIVWR,036,L,05.3,N,,,,*7C
$IIDPT,011.0,-1.0,*40
$IIGLL,4629.759,N,00640.996,E,171845,A,A*58
$IIHDG,018,,,01,E*1A
$IIMTW,+15.0,C*3C
$IIMWV,324,R,05.3,N,A*10
$IIMWV,314,T,04.4,N,A*13
$IIRMC,171845,A,4629.759,N,00640.996,E,01.4,024,190614,01,E,A*0D
$IIVHW,,,018,M,00.8,N,,*65
$IIVLW,01522,N,000.0,N*57
$IIVWR,028,L,05.2,N,,,,*72
$IIDPT,011.0,-1.0,*40
$IIGLL,4629.760,N,00640.996,E,171846,A,A*51
$IIHDG,016,,,01,E*14
$IIMTW,+15.0,C*3C
$IIMWV,332,R,05.2,N,A*16
$IIMWV,317,T,04.5,N,A*11
$IIRMC,171846,A,4629.760,N,00640.996,E,01.6,016,190614,01,E,A*07
$IIVHW,,,016,M,00.8,N,,*6B
$IIVLW,01522,N,000.0,N*57
$IIVWR,029,L,05.6,N,,,,*77
$IIDPT,011.0,-1.0,*40
$IIGLL,4629.760,N,00640.996,E,171847,A,A*50
$IIHDG,016,,,01,E*14
$IIMTW,+15.0,C*3C
$IIMWV,331,R,05.6,N,A*11
$IIMWV,327,T,04.4,N,A*13
$IIRMC,171848,A,4629.760,N,00640.996,E,01.7,012,190614,01,E,A*0C
$IIVHW,,,014,M,00.9,N,,*68
$IIVLW,01522,N,000.0,N*57
$IIVWR,025,L,05.8,N,,,,*75
$IIDPT,011.1,-1.0,*41
$IIGLL,4629.760,N,00640.996,E,171848,A,A*5F
$IIHDG,014,,,01,E*16
$IIMTW,+15.0,C*3C
$IIMWV,335,R,05.8,N,A*1B
$IIMWV,330,T,04.8,N,A*19
$IIRMC,171849,A,4629.761,N,00640.996,E,01.8,017,190614,01,E,A*06
$IIVHW,,,012,M,00.8,N,,*6F
$IIVLW,01522,N,000.0,N*57
$IIVWR,026,L,05.5,N,,,,*7B
$IIDPT,011.2,-1.0,*42
$IIGLL,4629.761,N,00640.996,E,171849,A,A*5F
$IIHDG,012,,,01,E*10
$IIMTW,+15.0,C*3C
$IIMWV,337,R,05.5,N,A*14
$IIMWV,329,T,04.6,N,A*1F
$IIRMC,171850,A,4629.761,N,00640.996,E,01.4,008,190614,01,E,A*0C
$IIVHW,,,010,M,00.7,N,,*62
$IIVLW,01522,N,000.0,N*57
$IIVWR,023,L,05.5,N,,,,*7E
$IIDPT,011.2,-1.0,*42
$IIGLL,4629.761,N,00640.996,E,171850,A,A*57
$IIHDG,010,,,01,E*12
$IIMTW,+15.0,C*3C
$IIMWV,344,R,05.5,N,A*10
$IIMWV,334,T,04.7,N,A*12
$IIRMC,171851,A,4629.762,N,00640.996,E,01.5,359,190614,01,E,A*08
$IIVHW,,,009,M,00.7,N,,*6A
$IIVLW,01522,N,000.0,N*57
$IIVWR,016,L,05.5,N,,,,*78
$IIDPT,011.2,-1.0,*42
$IIGLL,4629.762,N,00640.996,E,171851,A,A*55
$IIHDG,006,,,01,E*15
$IIMTW,+15.0,C*3C
$IIMWV,346,R,05.3,N,A*14
$IIMWV,341,T,04.6,N,A*11
$IIRMC,171852,A,4629.762,N,00640.996,E,01.5,004,190614,01,E,A*00
$IIVHW,,,006,M,00.6,N,,*64
$IIVLW,01522,N,000.0,N*57
$IIVWR,014,L,05.3,N,,,,*7C
$IIDPT,011.2,-1.0,*42
$IIGLL,4629.762,N,00640.996,E,171852,A,A*56
$IIHDG,006,,,01,E*15
$IIMTW,+15.0,C*3C
$IIMWV,347,R,05.7,N,A*11
$IIMWV,345,T,04.5,N,A*16
$IIRMC,171852,A,4629.762,N,00640.996,E,01.5,004,190614,01,E,A*00
$IIVHW,,,006,M,00.7,N,,*65
$IIVLW,01522,N,000.0,N*57
$IIVWR,013,L,05.7,N,,,,*7F
$IIDPT,011.2,-1.0,*42
$IIGLL,4629.763,N,00640.996,E,171854,A,A*51
$IIHDG,004,,,01,E*17
$IIMTW,+15.0,C*3C
$IIMWV,347,R,05.5,N,A*13
$IIMWV,346,T,04.9,N,A*19
$IIRMC,171854,A,4629.763,N,00640.996,E,01.3,359,190614,01,E,A*0A
$IIVHW,,,004,M,00.8,N,,*68
$IIVLW,01522,N,000.0,N*57
$IIVWR,013,L,05.4,N,,,,*7C
$IIDPT,011.0,-1.0,*40
$IIGLL,4629.763,N,00640.996,E,171855,A,A*50
$IIHDG,003,,,01,E*10
$IIMTW,+15.0,C*3C
$IIMWV,347,R,05.4,N,A*12
$IIMWV,345,T,04.6,N,A*15
$IIRMC,171855,A,4629.763,N,00640.996,E,01.8,356,190614,01,E,A*0F
$IIVHW,,,003,M,00.8,N,,*6F
$IIVLW,01522,N,000.0,N*57
$IIVWR,017,L,05.3,N,,,,*7F
$IIDPT,011.0,-1.0,*40
$IIGLL,4629.764,N,00640.996,E,171856,A,A*54
$IIHDG,001,,,01,E*12
$IIMTW,+15.0,C*3C
$IIMWV,343,R,05.3,N,A*11
$IIMWV,346,T,04.5,N,A*15
$IIRMC,171856,A,4629.764,N,00640.996,E,01.5,002,190614,01,E,A*04
$IIVHW,,,001,M,00.8,N,,*6D
$IIVLW,01522,N,000.0,N*57
$IIVWR,017,L,05.1,N,,,,*7D
$IIDPT,011.0,-1.0,*40
$IIGLL,4629.764,N,00640.997,E,171857,A,A*54
$IIHDG,001,,,01,E*12
$IIMTW,+15.0,C*3C
$IIMWV,343,R,05.1,N,A*13
$IIMWV,340,T,04.4,N,A*12
$IIRMC,171858,A,4629.764,N,00640.997,E,01.6,001,190614,01,E,A*0B
$IIVHW,,,359,M,00.6,N,,*6D
$IIVLW,01522,N,000.0,N*57
$IIVWR,021,L,05.0,N,,,,*79
$IIDPT,011.0,-1.0,*40
$IIGLL,4629.764,N,00640.997,E,171858,A,A*5B
$IIHDG,359,,,01,E*1C
$IIMTW,+14.5,C*38
$IIMWV,339,R,05.0,N,A*1F
$IIMWV,335,T,04.2,N,A*16
$IIRMC,171859,A,4629.765,N,00640.997,E,01.5,353,190614,01,E,A*0C
$IIVHW,,,358,M,00.6,N,,*6C
$IIVLW,01522,N,000.0,N*57
$IIVWR,020,L,04.9,N,,,,*70
$IIDPT,011.0,-1.0,*40
$IIGLL,4629.765,N,00640.997,E,171859,A,A*5B
$IIHDG,358,,,01,E*1D
$IIMTW,+14.5,C*38
$IIMWV,338,R,04.9,N,A*16
$IIMWV,338,T,04.2,N,A*1B
$IIRMC,171900,A,4629.766,N,00640.997,E,01.5,355,190614,01,E,A*04
$IIVHW,,,357,M,00.5,N,,*60
$IIVLW,01522,N,000.0,N*57
$IIVWR,022,L,04.9,N,,,,*72
$IIDPT,011.0,-1.0,*40
$IIGLL,4629.766,N,00640.997,E,171900,A,A*55
$IIHDG,357,,,01,E*12
$IIMTW,+14.5,C*38
$IIMWV,340,R,04.6,N,A*16
$IIMWV,335,T,04.2,N,A*16
$IIRMC,171901,A,4629.766,N,00640.997,E,01.5,356,190614,01,E,A*06
$IIVHW,,,356,M,00.5,N,,*61
$IIVLW,01522,N,000.0,N*57
$IIVWR,020,L,04.6,N,,,,*7F
$IIDPT,011.1,-1.0,*41
$IIGLL,4629.766,N,00640.997,E,171901,A,A*54
$IIHDG,357,,,01,E*12
$IIMTW,+14.5,C*38
$IIMWV,339,R,04.3,N,A*1D
$IIMWV,339,T,04.0,N,A*18
$IIRMC,171902,A,4629.766,N,00640.997,E,01.4,357,190614,01,E,A*05
$IIVHW,,,357,M,00.4,N,,*61
$IIVLW,01522,N,000.0,N*57
$IIVWR,021,L,04.3,N,,,,*7B
$IIDPT,011.1,-1.0,*41
$IIGLL,4629.767,N,00640.997,E,171903,A,A*57
$IIHDG,358,,,01,E*1D
$IIMTW,+14.5,C*38
$IIMWV,341,R,04.3,N,A*12
$IIMWV,337,T,03.8,N,A*19
$IIRMC,171903,A,4629.767,N,00640.997,E,00.9,001,190614,01,E,A*09
$IIVHW,,,358,M,00.4,N,,*6E
$IIVLW,01522,N,000.0,N*57
$IIVWR,019,L,04.3,N,,,,*70
$IIDPT,011.2,-1.0,*42
$IIGLL,4629.767,N,00640.997,E,171904,A,A*50
$IIHDG,000,,,01,E*13
$IIMTW,+14.5,C*38
$IIMWV,341,R,04.2,N,A*13
$IIMWV,339,T,03.8,N,A*17
$IIRMC,171904,A,4629.767,N,00640.997,E,01.4,003,190614,01,E,A*00
$IIVHW,,,000,M,00.3,N,,*67
$IIVLW,01522,N,000.0,N*57
$IIVWR,018,L,04.0,N,,,,*72
$IIDPT,011.2,-1.0,*42
$IIGLL,4629.767,N,00640.997,E,171905,A,A*51
$IIHDG,002,,,01,E*11
$IIMTW,+14.5,C*38
$IIMWV,342,R,04.0,N,A*12
$IIMWV,340,T,03.8,N,A*19
$IIRMC,171905,A,4629.767,N,00640.997,E,00.9,002,190614,01,E,A*0C
$IIVHW,,,002,M,00.4,N,,*62
$IIVLW,01522,N,000.0,N*57
$IIVWR,021,L,04.1,N,,,,*79
$IIDPT,011.3,-1.0,*43
$IIGLL,4629.768,N,00640.997,E,171906,A,A*5D
$IIHDG,005,,,01,E*16
$IIMTW,+14.5,C*38
$IIMWV,339,R,04.1,N,A*1F
$IIMWV,340,T,03.6,N,A*17
$IIRMC,171906,A,4629.768,N,00640.997,E,01.2,008,190614,01,E,A*00
$IIVHW,,,007,M,00.5,N,,*66
$IIVLW,01522,N,000.0,N*57
$IIVWR,022,L,04.1,N,,,,*7A
$IIDPT,011.4,-1.0,*44
$IIGLL,4629.768,N,00640.997,E,171907,A,A*5C
$IIHDG,007,,,01,E*14
$IIMTW,+14.5,C*38
$IIMWV,338,R,04.1,N,A*1E
$IIMWV,338,T,03.6,N,A*18
$IIRMC,171908,A,4629.768,N,00640.997,E,01.2,020,190614,01,E,A*04
$IIVHW,,,011,M,00.5,N,,*61
$IIVLW,01522,N,000.0,N*57
$IIVWR,023,L,04.4,N,,,,*7E
$IIDPT,011.4,-1.0,*44
$IIGLL,4629.768,N,00640.997,E,171908,A,A*53
$IIHDG,011,,,01,E*13
$IIMTW,+14.5,C*38
$IIMWV,337,R,04.4,N,A*14
$IIMWV,333,T,03.8,N,A*1D
$IIRMC,171909,A,4629.768,N,00640.998,E,01.2,039,190614,01,E,A*02
$IIVHW,,,014,M,00.7,N,,*66
$IIVLW,01522,N,000.0,N*57
$IIVWR,024,L,04.2,N,,,,*7F
$IIDPT,011.4,-1.0,*44
$IIGLL,4629.768,N,00640.998,E,171909,A,A*5D
$IIHDG,014,,,01,E*16
$IIMTW,+14.5,C*38
$IIMWV,333,R,04.2,N,A*16
$IIMWV,331,T,03.5,N,A*12
$IIRMC,171910,A,4629.769,N,00640.998,E,01.5,032,190614,01,E,A*07
$IIVHW,,,017,M,00.7,N,,*65
$IIVLW,01522,N,000.0,N*57
$IIVWR,027,L,04.2,N,,,,*7C
$IIDPT,011.4,-1.0,*44
$IIGLL,4629.769,N,00640.998,E,171910,A,A*54
$IIHDG,017,,,01,E*15
$IIMTW,+14.5,C*38
$IIMWV,339,R,04.3,N,A*1D
$IIMWV,328,T,03.4,N,A*1B
$IIRMC,171911,A,4629.769,N,00640.998,E,00.9,032,190614,01,E,A*0B
$IIVHW,,,020,M,00.8,N,,*6E
$IIVLW,01522,N,000.0,N*57
$IIVWR,021,L,04.3,N,,,,*7B
$IIDPT,011.4,-1.0,*44
$IIGLL,4629.769,N,00640.998,E,171911,A,A*55
$IIHDG,023,,,01,E*12
$IIMTW,+14.5,C*38
$IIMWV,329,R,03.9,N,A*11
$IIMWV,334,T,03.4,N,A*16
$IIRMC,171912,A,4629.769,N,00640.998,E,01.4,035,190614,01,E,A*03
$IIVHW,,,023,M,00.7,N,,*62
$IIVLW,01522,N,000.0,N*57
$IIVWR,031,L,03.9,N,,,,*77
$IIDPT,011.4,-1.0,*44
$IIGLL,4629.770,N,00640.999,E,171913,A,A*5E
$IIHDG,025,,,01,E*14
$IIMTW,+14.5,C*38
$IIMWV,333,R,04.4,N,A*10
$IIMWV,321,T,03.2,N,A*14
$IIRMC,171913,A,4629.770,N,00640.999,E,01.3,040,190614,01,E,A*0E
$IIVHW,,,025,M,00.6,N,,*65
$IIVLW,01522,N,000.0,N*57
$IIVWR,027,L,04.4,N,,,,*7A
$IIDPT,011.2,-1.0,*42
$IIGLL,4629.770,N,00640.999,E,171914,A,A*59
$IIHDG,027,,,01,E*16
$IIMTW,+14.5,C*38
$IIMWV,325,R,04.5,N,A*16
$IIMWV,330,T,03.8,N,A*1E
$IIRMC,171914,A,4629.770,N,00640.999,E,01.8,034,190614,01,E,A*01
$IIVHW,,,027,M,00.7,N,,*66
$IIVLW,01522,N,000.0,N*57
$IIVWR,036,L,04.4,N,,,,*7A
$IIDPT,011.2,-1.0,*42
$IIGLL,4629.770,N,00640.999,E,171915,A,A*58
$IIHDG,028,,,01,E*19
$IIMTW,+14.5,C*38
$IIMWV,324,R,04.4,N,A*16
$IIMWV,319,T,03.8,N,A*15
$IIRMC,171915,A,4629.770,N,00640.999,E,01.6,044,190614,01,E,A*09
$IIVHW,,,028,M,00.7,N,,*69
$IIVLW,01522,N,000.0,N*57
$IIVWR,038,L,04.2,N,,,,*72
$IIDPT,011.2,-1.0,*42
$IIGLL,4629.771,N,00641.000,E,171916,A,A*52
$IIHDG,029,,,01,E*18
$IIMTW,+14.5,C*38
$IIMWV,322,R,04.2,N,A*16
$IIMWV,318,T,03.7,N,A*1B
$IIRMC,171916,A,4629.771,N,00641.000,E,01.4,039,190614,01,E,A*0B
$IIVHW,,,029,M,00.7,N,,*68
$IIVLW,01522,N,000.0,N*57
$IIVWR,041,L,04.1,N,,,,*7F
$IIDPT,011.2,-1.0,*42
$IIGLL,4629.771,N,00641.000,E,171917,A,A*53
$IIHDG,029,,,01,E*18
$IIMTW,+14.5,C*38
$IIMWV,319,R,04.1,N,A*1D
$IIMWV,314,T,03.6,N,A*16
$IIRMC,171918,A,4629.771,N,00641.000,E,01.5,039,190614,01,E,A*04
$IIVHW,,,030,M,00.7,N,,*60
$IIVLW,01522,N,000.0,N*57
$IIVWR,045,L,04.0,N,,,,*7A
$IIDPT,011.2,-1.0,*42
$IIGLL,4629.771,N,00641.000,E,171918,A,A*5C
$IIHDG,030,,,01,E*10
$IIMTW,+14.5,C*38
$IIMWV,315,R,04.0,N,A*10
$IIMWV,306,T,03.4,N,A*17
$IIRMC,171919,A,4629.771,N,00641.001,E,01.5,039,190614,01,E,A*04
$IIVHW,,,030,M,00.6,N,,*61
$IIVLW,01522,N,000.0,N*57
$IIVWR,046,L,04.0,N,,,,*79
$IIDPT,011.2,-1.0,*42
$IIGLL,4629.771,N,00641.001,E,171919,A,A*5C
$IIHDG,030,,,01,E*10
$IIMTW,+14.5,C*38
$IIMWV,312,R,04.0,N,A*17
$IIMWV,306,T,03.4,N,A*17
$IIRMC,171920,A,4629.771,N,00641.001,E,01.4,030,190614,01,E,A*06
$IIVHW,,,030,M,00.7,N,,*60
$IIVLW,01522,N,000.0,N*57
$IIVWR,048,L,04.0,N,,,,*77
$IIDPT,011.2,-1.0,*42
$IIGLL,4629.771,N,00641.001,E,171920,A,A*56
$IIHDG,030,,,01,E*10
$IIMTW,+14.5,C*38
