$IIMTW,+16.5,C*3A
$IIMWV,031,R,05.9,N,A*1D
$IIMWV,049,T,03.8,N,A*13
$IIVHW,,,234,M,02.5,N,,*66
$IIVWR,031,R,05.9,N,,,,*6F
$IIDPT,055.8,-1.0,*48
$IIHDG,234,,,,*52
$IIMTW,+16.5,C*3A
$IIMWV,031,R,06.0,N,A*17
$IIMWV,051,T,03.8,N,A*1A
$IIVHW,,,234,M,02.5,N,,*66
$IIVWR,031,R,06.0,N,,,,*65
$IIDPT,049.6,-1.0,*4B
$IIHDG,234,,,,*52
$IIMTW,+16.5,C*3A
$IIMWV,031,R,06.0,N,A*17
$IIMWV,051,T,03.9,N,A*1B
$IIVHW,,,233,M,02.5,N,,*61
$IIVWR,031,R,06.0,N,,,,*65
$IIDPT,049.6,-1.0,*4B
$IIHDG,233,,,,*55
$IIMTW,+16.5,C*3A
$IIMWV,030,R,06.3,N,A*15
$IIMWV,050,T,04.0,N,A*14
$IIVHW,,,234,M,02.5,N,,*66
$IIVWR,030,R,06.3,N,,,,*67
$IIDPT,049.6,-1.0,*4B
$IIHDG,234,,,,*52
$IIMTW,+16.5,C*3A
$IIMWV,031,R,06.3,N,A*14
$IIMWV,047,T,04.2,N,A*10
$IIVHW,,,233,M,02.5,N,,*61
$IIVWR,032,R,06.2,N,,,,*64
$IIDPT,053.4,-1.0,*42
$IIHDG,233,,,,*55
$IIMTW,+16.5,C*3A
$IIMWV,032,R,06.2,N,A*16
$IIMWV,049,T,04.2,N,A*1E
$IIVHW,,,233,M,02.5,N,,*61
$IIVWR,030,R,06.2,N,,,,*66
$IIDPT,053.4,-1.0,*42
$IIHDG,233,,,,*55
$IIMTW,+16.5,C*3A
$IIMWV,030,R,06.2,N,A*14
$IIMWV,051,T,04.1,N,A*14
$IIVHW,,,233,M,02.6,N,,*62
$IIVWR,031,R,06.2,N,,,,*67
$IIDPT,053.4,-1.0,*42
$IIHDG,233,,,,*55
$IIMTW,+16.5,C*3A
$IIMWV,031,R,06.2,N,A*15
$IIMWV,049,T,04.1,N,A*1D
$IIVHW,,,232,M,02.6,N,,*63
$IIVWR,031,R,06.0,N,,,,*65
$IIDPT,053.4,-1.0,*42
$IIHDG,232,,,,*54
$IIMTW,+16.5,C*3A
$IIMWV,031,R,06.0,N,A*17
$IIMWV,050,T,04.1,N,A*15
$IIVHW,,,232,M,02.6,N,,*63
$IIVWR,031,R,05.9,N,,,,*6F
$IIDPT,010.9,-1.0,*48
$IIHDG,232,,,,*54
$IIMTW,+16.5,C*3A
$IIMWV,031,R,05.9,N,A*1D
$IIMWV,051,T,03.9,N,A*1B
$IIVHW,,,233,M,02.6,N,,*62
$IIVWR,032,R,05.9,N,,,,*6C
$IIDPT,010.8,-1.0,*49
$IIHDG,233,,,,*55
$IIMTW,+16.5,C*3A
$IIMWV,032,R,05.9,N,A*1E
$IIMWV,051,T,03.8,N,A*1A
$IIVHW,,,233,M,02.6,N,,*62
$IIVWR,031,R,05.9,N,,,,*6F
$IIDPT,010.8,-1.0,*49
$IIHDG,233,,,,*55
$IIMTW,+16.5,C*3A
$IIMWV,031,R,05.9,N,A*1D
$IIMWV,052,T,03.9,N,A*18
$IIVHW,,,232,M,02.6,N,,*63
$IIVWR,030,R,05.9,N,,,,*6E
$IIDPT,010.8,-1.0,*49
$IIHDG,232,,,,*54
$IIMTW,+16.5,C*3A
$IIMWV,030,R,05.9,N,A*1C
$IIMWV,053,T,03.7,N,A*17
$IIVHW,,,234,M,02.6,N,,*65
$IIVWR,031,R,05.9,N,,,,*6F
$IIDPT,010.8,-1.0,*49
$IIHDG,234,,,,*52
$IIMTW,+16.5,C*3A
$IIMWV,031,R,05.9,N,A*1D
$IIMWV,050,T,03.7,N,A*14
$IIVHW,,,233,M,02.6,N,,*62
$IIVWR,030,R,06.0,N,,,,*64
$IIDPT,010.8,-1.0,*49
$IIHDG,233,,,,*55
$IIMTW,+16.5,C*3A
$IIMWV,030,R,06.0,N,A*16
$IIMWV,053,T,03.7,N,A*17
$IIVHW,,,234,M,02.6,N,,*65
$IIVWR,030,R,05.9,N,,,,*6E
$IIDPT,010.8,-1.0,*49
$IIHDG,234,,,,*52
$IIMTW,+16.5,C*3A
$IIMWV,030,R,05.9,N,A*1C
$IIMWV,050,T,03.9,N,A*1A
$IIVHW,,,234,M,02.6,N,,*65
$IIVWR,030,R,06.0,N,,,,*64
$IIDPT,010.8,-1.0,*49
$IIHDG,234,,,,*52
$IIMTW,+16.5,C*3A
$IIMWV,030,R,06.0,N,A*16
$IIMWV,049,T,03.8,N,A*13
$IIVHW,,,234,M,02.6,N,,*65
$IIVWR,031,R,06.0,N,,,,*65
$IIDPT,010.8,-1.0,*49
$IIHDG,234,,,,*52
$IIMTW,+16.5,C*3A
$IIMWV,031,R,06.0,N,A*17
$IIMWV,050,T,03.9,N,A*1A
$IIVHW,,,234,M,02.6,N,,*65
$IIVWR,030,R,05.9,N,,,,*6E
$IIDPT,010.6,-1.0,*47
$IIHDG,234,,,,*52
$IIMTW,+16.5,C*3A
$IIMWV,030,R,05.9,N,A*1C
$IIMWV,052,T,03.9,N,A*18
$IIVHW,,,233,M,02.6,N,,*62
$IIVWR,031,R,06.0,N,,,,*65
$IIDPT,010.6,-1.0,*47
$IIHDG,233,,,,*55
$IIMTW,+16.5,C*3A
$IIMWV,031,R,06.0,N,A*17
$IIMWV,050,T,03.7,N,A*14
$IIVHW,,,233,M,02.6,N,,*62
$IIVWR,031,R,06.0,N,,,,*65
$IIDPT,010.6,-1.0,*47
$IIHDG,233,,,,*55
$IIMTW,+16.5,C*3A
$IIMWV,031,R,06.0,N,A*17
$IIMWV,052,T,03.9,N,A*18
$IIVHW,,,232,M,02.7,N,,*62
$IIVWR,030,R,06.0,N,,,,*64
$IIDPT,010.6,-1.0,*47
$IIHDG,232,,,,*54
$IIMTW,+16.5,C*3A
$IIMWV,030,R,06.0,N,A*16
$IIMWV,052,T,03.9,N,A*18
$IIVHW,,,232,M,02.7,N,,*62
$IIVWR,031,R,06.0,N,,,,*65
$IIDPT,010.6,-1.0,*47
$IIHDG,232,,,,*54
$IIMTW,+16.5,C*3A
$IIMWV,031,R,06.0,N,A*17
$IIMWV,050,T,03.9,N,A*1A
$IIVHW,,,232,M,02.6,N,,*63
$IIVWR,030,R,05.9,N,,,,*6E
$IIDPT,010.6,-1.0,*47
$IIHDG,232,,,,*54
$IIMTW,+16.5,C*3A
$IIMWV,030,R,05.9,N,A*1C
$IIMWV,052,T,03.9,N,A*18
$IIVHW,,,232,M,02.7,N,,*62
$IIVWR,031,R,06.0,N,,,,*65
$IIDPT,010.7,-1.0,*46
$IIHDG,232,,,,*54
$IIMTW,+16.5,C*3A
$IIMWV,031,R,06.0,N,A*17
$IIMWV,050,T,03.7,N,A*14
$IIVHW,,,232,M,02.7,N,,*62
$IIVWR,031,R,06.0,N,,,,*65
$IIDPT,010.7,-1.0,*46
$IIHDG,232,,,,*54
$IIMTW,+16.5,C*3A
$IIMWV,031,R,06.0,N,A*17
$IIMWV,052,T,03.9,N,A*18
$IIVHW,,,232,M,02.7,N,,*62
$IIVWR,031,R,06.1,N,,,,*64
$IIDPT,010.6,-1.0,*47
$IIHDG,232,,,,*54
$IIMTW,+16.5,C*3A
$IIMWV,031,R,06.1,N,A*16
$IIMWV,052,T,03.9,N,A*18
$IIVHW,,,232,M,02.7,N,,*62
$IIVWR,031,R,06.0,N,,,,*65
$IIDPT,010.6,-1.0,*47
$IIHDG,232,,,,*54
$IIMTW,+16.5,C*3A
$IIMWV,031,R,06.0,N,A*17
$IIMWV,051,T,03.9,N,A*1B
$IIVHW,,,233,M,02.7,N,,*63
$IIVWR,031,R,06.1,N,,,,*64
$IIDPT,010.6,-1.0,*47
$IIHDG,233,,,,*55
$IIMTW,+16.5,C*3A
$IIMWV,031,R,06.1,N,A*16
$IIMWV,052,T,03.9,N,A*18
$IIVHW,,,232,M,02.7,N,,*62
$IIVWR,031,R,06.0,N,,,,*65
$IIDPT,010.6,-1.0,*47
$IIHDG,232,,,,*54
$IIMTW,+16.5,C*3A
$IIMWV,031,R,06.0,N,A*17
$IIMWV,051,T,03.9,N,A*1B
$IIVHW,,,232,M,02.7,N,,*62
$IIVWR,030,R,06.1,N,,,,*65
$IIDPT,010.6,-1.0,*47
$IIHDG,232,,,,*54
$IIMTW,+16.5,C*3A
$IIMWV,030,R,06.1,N,A*17
$IIMWV,052,T,03.9,N,A*18
$IIVHW,,,232,M,02.7,N,,*62
$IIVWR,031,R,06.0,N,,,,*65
$IIDPT,010.6,-1.0,*47
$IIHDG,232,,,,*54
$IIMTW,+16.5,C*3A
$IIMWV,031,R,06.0,N,A*17
$IIMWV,049,T,03.9,N,A*12
$IIVHW,,,232,M,02.6,N,,*63
$IIVWR,031,R,06.1,N,,,,*64
$IIDPT,010.6,-1.0,*47
$IIHDG,232,,,,*54
$IIMTW,+16.5,C*3A
$IIMWV,031,R,06.1,N,A*16
$IIMWV,052,T,03.9,N,A*18
$IIVHW,,,233,M,02.6,N,,*62
$IIVWR,031,R,06.1,N,,,,*64
$IIDPT,010.6,-1.0,*47
$IIHDG,233,,,,*55
$IIMTW,+16.5,C*3A
$IIMWV,031,R,06.1,N,A*16
$IIMWV,051,T,03.9,N,A*1B
$IIVHW,,,233,M,02.6,N,,*62
$IIVWR,031,R,06.1,N,,,,*64
$IIDPT,010.6,-1.0,*47
$IIHDG,233,,,,*55
$IIMTW,+16.5,C*3A
$IIMWV,031,R,06.1,N,A*16
$IIMWV,051,T,03.9,N,A*1B
$IIVHW,,,234,M,02.7,N,,*64
$IIVWR,031,R,06.1,N,,,,*64
$IIDPT,010.6,-1.0,*47
$IIHDG,234,,,,*52
$IIMTW,+16.5,C*3A
$IIMWV,031,R,06.1,N,A*16
$IIMWV,051,T,03.9,N,A*1B
$IIVHW,,,234,M,02.7,N,,*64
$IIVWR,031,R,06.2,N,,,,*67
$IIDPT,010.7,-1.0,*46
$IIHDG,234,,,,*52
$IIMTW,+16.5,C*3A
$IIMWV,031,R,06.2,N,A*15
$IIMWV,051,T,03.9,N,A*1B
$IIVHW,,,233,M,02.7,N,,*63
$IIVWR,031,R,06.2,N,,,,*67
$IIDPT,010.7,-1.0,*46
$IIHDG,233,,,,*55
$IIMTW,+16.5,C*3A
$IIMWV,031,R,06.2,N,A*15
$IIMWV,051,T,04.1,N,A*14
$IIVHW,,,233,M,02.7,N,,*63
$IIVWR,030,R,06.1,N,,,,*65
$IIDPT,010.8,-1.0,*49
$IIHDG,233,,,,*55
$IIMTW,+16.5,C*3A
$IIMWV,030,R,06.1,N,A*17
$IIMWV,051,T,04.1,N,A*14
$IIVHW,,,232,M,02.7,N,,*62
$IIVWR,030,R,06.2,N,,,,*66
$IIDPT,010.8,-1.0,*49
$IIHDG,232,,,,*54
$IIMTW,+16.5,C*3A
$IIMWV,030,R,06.2,N,A*14
$IIMWV,049,T,03.9,N,A*12
$IIVHW,,,233,M,02.6,N,,*62
$IIVWR,030,R,06.1,N,,,,*65
$IIDPT,010.8,-1.0,*49
$IIHDG,233,,,,*55
$IIMTW,+16.5,C*3A
$IIMWV,030,R,06.1,N,A*17
$IIMWV,050,T,04.0,N,A*14
$IIVHW,,,232,M,02.6,N,,*63
$IIVWR,030,R,06.2,N,,,,*66
$IIDPT,010.7,-1.0,*46
$IIHDG,232,,,,*54
$IIMTW,+16.5,C*3A
$IIMWV,030,R,06.2,N,A*14
$IIMWV,049,T,03.9,N,A*12
$IIVHW,,,232,M,02.6,N,,*63
$IIVWR,031,R,06.1,N,,,,*64
$IIDPT,010.6,-1.0,*47
$IIHDG,232,,,,*54
$IIMTW,+16.5,C*3A
$IIMWV,031,R,06.1,N,A*16
$IIMWV,050,T,04.0,N,A*14
$IIVHW,,,232,M,02.6,N,,*63
$IIVWR,031,R,06.2,N,,,,*67
$IIDPT,010.6,-1.0,*47
$IIHDG,232,,,,*54
$IIMTW,+16.5,C*3A
$IIMWV,031,R,06.2,N,A*15
$IIMWV,050,T,04.0,N,A*14
$IIVHW,,,232,M,02.7,N,,*62
$IIVWR,030,R,06.3,N,,,,*67
$IIDPT,010.6,-1.0,*47
$IIHDG,232,,,,*54
$IIMTW,+16.5,C*3A
$IIMWV,030,R,06.3,N,A*15
$IIMWV,051,T,04.1,N,A*14
$IIRMC,170208,A,4629.817,N,00640.230,E,02.4,207,180608,,,A*45
$IIVHW,,,232,M,02.7,N,,*62
$IIVWR,031,R,06.2,N,,,,*67
$IIDPT,010.6,-1.0,*47
$IIGLL,4629.817,N,00640.230,E,170208,A,A*58
$IIHDG,232,,,,*54
$IIMTW,+16.5,C*3A
$IIMWV,031,R,06.2,N,A*15
$IIMWV,052,T,04.0,N,A*16
$IIRMC,170208,A,4629.817,N,00640.230,E,02.4,207,180608,,,A*45
$IIVHW,,,232,M,02.7,N,,*62
$IIVWR,031,R,06.1,N,,,,*64
$IIDPT,010.6,-1.0,*47
$IIGLL,4629.815,N,00640.225,E,170210,A,A*57
$IIHDG,232,,,,*54
$IIMTW,+16.5,C*3A
$IIMWV,031,R,06.1,N,A*16
$IIMWV,052,T,04.0,N,A*16
$IIRMB,A,0.00,L,,VIDY,,,,,002.68,289,00.9,V,A*6D
$IIRMC,170210,A,4629.815,N,00640.225,E,03.0,223,180608,,,A*49
$IIVHW,,,232,M,02.8,N,,*6D
$IIVWR,031,R,06.2,N,,,,*67
$IIDPT,010.8,-1.0,*49
$IIGLL,4629.815,N,00640.225,E,170210,A,A*57
$IIHDG,232,,,,*54
$IIMTW,+16.5,C*3A
$IIMWV,031,R,06.2,N,A*15
$IIMWV,052,T,04.0,N,A*16
$IIRMB,A,0.00,L,,VIDY,,,,,002.68,289,00.9,V,A*6D
$IIRMC,170212,A,4629.815,N,00640.225,E,02.8,222,180608,,,A*43
$IIVHW,,,232,M,02.8,N,,*6D
$IIVWR,030,R,06.1,N,,,,*65
$IIDPT,010.6,-1.0,*47
$IIGLL,4629.815,N,00640.225,E,170212,A,A*55
$IIHDG,232,,,,*54
$IIMTW,+16.5,C*3A
$IIMWV,032,R,06.2,N,A*16
$IIMWV,050,T,03.9,N,A*1A
$IIRMC,170212,A,4629.815,N,00640.225,E,02.8,222,180608,,,A*43
$IIVHW,,,232,M,02.8,N,,*6D
$IIVWR,032,R,06.2,N,,,,*64
$IIDPT,010.7,-1.0,*46
$IIGLL,4629.813,N,00640.222,E,170214,A,A*52
$IIHDG,231,,,,*57
$IIMTW,+16.5,C*3A
$IIMWV,031,R,06.0,N,A*17
$IIMWV,053,T,04.0,N,A*17
$IIRMB,A,0.01,R,,VIDY,,,,,002.68,289,01.3,V,A*79
$IIRMC,170214,A,4629.813,N,00640.222,E,02.9,220,180608,,,A*47
$IIVHW,,,231,M,02.8,N,,*6E
$IIVWR,031,R,06.2,N,,,,*67
$IIDPT,010.7,-1.0,*46
$IIGLL,4629.813,N,00640.222,E,170214,A,A*52
$IIHDG,231,,,,*57
$IIMTW,+16.5,C*3A
$IIMWV,031,R,06.2,N,A*15
$IIMWV,055,T,03.8,N,A*1E
$IIRMC,170214,A,4629.813,N,00640.222,E,02.9,220,180608,,,A*47
$IIVHW,,,231,M,02.8,N,,*6E
$IIVWR,031,R,06.2,N,,,,*67
$IIDPT,010.7,-1.0,*46
$IIGLL,4629.816,N,00640.209,E,170216,A,A*5C
$IIHDG,231,,,,*57
$IIMTW,+16.5,C*3A
$IIMWV,031,R,06.2,N,A*15
$IIMWV,053,T,04.0,N,A*17
$IIRMB,A,0.01,R,,VIDY,,,,,002.68,289,01.3,V,A*79
$IIRMC,170216,A,4629.816,N,00640.209,E,02.8,220,180608,,,A*48
$IIVHW,,,230,M,02.8,N,,*6F
$IIVWR,031,R,06.2,N,,,,*67
$IIDPT,010.7,-1.0,*46
$IIGLL,4629.816,N,00640.209,E,170216,A,A*5C
$IIHDG,230,,,,*56
$IIMTW,+16.5,C*3A
$IIMWV,031,R,06.2,N,A*15
$IIMWV,053,T,04.0,N,A*17
$IIRMB,A,0.01,R,,VIDY,,,,,002.67,289,01.1,V,A*74
$IIRMC,170218,A,4629.816,N,00640.202,E,02.8,218,180608,,,A*46
$IIVHW,,,230,M,02.8,N,,*6F
$IIVWR,031,R,06.2,N,,,,*67
$IIDPT,010.6,-1.0,*47
$IIGLL,4629.816,N,00640.202,E,170218,A,A*59
$IIHDG,230,,,,*56
$IIMTW,+16.5,C*3A
$IIMWV,032,R,06.1,N,A*15
$IIMWV,053,T,04.0,N,A*17
$IIRMC,170218,A,4629.816,N,00640.202,E,02.8,218,180608,,,A*46
$IIVHW,,,230,M,02.8,N,,*6F
$IIVWR,032,R,06.1,N,,,,*67
$IIDPT,010.4,-1.0,*45
$IIGLL,4629.816,N,00640.198,E,170220,A,A*52
$IIHDG,229,,,,*5E
$IIMTW,+16.5,C*3A
$IIMWV,031,R,06.2,N,A*15
$IIMWV,056,T,03.8,N,A*1D
$IIRMB,A,0.01,R,,VIDY,,,,,002.67,289,01.2,V,A*77
$IIRMC,170220,A,4629.816,N,00640.198,E,03.0,223,180608,,,A*4C
$IIVHW,,,229,M,02.9,N,,*66
$IIVWR,032,R,06.2,N,,,,*64
$IIDPT,010.5,-1.0,*44
$IIGLL,4629.816,N,00640.198,E,170220,A,A*52
$IIHDG,230,,,,*56
$IIMTW,+16.5,C*3A
$IIMWV,032,R,06.2,N,A*16
$IIMWV,053,T,04.0,N,A*17
$IIRMC,170220,A,4629.816,N,00640.198,E,03.0,223,180608,,,A*4C
$IIVHW,,,230,M,02.9,N,,*6E
$IIVWR,031,R,06.2,N,,,,*67
$IIDPT,010.5,-1.0,*44
$IIGLL,4629.815,N,00640.195,E,170222,A,A*5E
$IIHDG,230,,,,*56
$IIMTW,+16.5,C*3A
$IIMWV,031,R,06.2,N,A*15
$IIMWV,054,T,03.9,N,A*1E
$IIRMB,A,0.01,R,,VIDY,,,,,002.66,289,01.2,V,A*76
$IIRMC,170222,A,4629.815,N,00640.195,E,02.9,220,180608,,,A*4B
$IIVHW,,,230,M,02.9,N,,*6E
$IIVWR,032,R,06.2,N,,,,*64
$IIDPT,010.5,-1.0,*44
$IIGLL,4629.815,N,00640.195,E,170222,A,A*5E
$IIHDG,230,,,,*56
$IIMTW,+16.5,C*3A
$IIMWV,032,R,06.2,N,A*16
$IIMWV,054,T,03.9,N,A*1E
$IIRMB,A,0.01,R,,VIDY,,,,,002.66,289,01.2,V,A*76
$IIRMC,170224,A,4629.814,N,00640.191,E,03.2,227,180608,,,A*45
$IIVHW,,,230,M,02.9,N,,*6E
$IIVWR,031,R,06.2,N,,,,*67
$IIDPT,010.5,-1.0,*44
$IIGLL,4629.814,N,00640.191,E,170224,A,A*5D
$IIHDG,230,,,,*56
$IIMTW,+16.5,C*3A
$IIMWV,032,R,06.2,N,A*16
$IIMWV,053,T,04.0,N,A*17
$IIRMC,170224,A,4629.814,N,00640.191,E,03.2,227,180608,,,A*45
$IIVHW,,,230,M,02.9,N,,*6E
$IIVWR,032,R,06.2,N,,,,*64
$IIDPT,010.5,-1.0,*44
$IIGLL,4629.813,N,00640.189,E,170226,A,A*51
$IIHDG,230,,,,*56
$IIMTW,+16.5,C*3A
$IIMWV,031,R,06.1,N,A*16
$IIMWV,054,T,03.9,N,A*1E
$IIRMB,A,0.01,R,,VIDY,,,,,002.66,289,01.2,V,A*76
$IIRMC,170226,A,4629.813,N,00640.189,E,03.1,224,180608,,,A*49
$IIVHW,,,230,M,02.9,N,,*6E
$IIVWR,031,R,06.2,N,,,,*67
$IIDPT,010.5,-1.0,*44
$IIGLL,4629.813,N,00640.189,E,170226,A,A*51
$IIHDG,231,,,,*57
$IIMTW,+16.5,C*3A
$IIMWV,031,R,06.2,N,A*15
$IIMWV,053,T,03.8,N,A*18
$IIRMC,170226,A,4629.813,N,00640.189,E,03.1,224,180608,,,A*49
$IIVHW,,,232,M,02.9,N,,*6C
$IIVWR,032,R,06.1,N,,,,*67
$IIDPT,010.4,-1.0,*45
$IIGLL,4629.812,N,00640.187,E,170228,A,A*50
$IIHDG,232,,,,*54
$IIMTW,+16.5,C*3A
$IIMWV,032,R,06.1,N,A*15
$IIMWV,053,T,04.0,N,A*17
$IIRMB,A,0.01,R,,VIDY,,,,,002.66,289,01.5,V,A*71
$IIRMC,170228,A,4629.812,N,00640.187,E,02.9,224,180608,,,A*41
$IIVHW,,,231,M,02.9,N,,*6F
$IIVWR,031,R,06.2,N,,,,*67
$IIDPT,010.3,-1.0,*42
$IIGLL,4629.812,N,00640.187,E,170228,A,A*50
$IIHDG,231,,,,*57
$IIMTW,+16.5,C*3A
$IIMWV,031,R,06.2,N,A*15
$IIMWV,053,T,04.0,N,A*17
$IIRMB,A,0.02,R,,VIDY,,,,,002.66,289,01.3,V,A*74
$IIRMC,170230,A,4629.811,N,00640.185,E,03.0,224,180608,,,A*41
$IIVHW,,,231,M,02.9,N,,*6F
$IIVWR,031,R,06.1,N,,,,*64
$IIDPT,010.3,-1.0,*42
$IIGLL,4629.811,N,00640.185,E,170230,A,A*58
$IIHDG,230,,,,*56
$IIMTW,+16.5,C*3A
$IIMWV,032,R,06.2,N,A*16
$IIMWV,053,T,03.8,N,A*18
$IIRMC,170230,A,4629.811,N,00640.185,E,03.0,224,180608,,,A*41
$IIVHW,,,230,M,02.9,N,,*6E
$IIVWR,032,R,06.2,N,,,,*64
$IIDPT,010.3,-1.0,*42
$IIGLL,4629.810,N,00640.183,E,170232,A,A*5D
$IIHDG,230,,,,*56
$IIMTW,+16.5,C*3A
$IIMWV,031,R,06.2,N,A*15
$IIMWV,056,T,03.8,N,A*1D
$IIRMB,A,0.02,R,,VIDY,,,,,002.66,289,01.2,V,A*75
$IIRMC,170232,A,4629.810,N,00640.183,E,03.1,223,180608,,,A*42
$IIVHW,,,230,M,02.9,N,,*6E
$IIVWR,032,R,06.1,N,,,,*67
$IIDPT,010.3,-1.0,*42
$IIGLL,4629.810,N,00640.183,E,170232,A,A*5D
$IIHDG,230,,,,*56
$IIMTW,+16.5,C*3A
$IIMWV,032,R,06.1,N,A*15
$IIMWV,054,T,03.9,N,A*1E
$IIRMC,170232,A,4629.810,N,00640.183,E,03.1,223,180608,,,A*42
$IIVHW,,,229,M,02.8,N,,*67
$IIVWR,033,R,06.2,N,,,,*65
$IIDPT,010.4,-1.0,*45
$IIGLL,4629.809,N,00640.181,E,170234,A,A*51
$IIHDG,229,,,,*5E
$IIMTW,+16.5,C*3A
$IIMWV,033,R,06.2,N,A*17
$IIMWV,056,T,03.8,N,A*1D
$IIRMB,A,0.02,R,,VIDY,,,,,002.66,289,01.2,V,A*75
$IIRMC,170234,A,4629.809,N,00640.181,E,02.9,221,180608,,,A*45
$IIVHW,,,229,M,02.6,N,,*69
$IIVWR,032,R,06.2,N,,,,*64
$IIDPT,010.4,-1.0,*45
$IIGLL,4629.809,N,00640.181,E,170234,A,A*51
$IIHDG,229,,,,*5E
$IIMTW,+16.5,C*3A
$IIMWV,032,R,06.2,N,A*16
$IIMWV,052,T,04.0,N,A*16
$IIRMB,A,0.02,R,,VIDY,,,,,002.66,289,00.9,V,A*7F
$IIRMC,170236,A,4629.807,N,00640.180,E,03.2,222,180608,,,A*41
$IIVHW,,,229,M,02.7,N,,*68
$IIVWR,032,R,06.3,N,,,,*65
$IIDPT,010.5,-1.0,*44
$IIGLL,4629.807,N,00640.180,E,170236,A,A*5C
$IIHDG,229,,,,*5E
$IIMTW,+16.5,C*3A
$IIMWV,033,R,06.2,N,A*17
$IIMWV,052,T,04.2,N,A*14
$IIRMC,170236,A,4629.807,N,00640.180,E,03.2,222,180608,,,A*41
$IIVHW,,,229,M,02.8,N,,*67
$IIVWR,033,R,06.2,N,,,,*65
$IIDPT,010.5,-1.0,*44
$IIGLL,4629.806,N,00640.178,E,170238,A,A*54
$IIHDG,229,,,,*5E
$IIMTW,+16.5,C*3A
$IIMWV,032,R,06.3,N,A*17
$IIMWV,054,T,04.0,N,A*10
$IIRMB,A,0.02,R,,VIDY,,,,,002.66,289,01.0,V,A*77
$IIRMC,170238,A,4629.806,N,00640.178,E,03.0,220,180608,,,A*49
$IIVHW,,,229,M,02.8,N,,*67
$IIVWR,032,R,06.3,N,,,,*65
$IIDPT,010.6,-1.0,*47
$IIGLL,4629.806,N,00640.178,E,170238,A,A*54
$IIHDG,229,,,,*5E
$IIMTW,+16.5,C*3A
$IIMWV,032,R,06.3,N,A*17
$IIMWV,053,T,04.1,N,A*16
$IIRMC,170238,A,4629.806,N,00640.178,E,03.0,220,180608,,,A*49
$IIVHW,,,230,M,02.8,N,,*6F
$IIVWR,033,R,06.4,N,,,,*63
$IIDPT,010.6,-1.0,*47
$IIGLL,4629.805,N,00640.176,E,170240,A,A*56
$IIHDG,230,,,,*56
$IIMTW,+20.0,C*3A
$IIMWV,033,R,06.4,N,A*11
$IIMWV,053,T,04.1,N,A*16
$IIRMB,A,0.02,R,,VIDY,,,,,002.66,289,01.2,V,A*75
$IIRMC,170240,A,4629.805,N,00640.176,E,03.1,220,180608,,,A*4A
$IIVHW,,,230,M,02.8,N,,*6F
$IIVWR,032,R,06.4,N,,,,*62
$IIDPT,010.6,-1.0,*47
$IIGLL,4629.805,N,00640.176,E,170240,A,A*56
$IIHDG,230,,,,*56
$IIMTW,+17.0,C*3E
$IIMWV,032,R,06.4,N,A*10
$IIMWV,053,T,04.1,N,A*16
$IIRMB,A,0.03,R,,VIDY,,,,,002.66,289,01.2,V,A*74
$IIRMC,170242,A,4629.804,N,00640.175,E,03.1,222,180608,,,A*48
$IIVHW,,,230,M,02.9,N,,*6E
$IIVWR,033,R,06.3,N,,,,*64
$IIDPT,010.9,-1.0,*48
$IIGLL,4629.804,N,00640.175,E,170242,A,A*56
$IIHDG,228,,,,*5F
$IIMTW,+16.5,C*3A
$IIMWV,032,R,06.5,N,A*11
$IIMWV,056,T,04.1,N,A*13
$IIRMC,170242,A,4629.804,N,00640.175,E,03.1,222,180608,,,A*48
$IIVHW,,,228,M,02.9,N,,*67
$IIVWR,032,R,06.5,N,,,,*63
$IIDPT,010.9,-1.0,*48
$IIGLL,4629.802,N,00640.173,E,170244,A,A*50
$IIHDG,230,,,,*56
$IIMTW,+16.5,C*3A
$IIMWV,033,R,06.4,N,A*11
$IIMWV,053,T,04.2,N,A*15
$IIRMB,A,0.03,R,,VIDY,,,,,002.65,289,01.2,V,A*77
$IIRMC,170244,A,4629.802,N,00640.173,E,03.1,220,180608,,,A*4C
$IIVHW,,,230,M,02.9,N,,*6E
$IIVWR,032,R,06.5,N,,,,*63
$IIDPT,010.9,-1.0,*48
$IIGLL,4629.802,N,00640.173,E,170244,A,A*50
$IIHDG,229,,,,*5E
$IIMTW,+16.5,C*3A
$IIMWV,032,R,06.5,N,A*11
$IIMWV,055,T,04.1,N,A*10
$IIRMC,170244,A,4629.802,N,00640.173,E,03.1,220,180608,,,A*4C
$IIVHW,,,229,M,02.9,N,,*66
$IIVWR,032,R,06.5,N,,,,*63
$IIDPT,010.9,-1.0,*48
$IIGLL,4629.801,N,00640.171,E,170246,A,A*53
$IIHDG,229,,,,*5E
$IIMTW,+16.5,C*3A
$IIMWV,032,R,06.5,N,A*11
$IIMWV,054,T,04.2,N,A*12
$IIRMB,A,0.03,R,,VIDY,,,,,002.65,289,01.3,V,A*76
$IIRMC,170246,A,4629.801,N,00640.171,E,03.1,221,180608,,,A*4E
$IIVHW,,,229,M,02.9,N,,*66
$IIVWR,033,R,06.5,N,,,,*62
$IIDPT,010.9,-1.0,*48
$IIGLL,4629.801,N,00640.171,E,170246,A,A*53
$IIHDG,229,,,,*5E
$IIMTW,+16.5,C*3A
$IIMWV,033,R,06.5,N,A*10
$IIMWV,056,T,04.2,N,A*10
$IIRMB,A,0.03,R,,VIDY,,,,,002.65,289,01.2,V,A*77
$IIRMC,170248,A,4629.800,N,00640.170,E,03.2,223,180608,,,A*41
$IIVHW,,,229,M,03.0,N,,*6E
$IIVWR,033,R,06.5,N,,,,*62
$IIDPT,010.7,-1.0,*46
$IIGLL,4629.800,N,00640.170,E,170248,A,A*5D
$IIHDG,230,,,,*56
$IIMTW,+16.5,C*3A
$IIMWV,033,R,06.5,N,A*10
$IIMWV,056,T,04.2,N,A*10
$IIRMC,170248,A,4629.800,N,00640.170,E,03.2,223,180608,,,A*41
$IIVHW,,,230,M,03.0,N,,*66
$IIVWR,033,R,06.5,N,,,,*62
$IIDPT,010.6,-1.0,*47
$IIGLL,4629.799,N,00640.168,E,170250,A,A*52
$IIHDG,228,,,,*5F
$IIMTW,+16.5,C*3A
$IIMWV,032,R,06.5,N,A*11
$IIMWV,056,T,04.2,N,A*10
$IIRMB,A,0.03,R,,VIDY,,,,,002.65,289,01.5,V,A*70
$IIRMC,170250,A,4629.799,N,00640.168,E,03.2,223,180608,,,A*4E
$IIVHW,,,228,M,03.0,N,,*6F
$IIVWR,033,R,06.6,N,,,,*61
$IIDPT,010.6,-1.0,*47
$IIGLL,4629.799,N,00640.168,E,170250,A,A*52
$IIHDG,228,,,,*5F
$IIMTW,+19.5,C*35
$IIMWV,033,R,06.6,N,A*13
$IIMWV,054,T,04.2,N,A*12
$IIRMC,170250,A,4629.799,N,00640.168,E,03.2,223,180608,,,A*4E
$IIVHW,,,229,M,03.0,N,,*6E
$IIVWR,033,R,06.6,N,,,,*61
$IIDPT,010.6,-1.0,*47
$IIGLL,4629.798,N,00640.166,E,170252,A,A*5F
$IIHDG,229,,,,*5E
$IIMTW,+16.5,C*3A
$IIMWV,033,R,06.6,N,A*13
$IIMWV,054,T,04.3,N,A*13
$IIRMB,A,0.03,R,,VIDY,,,,,002.65,289,01.2,V,A*77
$IIRMC,170252,A,4629.798,N,00640.166,E,03.2,225,180608,,,A*45
$IIVHW,,,230,M,03.0,N,,*66
$IIVWR,032,R,06.6,N,,,,*60
$IIDPT,010.6,-1.0,*47
$IIGLL,4629.798,N,00640.166,E,170252,A,A*5F
$IIHDG,230,,,,*56
$IIMTW,+16.5,C*3A
$IIMWV,032,R,06.6,N,A*12
$IIMWV,053,T,04.2,N,A*15
$IIRMB,A,0.03,R,,VIDY,,,,,002.65,289,01.4,V,A*71
$IIRMC,170254,A,4629.796,N,00640.164,E,03.2,223,180608,,,A*49
$IIVHW,,,230,M,03.0,N,,*66
$IIVWR,033,R,06.5,N,,,,*62
$IIDPT,010.6,-1.0,*47
$IIGLL,4629.796,N,00640.164,E,170254,A,A*55
$IIHDG,229,,,,*5E
$IIMTW,+17.0,C*3E
$IIMWV,032,R,06.7,N,A*13
$IIMWV,056,T,04.2,N,A*10
$IIRMC,170254,A,4629.796,N,00640.164,E,03.2,223,180608,,,A*49
$IIVHW,,,229,M,03.0,N,,*6E
$IIVWR,032,R,06.7,N,,,,*61
$IIDPT,010.6,-1.0,*47
$IIGLL,4629.795,N,00640.162,E,170256,A,A*52
$IIHDG,229,,,,*5E
$IIMTW,+17.0,C*3E
$IIMWV,034,R,06.7,N,A*15
$IIMWV,053,T,04.3,N,A*14
$IIRMB,A,0.04,R,,VIDY,,,,,002.65,289,01.3,V,A*71
$IIRMC,170256,A,4629.795,N,00640.162,E,03.1,221,180608,,,A*4F
$IIVHW,,,229,M,03.0,N,,*6E
$IIVWR,032,R,06.8,N,,,,*6E
$IIDPT,012.5,-1.0,*46
$IIGLL,4629.795,N,00640.162,E,170256,A,A*52
$IIHDG,228,,,,*5F
$IIMTW,+16.5,C*3A
$IIMWV,032,R,06.8,N,A*1C
$IIMWV,057,T,04.4,N,A*17
$IIRMC,170256,A,4629.795,N,00640.162,E,03.1,221,180608,,,A*4F
$IIVHW,,,228,M,03.0,N,,*6F
$IIVWR,033,R,06.7,N,,,,*60
$IIDPT,012.5,-1.0,*46
$IIGLL,4629.794,N,00640.160,E,170258,A,A*5F
$IIHDG,228,,,,*5F
$IIMTW,+16.5,C*3A
$IIMWV,033,R,06.7,N,A*12
$IIMWV,054,T,04.4,N,A*14
$IIRMB,A,0.04,R,,VIDY,,,,,002.65,289,01.5,V,A*77
$IIRMC,170300,A,4629.793,N,00640.159,E,03.1,220,180608,,,A*42
$IIVHW,,,228,M,03.0,N,,*6F
$IIVWR,034,R,06.8,N,,,,*68
$IIDPT,012.5,-1.0,*46
$IIGLL,4629.793,N,00640.159,E,170300,A,A*5E
$IIHDG,228,,,,*5F
$IIMTW,+16.5,C*3A
$IIMWV,034,R,06.8,N,A*1A
$IIMWV,057,T,04.5,N,A*16
$IIRMB,A,0.04,R,,VIDY,,,,,002.65,289,01.0,V,A*72
$IIRMC,170302,A,4629.791,N,00640.157,E,03.1,220,180608,,,A*4C
$IIVHW,,,228,M,03.0,N,,*6F
$IIVWR,033,R,06.8,N,,,,*6F
$IIDPT,010.4,-1.0,*45
$IIGLL,4629.791,N,00640.157,E,170302,A,A*50
$IIHDG,228,,,,*5F
$IIMTW,+16.5,C*3A
$IIMWV,033,R,06.7,N,A*12
$IIMWV,053,T,04.5,N,A*12
$IIRMC,170302,A,4629.791,N,00640.157,E,03.1,220,180608,,,A*4C
$IIVHW,,,228,M,03.0,N,,*6F
$IIVWR,033,R,06.7,N,,,,*60
$IIDPT,010.2,-1.0,*43
$IIGLL,4629.790,N,00640.155,E,170304,A,A*55
$IIHDG,228,,,,*5F
$IIMTW,+16.5,C*3A
$IIMWV,032,R,06.8,N,A*1C
$IIMWV,055,T,04.3,N,A*12
$IIRMB,A,0.04,R,,VIDY,,,,,002.65,289,01.2,V,A*70
$IIRMC,170304,A,4629.790,N,00640.155,E,03.3,226,180608,,,A*4D
$IIVHW,,,228,M,03.0,N,,*6F
$IIVWR,033,R,06.8,N,,,,*6F
$IIDPT,010.2,-1.0,*43
$IIGLL,4629.790,N,00640.155,E,170304,A,A*55
$IIHDG,228,,,,*5F
$IIMTW,+16.5,C*3A
$IIMWV,033,R,06.8,N,A*1D
$IIMWV,054,T,04.4,N,A*14
$IIRMC,170304,A,4629.790,N,00640.155,E,03.3,226,180608,,,A*4D
$IIVHW,,,228,M,03.0,N,,*6F
$IIVWR,032,R,06.8,N,,,,*6E
$IIDPT,010.2,-1.0,*43
$IIGLL,4629.789,N,00640.153,E,170306,A,A*59
$IIHDG,228,,,,*5F
$IIMTW,+16.5,C*3A
$IIMWV,032,R,06.8,N,A*1C
$IIMWV,054,T,04.4,N,A*14
$IIRMB,A,0.04,R,,VIDY,,,,,002.65,290,01.2,V,A*78
$IIRMC,170306,A,4629.789,N,00640.153,E,03.3,226,180608,,,A*41
$IIVHW,,,228,M,03.0,N,,*6F
$IIVWR,033,R,06.9,N,,,,*6E
$IIDPT,010.2,-1.0,*43
$IIGLL,4629.789,N,00640.153,E,170306,A,A*59
$IIHDG,228,,,,*5F
$IIMTW,+16.5,C*3A
$IIMWV,033,R,06.9,N,A*1C
$IIMWV,055,T,04.5,N,A*14
$IIRMB,A,0.05,R,,VIDY,,,,,002.65,290,01.2,V,A*79
$IIRMC,170308,A,4629.787,N,00640.151,E,03.2,223,180608,,,A*47
$IIVHW,,,228,M,03.0,N,,*6F
$IIVWR,033,R,06.9,N,,,,*6E
$IIDPT,010.2,-1.0,*43
$IIGLL,4629.787,N,00640.151,E,170308,A,A*5B
$IIHDG,228,,,,*5F
$IIMTW,+17.0,C*3E
$IIMWV,031,R,06.9,N,A*1E
$IIMWV,055,T,04.5,N,A*14
$IIRMC,170308,A,4629.787,N,00640.151,E,03.2,223,180608,,,A*47
$IIVHW,,,228,M,03.0,N,,*6F
$IIVWR,031,R,06.9,N,,,,*6C
$IIDPT,010.2,-1.0,*43
$IIGLL,4629.786,N,00640.150,E,170310,A,A*52
$IIHDG,228,,,,*5F
$IIMTW,+17.0,C*3E
$IIMWV,033,R,06.9,N,A*1C
$IIMWV,051,T,04.4,N,A*11
$IIRMB,A,0.05,R,,VIDY,,,,,002.64,290,01.3,V,A*79
$IIRMC,170310,A,4629.786,N,00640.150,E,03.2,221,180608,,,A*4C
$IIVHW,,,228,M,03.0,N,,*6F
$IIVWR,032,R,06.9,N,,,,*6F
$IIDPT,010.2,-1.0,*43
$IIGLL,4629.786,N,00640.150,E,170310,A,A*52
$IIHDG,227,,,,*50
$IIMTW,+17.0,C*3E
$IIMWV,032,R,06.9,N,A*1D
$IIMWV,055,T,04.5,N,A*14
$IIRMC,170310,A,4629.786,N,00640.150,E,03.2,221,180608,,,A*4C
$IIVHW,,,227,M,03.0,N,,*60
$IIVWR,032,R,06.9,N,,,,*6F
$IIDPT,010.2,-1.0,*43
$IIGLL,4629.785,N,00640.148,E,170312,A,A*5A
$IIHDG,227,,,,*50
$IIMTW,+17.0,C*3E
$IIMWV,032,R,06.9,N,A*1D
$IIMWV,053,T,04.5,N,A*12
$IIRMB,A,0.05,R,,VIDY,,,,,002.64,290,01.2,V,A*78
$IIRMC,170312,A,4629.785,N,00640.148,E,03.2,220,180608,,,A*45
$IIVHW,,,227,M,03.0,N,,*60
$IIVWR,033,R,06.8,N,,,,*6F
$IIDPT,010.2,-1.0,*43
$IIGLL,4629.785,N,00640.148,E,170312,A,A*5A
$IIHDG,227,,,,*50
$IIMTW,+17.0,C*3E
$IIMWV,033,R,06.8,N,A*1D
$IIMWV,054,T,04.4,N,A*14
$IIRMB,A,0.05,R,,VIDY,,,,,002.64,290,01.3,V,A*79
$IIRMC,170314,A,4629.784,N,00640.146,E,03.2,221,180608,,,A*4D
$IIVHW,,,228,M,03.0,N,,*6F
$IIVWR,032,R,06.9,N,,,,*6F
$IIDPT,010.6,-1.0,*47
$IIGLL,4629.784,N,00640.146,E,170314,A,A*53
$IIHDG,228,,,,*5F
$IIMTW,+17.0,C*3E
$IIMWV,033,R,06.8,N,A*1D
$IIMWV,053,T,04.5,N,A*12
$IIRMC,170314,A,4629.784,N,00640.146,E,03.2,221,180608,,,A*4D
$IIVHW,,,228,M,03.0,N,,*6F
$IIVWR,033,R,06.8,N,,,,*6F
$IIDPT,010.6,-1.0,*47
$IIGLL,4629.782,N,00640.145,E,170316,A,A*54
$IIHDG,228,,,,*5F
$IIMTW,+16.5,C*3A
$IIMWV,032,R,06.9,N,A*1D
$IIMWV,054,T,04.4,N,A*14
$IIRMB,A,0.05,R,,VIDY,,,,,002.64,290,01.1,V,A*7B
$IIRMC,170316,A,4629.782,N,00640.145,E,03.2,222,180608,,,A*49
$IIVHW,,,228,M,03.0,N,,*6F
$IIVWR,032,R,07.0,N,,,,*67
$IIDPT,010.5,-1.0,*44
$IIGLL,4629.782,N,00640.145,E,170316,A,A*54
$IIHDG,228,,,,*5F
$IIMTW,+16.5,C*3A
$IIMWV,032,R,07.0,N,A*15
$IIMWV,053,T,04.5,N,A*12
$IIRMC,170316,A,4629.782,N,00640.145,E,03.2,222,180608,,,A*49
$IIVHW,,,228,M,03.1,N,,*6E
$IIVWR,033,R,06.9,N,,,,*6E
$IIDPT,010.5,-1.0,*44
$IIGLL,4629.781,N,00640.143,E,170318,A,A*5F
$IIHDG,228,,,,*5F
$IIMTW,+16.5,C*3A
$IIMWV,033,R,06.9,N,A*1C
$IIMWV,053,T,04.6,N,A*11
$IIRMB,A,0.05,R,,VIDY,,,,,002.64,290,01.1,V,A*7B
$IIRMC,170318,A,4629.781,N,00640.143,E,03.2,222,180608,,,A*42
$IIVHW,,,228,M,03.1,N,,*6E
$IIVWR,031,R,06.9,N,,,,*6C
$IIDPT,010.5,-1.0,*44
$IIGLL,4629.781,N,00640.143,E,170318,A,A*5F
$IIHDG,228,,,,*5F
$IIMTW,+17.0,C*3E
$IIMWV,031,R,06.9,N,A*1E
$IIMWV,051,T,04.4,N,A*11
$IIRMB,A,0.06,R,,VIDY,,,,,002.64,290,01.3,V,A*7A
$IIRMC,170320,A,4629.780,N,00640.141,E,03.2,222,180608,,,A*4A
$IIVHW,,,228,M,03.1,N,,*6E
$IIVWR,031,R,07.0,N,,,,*64
$IIDPT,010.5,-1.0,*44
$IIGLL,4629.780,N,00640.141,E,170320,A,A*57
$IIHDG,228,,,,*5F
$IIMTW,+17.0,C*3E
$IIMWV,033,R,06.9,N,A*1C
$IIMWV,051,T,04.6,N,A*13
$IIRMC,170320,A,4629.780,N,00640.141,E,03.2,222,180608,,,A*4A
$IIVHW,,,228,M,03.1,N,,*6E
$IIVWR,033,R,06.9,N,,,,*6E
$IIDPT,010.4,-1.0,*45
$IIGLL,4629.778,N,00640.139,E,170322,A,A*5D
$IIHDG,228,,,,*5F
$IIMTW,+17.0,C*3E
$IIMWV,032,R,07.1,N,A*14
$IIMWV,055,T,04.5,N,A*14
$IIRMB,A,0.06,R,,VIDY,,,,,002.64,290,01.1,V,A*78
$IIRMC,170322,A,4629.778,N,00640.139,E,03.2,222,180608,,,A*40
$IIVHW,,,228,M,03.1,N,,*6E
$IIVWR,032,R,07.0,N,,,,*67
$IIDPT,010.4,-1.0,*45
$IIGLL,4629.778,N,00640.139,E,170322,A,A*5D
$IIHDG,228,,,,*5F
$IIMTW,+16.5,C*3A
$IIMWV,032,R,07.0,N,A*15
$IIMWV,052,T,04.7,N,A*11
$IIRMC,170322,A,4629.778,N,00640.139,E,03.2,222,180608,,,A*40
$IIVHW,,,228,M,03.1,N,,*6E
$IIVWR,033,R,07.0,N,,,,*66
$IIDPT,010.4,-1.0,*45
$IIGLL,4629.777,N,00640.138,E,170324,A,A*55
$IIHDG,228,,,,*5F
$IIMTW,+16.5,C*3A
$IIMWV,033,R,07.0,N,A*14
$IIMWV,053,T,04.6,N,A*11
$IIRMB,A,0.06,R,,VIDY,,,,,002.64,290,01.2,V,A*7B
$IIRMC,170324,A,4629.777,N,00640.138,E,03.2,222,180608,,,A*48
$IIVHW,,,228,M,03.1,N,,*6E
$IIVWR,032,R,07.0,N,,,,*67
$IIDPT,010.4,-1.0,*45
$IIGLL,4629.777,N,00640.138,E,170324,A,A*55
$IIHDG,228,,,,*5F
$IIMTW,+17.0,C*3E
$IIMWV,032,R,07.0,N,A*15
$IIMWV,053,T,04.6,N,A*11
$IIRMB,A,0.06,R,,VIDY,,,,,002.64,290,01.0,V,A*79
$IIRMC,170326,A,4629.776,N,00640.136,E,03.2,222,180608,,,A*45
$IIVHW,,,228,M,03.1,N,,*6E
$IIVWR,032,R,07.1,N,,,,*66
$IIDPT,010.4,-1.0,*45
$IIGLL,4629.776,N,00640.136,E,170326,A,A*58
$IIHDG,228,,,,*5F
$IIMTW,+17.0,C*3E
$IIMWV,033,R,07.0,N,A*14
$IIMWV,052,T,04.7,N,A*11
$IIRMC,170326,A,4629.776,N,00640.136,E,03.2,222,180608,,,A*45
$IIVHW,,,228,M,03.1,N,,*6E
$IIVWR,033,R,07.0,N,,,,*66
$IIDPT,010.4,-1.0,*45
$IIGLL,4629.774,N,00640.134,E,170328,A,A*56
$IIHDG,227,,,,*50
$IIMTW,+19.5,C*35
$IIMWV,032,R,07.2,N,A*17
$IIMWV,054,T,04.5,N,A*15
$IIRMB,A,0.06,R,,VIDY,,,,,002.64,290,01.2,V,A*7B
$IIRMC,170328,A,4629.774,N,00640.134,E,03.2,219,180608,,,A*43
$IIVHW,,,227,M,03.1,N,,*61
$IIVWR,032,R,07.1,N,,,,*66
$IIDPT,010.6,-1.0,*47
$IIGLL,4629.774,N,00640.134,E,170328,A,A*56
$IIHDG,228,,,,*5F
$IIMTW,+17.5,C*3B
$IIMWV,032,R,07.1,N,A*14
$IIMWV,052,T,04.8,N,A*1E
$IIRMC,170328,A,4629.774,N,00640.134,E,03.2,219,180608,,,A*43
$IIVHW,,,227,M,03.1,N,,*61
$IIVWR,033,R,07.0,N,,,,*66
$IIDPT,010.6,-1.0,*47
$IIGLL,4629.773,N,00640.132,E,170330,A,A*5E
$IIHDG,227,,,,*50
$IIMTW,+17.5,C*3B
$IIMWV,033,R,07.0,N,A*14
$IIMWV,052,T,04.7,N,A*11
$IIRMB,A,0.06,R,,VIDY,,,,,002.64,290,01.1,V,A*78
$IIRMC,170332,A,4629.772,N,00640.130,E,03.3,221,180608,,,A*40
$IIVHW,,,227,M,03.1,N,,*61
$IIVWR,032,R,07.2,N,,,,*65
$IIDPT,010.6,-1.0,*47
$IIGLL,4629.772,N,00640.130,E,170332,A,A*5F
$IIHDG,227,,,,*50
$IIMTW,+17.0,C*3E
$IIMWV,032,R,07.2,N,A*17
$IIMWV,052,T,04.8,N,A*1E
$IIRMB,A,0.07,R,,VIDY,,,,,002.64,290,01.1,V,A*79
$IIRMC,170332,A,4629.772,N,00640.130,E,03.3,221,180608,,,A*40
$IIVHW,,,227,M,03.1,N,,*61
$IIVWR,032,R,07.1,N,,,,*66
$IIDPT,010.6,-1.0,*47
$IIGLL,4629.772,N,00640.130,E,170332,A,A*5F
$IIHDG,228,,,,*5F
$IIMTW,+17.0,C*3E
$IIMWV,033,R,07.2,N,A*16
$IIMWV,052,T,04.7,N,A*11
$IIRMB,A,0.07,R,,VIDY,,,,,002.64,290,01.1,V,A*79
$IIRMC,170334,A,4629.771,N,00640.129,E,03.3,221,180608,,,A*4D
$IIVHW,,,228,M,03.1,N,,*6E
$IIVWR,033,R,07.2,N,,,,*64
$IIDPT,011.1,-1.0,*41
$IIGLL,4629.771,N,00640.129,E,170334,A,A*52
$IIHDG,226,,,,*51
$IIMTW,+16.5,C*3A
$IIMWV,032,R,07.1,N,A*14
$IIMWV,053,T,04.7,N,A*10
$IIRMC,170334,A,4629.771,N,00640.129,E,03.3,221,180608,,,A*4D
$IIVHW,,,226,M,03.1,N,,*60
$IIVWR,032,R,07.2,N,,,,*65
$IIDPT,011.1,-1.0,*41
$IIGLL,4629.769,N,00640.127,E,170336,A,A*57
$IIHDG,226,,,,*51
$IIMTW,+16.5,C*3A
$IIMWV,032,R,07.2,N,A*17
$IIMWV,053,T,04.6,N,A*11
$IIRMB,A,0.07,R,,VIDY,,,,,002.64,290,01.1,V,A*79
$IIRMC,170336,A,4629.769,N,00640.127,E,03.4,224,180608,,,A*4A
$IIVHW,,,228,M,03.1,N,,*6E
$IIVWR,033,R,07.1,N,,,,*67
$IIDPT,011.1,-1.0,*41
$IIGLL,4629.769,N,00640.127,E,170336,A,A*57
$IIHDG,228,,,,*5F
$IIMTW,+16.5,C*3A
$IIMWV,033,R,07.1,N,A*15
$IIMWV,055,T,04.6,N,A*17
$IIRMB,A,0.07,R,,VIDY,,,,,002.64,290,01.1,V,A*79
$IIRMC,170338,A,4629.768,N,00640.125,E,03.3,222,180608,,,A*46
$IIVHW,,,228,M,03.1,N,,*6E
$IIVWR,033,R,07.2,N,,,,*64
$IIDPT,011.1,-1.0,*41
$IIGLL,4629.768,N,00640.125,E,170338,A,A*5A
$IIHDG,227,,,,*50
$IIMTW,+17.0,C*3E
$IIMWV,033,R,07.3,N,A*17
$IIMWV,053,T,04.7,N,A*10
$IIRMC,170338,A,4629.768,N,00640.125,E,03.3,222,180608,,,A*46
$IIVHW,,,227,M,03.1,N,,*61
$IIVWR,033,R,07.3,N,,,,*65
$IIDPT,011.1,-1.0,*41
$IIGLL,4629.767,N,00640.123,E,170340,A,A*5C
$IIHDG,227,,,,*50
$IIMTW,+17.0,C*3E
$IIMWV,032,R,07.2,N,A*17
$IIMWV,053,T,04.8,N,A*1F
$IIRMB,A,0.07,R,,VIDY,,,,,002.63,290,01.2,V,A*7D
$IIRMC,170340,A,4629.767,N,00640.123,E,03.2,221,180608,,,A*42
$IIVHW,,,227,M,03.1,N,,*61
$IIVWR,032,R,07.2,N,,,,*65
$IIDPT,010.9,-1.0,*48
$IIGLL,4629.767,N,00640.123,E,170340,A,A*5C
$IIHDG,228,,,,*5F
$IIMTW,+17.0,C*3E
$IIMWV,032,R,07.2,N,A*17
$IIMWV,053,T,04.7,N,A*10
$IIRMC,170340,A,4629.767,N,00640.123,E,03.2,221,180608,,,A*42
$IIVHW,,,228,M,03.2,N,,*6D
$IIVWR,033,R,07.3,N,,,,*65
$IIDPT,010.8,-1.0,*49
$IIGLL,4629.765,N,00640.121,E,170342,A,A*5E
$IIHDG,228,,,,*5F
$IIMTW,+17.0,C*3E
$IIMWV,033,R,07.3,N,A*17
$IIMWV,053,T,04.7,N,A*10
$IIRMB,A,0.07,R,,VIDY,,,,,002.63,290,01.2,V,A*7D
$IIRMC,170342,A,4629.765,N,00640.121,E,03.3,222,180608,,,A*42
$IIVHW,,,228,M,03.1,N,,*6E
$IIVWR,032,R,07.4,N,,,,*63
$IIDPT,010.8,-1.0,*49
$IIGLL,4629.765,N,00640.121,E,170342,A,A*5E
$IIHDG,228,,,,*5F
$IIMTW,+17.0,C*3E
$IIMWV,032,R,07.4,N,A*11
$IIMWV,052,T,04.9,N,A*1F
$IIRMB,A,0.08,R,,VIDY,,,,,002.63,290,01.3,V,A*73
$IIRMC,170344,A,4629.764,N,00640.120,E,03.3,221,180608,,,A*47
$IIVHW,,,228,M,03.1,N,,*6E
$IIVWR,032,R,07.3,N,,,,*64
$IIDPT,010.8,-1.0,*49
$IIGLL,4629.764,N,00640.120,E,170344,A,A*58
$IIHDG,228,,,,*5F
$IIMTW,+16.5,C*3A
$IIMWV,032,R,07.3,N,A*16
$IIMWV,052,T,04.8,N,A*1E
$IIRMC,170344,A,4629.764,N,00640.120,E,03.3,221,180608,,,A*47
$IIVHW,,,228,M,03.1,N,,*6E
$IIVWR,032,R,07.3,N,,,,*64
$IIDPT,010.8,-1.0,*49
$IIGLL,4629.763,N,00640.118,E,170346,A,A*56
$IIHDG,228,,,,*5F
$IIMTW,+16.5,C*3A
$IIMWV,032,R,07.3,N,A*16
$IIMWV,052,T,04.8,N,A*1E
$IIRMB,A,0.08,R,,VIDY,,,,,002.63,290,01.2,V,A*72
$IIRMC,170346,A,4629.763,N,00640.118,E,03.3,222,180608,,,A*4A
$IIVHW,,,228,M,03.1,N,,*6E
$IIVWR,032,R,07.2,N,,,,*65
$IIDPT,010.7,-1.0,*46
$IIGLL,4629.763,N,00640.118,E,170346,A,A*56
$IIHDG,228,,,,*5F
$IIMTW,+16.5,C*3A
$IIMWV,032,R,07.2,N,A*17
$IIMWV,052,T,04.8,N,A*1E
$IIRMC,170346,A,4629.763,N,00640.118,E,03.3,222,180608,,,A*4A
$IIVHW,,,228,M,03.2,N,,*6D
$IIVWR,033,R,07.3,N,,,,*65
$IIDPT,010.7,-1.0,*46
$IIGLL,4629.761,N,00640.116,E,170348,A,A*54
$IIHDG,228,,,,*5F
$IIMTW,+16.5,C*3A
$IIMWV,033,R,07.3,N,A*17
$IIMWV,053,T,04.7,N,A*10
$IIRMB,A,0.08,R,,VIDY,,,,,002.63,290,01.2,V,A*72
$IIRMC,170348,A,4629.761,N,00640.116,E,03.4,223,180608,,,A*4E
$IIVHW,,,228,M,03.2,N,,*6D
$IIVWR,032,R,07.3,N,,,,*64
$IIDPT,010.7,-1.0,*46
$IIGLL,4629.761,N,00640.116,E,170348,A,A*54
$IIHDG,228,,,,*5F
$IIMTW,+16.5,C*3A
$IIMWV,032,R,07.3,N,A*16
$IIMWV,052,T,04.8,N,A*1E
$IIRMB,A,0.08,R,,VIDY,,,,,002.63,290,01.1,V,A*71
$IIRMC,170350,A,4629.760,N,00640.114,E,03.2,219,180608,,,A*4B
$IIVHW,,,226,M,03.1,N,,*60
$IIVWR,032,R,07.4,N,,,,*63
$IIDPT,010.7,-1.0,*46
$IIGLL,4629.760,N,00640.114,E,170350,A,A*5E
$IIHDG,226,,,,*51
$IIMTW,+16.5,C*3A
$IIMWV,032,R,07.3,N,A*16
$IIMWV,052,T,04.9,N,A*1F
$IIRMC,170350,A,4629.760,N,00640.114,E,03.2,219,180608,,,A*4B
$IIVHW,,,226,M,03.2,N,,*63
$IIVWR,032,R,07.3,N,,,,*64
$IIDPT,010.7,-1.0,*46
$IIGLL,4629.759,N,00640.112,E,170352,A,A*50
$IIHDG,225,,,,*52
$IIMTW,+16.5,C*3A
$IIMWV,032,R,07.3,N,A*16
$IIMWV,052,T,04.8,N,A*1E
$IIRMB,A,0.08,R,,VIDY,,,,,002.63,290,01.0,V,A*70
$IIRMC,170352,A,4629.759,N,00640.112,E,03.4,220,180608,,,A*49
$IIVHW,,,225,M,03.2,N,,*60
$IIVWR,033,R,07.4,N,,,,*62
$IIDPT,010.6,-1.0,*47
$IIGLL,4629.759,N,00640.112,E,170352,A,A*50
$IIHDG,224,,,,*53
$IIMTW,+16.5,C*3A
$IIMWV,033,R,07.4,N,A*10
$IIMWV,052,T,04.8,N,A*1E
$IIRMC,170352,A,4629.759,N,00640.112,E,03.4,220,180608,,,A*49
$IIVHW,,,225,M,03.1,N,,*63
$IIVWR,032,R,07.4,N,,,,*63
$IIDPT,010.6,-1.0,*47
$IIGLL,4629.757,N,00640.110,E,170354,A,A*5A
$IIHDG,225,,,,*52
$IIMTW,+16.5,C*3A
$IIMWV,032,R,07.4,N,A*11
$IIMWV,052,T,04.9,N,A*1F
$IIRMB,A,0.08,R,,VIDY,,,,,002.63,290,01.2,V,A*72
$IIRMC,170354,A,4629.757,N,00640.110,E,03.4,222,180608,,,A*41
$IIVHW,,,226,M,03.2,N,,*63
$IIVWR,032,R,07.5,N,,,,*62
$IIDPT,010.8,-1.0,*49
$IIGLL,4629.757,N,00640.110,E,170354,A,A*5A
$IIHDG,226,,,,*51
$IIMTW,+16.5,C*3A
$IIMWV,032,R,07.5,N,A*10
$IIMWV,052,T,04.9,N,A*1F
$IIRMB,A,0.09,R,,VIDY,,,,,002.63,290,01.1,V,A*70
$IIRMC,170356,A,4629.756,N,00640.109,E,03.3,219,180608,,,A*45
$IIVHW,,,226,M,03.2,N,,*63
$IIVWR,032,R,07.4,N,,,,*63
$IIDPT,010.8,-1.0,*49
$IIGLL,4629.756,N,00640.109,E,170356,A,A*51
$IIHDG,226,,,,*51
$IIMTW,+16.5,C*3A
$IIMWV,032,R,07.3,N,A*16
$IIMWV,052,T,04.9,N,A*1F
$IIRMC,170356,A,4629.756,N,00640.109,E,03.3,219,180608,,,A*45
$IIVHW,,,226,M,03.2,N,,*63
$IIVWR,032,R,07.3,N,,,,*64
$IIDPT,010.8,-1.0,*49
$IIGLL,4629.754,N,00640.107,E,170358,A,A*53
$IIHDG,226,,,,*51
$IIMTW,+16.5,C*3A
$IIMWV,032,R,07.4,N,A*11
$IIMWV,052,T,04.8,N,A*1E
$IIRMB,A,0.09,R,,VIDY,,,,,002.63,290,01.1,V,A*70
$IIRMC,170358,A,4629.754,N,00640.107,E,03.4,219,180608,,,A*40
$IIVHW,,,226,M,03.2,N,,*63
$IIVWR,033,R,07.5,N,,,,*63
$IIDPT,010.8,-1.0,*49
$IIGLL,4629.754,N,00640.107,E,170358,A,A*53
$IIHDG,226,,,,*51
$IIMTW,+17.0,C*3E
$IIMWV,033,R,07.5,N,A*11
$IIMWV,052,T,04.9,N,A*1F
$IIRMC,170358,A,4629.754,N,00640.107,E,03.4,219,180608,,,A*40
$IIVHW,,,226,M,03.2,N,,*63
$IIVWR,032,R,07.3,N,,,,*64
$IIDPT,010.8,-1.0,*49
$IIGLL,4629.753,N,00640.105,E,170400,A,A*5C
$IIHDG,226,,,,*51
$IIMTW,+17.0,C*3E
$IIMWV,032,R,07.3,N,A*16
$IIMWV,052,T,05.0,N,A*17
$IIRMB,A,0.09,R,,VIDY,,,,,002.63,291,01.2,V,A*72
$IIRMC,170400,A,4629.753,N,00640.105,E,03.3,218,180608,,,A*49
$IIVHW,,,225,M,03.2,N,,*60
$IIVWR,033,R,07.6,N,,,,*60
$IIDPT,010.8,-1.0,*49
$IIGLL,4629.753,N,00640.105,E,170400,A,A*5C
$IIHDG,225,,,,*52
$IIMTW,+17.0,C*3E
$IIMWV,033,R,07.6,N,A*12
$IIMWV,054,T,05.0,N,A*11
$IIRMB,A,0.09,R,,VIDY,,,,,002.63,291,00.9,V,A*78
$IIRMC,170404,A,4629.750,N,00640.102,E,03.5,219,180608,,,A*4E
$IIVHW,,,224,M,03.2,N,,*61
$IIVWR,033,R,07.7,N,,,,*61
$IIDPT,010.7,-1.0,*46
$IIGLL,4629.750,N,00640.102,E,170404,A,A*5C
$IIHDG,223,,,,*54
$IIMTW,+17.0,C*3E
$IIMWV,033,R,07.7,N,A*13
$IIMWV,053,T,05.1,N,A*17
$IIRMC,170404,A,4629.750,N,00640.102,E,03.5,219,180608,,,A*4E
$IIVHW,,,223,M,03.2,N,,*66
$IIVWR,033,R,07.7,N,,,,*61
$IIDPT,010.6,-1.0,*47
$IIGLL,4629.749,N,00640.100,E,170406,A,A*54
$IIHDG,222,,,,*55
$IIMTW,+17.0,C*3E
$IIMWV,034,R,07.7,N,A*14
$IIMWV,053,T,05.1,N,A*17
$IIRMB,A,0.09,R,,VIDY,,,,,002.63,291,01.0,V,A*70
$IIRMC,170406,A,4629.749,N,00640.100,E,03.4,215,180608,,,A*4B
$IIVHW,,,222,M,03.2,N,,*67
$IIVWR,035,R,07.7,N,,,,*67
$IIDPT,010.7,-1.0,*46
$IIGLL,4629.749,N,00640.100,E,170406,A,A*54
$IIHDG,222,,,,*55
$IIMTW,+17.0,C*3E
$IIMWV,035,R,07.7,N,A*15
$IIMWV,055,T,05.2,N,A*12
$IIRMC,170406,A,4629.749,N,00640.100,E,03.4,215,180608,,,A*4B
$IIVHW,,,221,M,03.2,N,,*64
$IIVWR,034,R,07.7,N,,,,*66
$IIDPT,010.6,-1.0,*47
$IIGLL,4629.747,N,00640.098,E,170408,A,A*54
$IIHDG,221,,,,*56
$IIMTW,+19.5,C*35
$IIMWV,034,R,07.7,N,A*14
$IIMWV,055,T,05.2,N,A*12
$IIRMB,A,0.10,R,,VIDY,,,,,002.63,291,00.9,V,A*70
$IIRMC,170408,A,4629.747,N,00640.098,E,03.4,214,180608,,,A*4A
$IIVHW,,,220,M,03.2,N,,*65
$IIVWR,034,R,07.5,N,,,,*64
$IIDPT,010.7,-1.0,*46
$IIGLL,4629.747,N,00640.098,E,170408,A,A*54
$IIHDG,220,,,,*57
$IIMTW,+17.0,C*3E
$IIMWV,034,R,07.5,N,A*16
$IIMWV,055,T,05.1,N,A*11
$IIRMB,A,0.10,R,,VIDY,,,,,002.63,291,00.8,V,A*71
$IIRMC,170410,A,4629.745,N,00640.097,E,03.5,215,180608,,,A*4E
$IIVHW,,,222,M,03.2,N,,*67
$IIVWR,035,R,07.5,N,,,,*65
$IIDPT,011.0,-1.0,*40
$IIGLL,4629.745,N,00640.097,E,170410,A,A*50
$IIHDG,222,,,,*55
$IIMTW,+16.5,C*3A
$IIMWV,036,R,07.4,N,A*15
$IIMWV,056,T,05.0,N,A*13
$IIRMC,170410,A,4629.745,N,00640.097,E,03.5,215,180608,,,A*4E
$IIVHW,,,222,M,03.2,N,,*67
$IIVWR,036,R,07.4,N,,,,*67
$IIDPT,011.0,-1.0,*40
$IIGLL,4629.744,N,00640.095,E,170412,A,A*51
$IIHDG,222,,,,*55
$IIMTW,+16.5,C*3A
$IIMWV,035,R,07.5,N,A*17
$IIMWV,059,T,05.0,N,A*1C
$IIRMB,A,0.10,R,,VIDY,,,,,002.62,291,00.9,V,A*71
$IIRMC,170412,A,4629.744,N,00640.095,E,03.5,217,180608,,,A*4D
$IIVHW,,,222,M,03.2,N,,*67
$IIVWR,035,R,07.5,N,,,,*65
$IIDPT,011.1,-1.0,*41
$IIGLL,4629.744,N,00640.095,E,170412,A,A*51
$IIHDG,224,,,,*53
$IIMTW,+17.0,C*3E
$IIMWV,035,R,07.5,N,A*17
$IIMWV,056,T,05.0,N,A*13
$IIRMC,170412,A,4629.744,N,00640.095,E,03.5,217,180608,,,A*4D
$IIVHW,,,223,M,03.3,N,,*67
$IIVWR,036,R,07.3,N,,,,*60
$IIDPT,011.1,-1.0,*41
$IIGLL,4629.742,N,00640.093,E,170414,A,A*57
$IIHDG,223,,,,*54
$IIMTW,+17.0,C*3E
$IIMWV,036,R,07.3,N,A*12
$IIMWV,056,T,05.0,N,A*13
$IIRMB,A,0.10,R,,VIDY,,,,,002.62,291,00.9,V,A*71
$IIRMC,170414,A,4629.742,N,00640.093,E,03.5,216,180608,,,A*4A
$IIVHW,,,223,M,03.2,N,,*66
$IIVWR,034,R,07.3,N,,,,*62
$IIDPT,011.1,-1.0,*41
$IIGLL,4629.742,N,00640.093,E,170414,A,A*57
$IIHDG,223,,,,*54
$IIMTW,+17.0,C*3E
$IIMWV,034,R,07.3,N,A*10
$IIMWV,056,T,04.8,N,A*1A
$IIRMB,A,0.10,R,,VIDY,,,,,002.62,291,01.0,V,A*79
$IIRMC,170416,A,4629.741,N,00640.092,E,03.5,219,180608,,,A*45
$IIVHW,,,224,M,03.3,N,,*60
$IIVWR,034,R,07.4,N,,,,*65
$IIDPT,010.8,-1.0,*49
$IIGLL,4629.741,N,00640.092,E,170416,A,A*57
$IIHDG,224,,,,*53
$IIMTW,+17.0,C*3E
$IIMWV,034,R,07.5,N,A*16
$IIMWV,056,T,04.9,N,A*1B
$IIRMC,170416,A,4629.741,N,00640.092,E,03.5,219,180608,,,A*45
$IIVHW,,,224,M,03.3,N,,*60
$IIVWR,034,R,07.5,N,,,,*64
$IIDPT,010.8,-1.0,*49
$IIGLL,4629.739,N,00640.090,E,170418,A,A*54
$IIHDG,224,,,,*53
$IIMTW,+19.5,C*35
$IIMWV,034,R,07.5,N,A*16
$IIMWV,055,T,05.1,N,A*11
$IIRMB,A,0.11,R,,VIDY,,,,,002.62,291,01.1,V,A*79
$IIRMC,170418,A,4629.739,N,00640.090,E,03.5,218,180608,,,A*47
$IIVHW,,,224,M,03.3,N,,*60
$IIVWR,034,R,07.6,N,,,,*67
$IIDPT,010.6,-1.0,*47
$IIGLL,4629.739,N,00640.090,E,170418,A,A*54
$IIHDG,225,,,,*52
$IIMTW,+18.0,C*31
$IIMWV,034,R,07.6,N,A*15
$IIMWV,055,T,05.1,N,A*11
$IIRMC,170418,A,4629.739,N,00640.090,E,03.5,218,180608,,,A*47
$IIVHW,,,224,M,03.3,N,,*60
$IIVWR,034,R,07.6,N,,,,*67
$IIDPT,010.6,-1.0,*47
$IIGLL,4629.738,N,00640.088,E,170420,A,A*57
$IIHDG,224,,,,*53
$IIMTW,+16.5,C*3A
$IIMWV,034,R,07.6,N,A*15
$IIMWV,054,T,05.1,N,A*10
$IIRMB,A,0.11,R,,VIDY,,,,,002.62,291,01.0,V,A*78
$IIRMC,170420,A,4629.738,N,00640.088,E,03.5,218,180608,,,A*44
$IIVHW,,,225,M,03.3,N,,*61
$IIVWR,033,R,07.6,N,,,,*60
$IIDPT,010.6,-1.0,*47
$IIGLL,4629.738,N,00640.088,E,170420,A,A*57
$IIHDG,225,,,,*52
$IIMTW,+16.5,C*3A
$IIMWV,033,R,07.6,N,A*12
$IIMWV,055,T,05.0,N,A*10
$IIRMB,A,0.11,R,,VIDY,,,,,002.62,291,01.1,V,A*79
$IIRMC,170422,A,4629.736,N,00640.086,E,03.6,222,180608,,,A*4C
$IIVHW,,,225,M,03.3,N,,*61
$IIVWR,033,R,07.6,N,,,,*60
$IIDPT,010.6,-1.0,*47
$IIGLL,4629.736,N,00640.086,E,170422,A,A*55
$IIHDG,224,,,,*53
$IIMTW,+16.5,C*3A
$IIMWV,033,R,07.7,N,A*13
$IIMWV,055,T,05.0,N,A*10
$IIRMC,170422,A,4629.736,N,00640.086,E,03.6,222,180608,,,A*4C
$IIVHW,,,224,M,03.3,N,,*60
$IIVWR,033,R,07.7,N,,,,*61
$IIDPT,010.6,-1.0,*47
$IIGLL,4629.735,N,00640.084,E,170424,A,A*52
$IIHDG,224,,,,*53
$IIMTW,+16.5,C*3A
$IIMWV,032,R,07.7,N,A*12
$IIMWV,054,T,05.0,N,A*11
$IIRMB,A,0.11,R,,VIDY,,,,,002.62,291,01.1,V,A*79
$IIRMC,170424,A,4629.735,N,00640.084,E,03.6,221,180608,,,A*48
$IIVHW,,,224,M,03.3,N,,*60
$IIVWR,031,R,07.4,N,,,,*60
$IIDPT,010.6,-1.0,*47
$IIGLL,4629.735,N,00640.084,E,170424,A,A*52
$IIHDG,224,,,,*53
$IIMTW,+16.5,C*3A
$IIMWV,031,R,07.4,N,A*12
$IIMWV,052,T,05.0,N,A*17
$IIRMC,170424,A,4629.735,N,00640.084,E,03.6,221,180608,,,A*48
$IIVHW,,,224,M,03.3,N,,*60
$IIVWR,033,R,07.4,N,,,,*62
$IIDPT,010.6,-1.0,*47
$IIGLL,4629.733,N,00640.082,E,170426,A,A*50
$IIHDG,224,,,,*53
$IIMTW,+16.5,C*3A
$IIMWV,033,R,07.4,N,A*10
$IIMWV,053,T,04.7,N,A*10
$IIRMB,A,0.11,R,,VIDY,,,,,002.62,291,00.9,V,A*70
$IIRMC,170426,A,4629.733,N,00640.082,E,03.5,217,180608,,,A*4C
$IIVHW,,,223,M,03.3,N,,*67
$IIVWR,032,R,07.2,N,,,,*65
$IIDPT,010.6,-1.0,*47
$IIGLL,4629.733,N,00640.082,E,170426,A,A*50
$IIHDG,223,,,,*54
$IIMTW,+16.5,C*3A
$IIMWV,032,R,07.2,N,A*17
$IIMWV,055,T,04.6,N,A*17
$IIRMB,A,0.11,R,,VIDY,,,,,002.62,291,00.9,V,A*70
$IIRMC,170428,A,4629.732,N,00640.081,E,03.5,217,180608,,,A*40
$IIVHW,,,223,M,03.3,N,,*67
$IIVWR,033,R,07.2,N,,,,*64
$IIDPT,010.6,-1.0,*47
$IIGLL,4629.732,N,00640.081,E,170428,A,A*5C
$IIHDG,223,,,,*54
$IIMTW,+17.0,C*3E
$IIMWV,034,R,07.3,N,A*10
$IIMWV,056,T,04.6,N,A*14
$IIRMC,170428,A,4629.732,N,00640.081,E,03.5,217,180608,,,A*40
$IIVHW,,,223,M,03.3,N,,*67
$IIVWR,034,R,07.3,N,,,,*62
$IIDPT,010.6,-1.0,*47
$IIGLL,4629.730,N,00640.079,E,170430,A,A*50
$IIHDG,224,,,,*53
$IIMTW,+17.0,C*3E
$IIMWV,033,R,07.2,N,A*16
$IIMWV,057,T,04.7,N,A*14
$IIRMB,A,0.12,R,,VIDY,,,,,002.62,291,01.0,V,A*7B
$IIRMC,170430,A,4629.730,N,00640.079,E,03.5,216,180608,,,A*4D
$IIVHW,,,224,M,03.3,N,,*60
$IIVWR,033,R,07.2,N,,,,*64
$IIDPT,011.0,-1.0,*40
$IIGLL,4629.730,N,00640.079,E,170430,A,A*50
$IIHDG,224,,,,*53
$IIMTW,+17.0,C*3E
$IIMWV,033,R,07.2,N,A*16
$IIMWV,056,T,04.6,N,A*14
$IIRMC,170430,A,4629.730,N,00640.079,E,03.5,216,180608,,,A*4D
$IIVHW,,,223,M,03.3,N,,*67
$IIVWR,034,R,07.4,N,,,,*65
$IIDPT,011.2,-1.0,*42
$IIGLL,4629.729,N,00640.077,E,170432,A,A*54
$IIHDG,223,,,,*54
$IIMTW,+17.0,C*3E
$IIMWV,034,R,07.4,N,A*17
$IIMWV,056,T,04.6,N,A*14
$IIRMB,A,0.12,R,,VIDY,,,,,002.62,291,00.9,V,A*73
$IIRMC,170432,A,4629.729,N,00640.077,E,03.5,216,180608,,,A*49
$IIVHW,,,223,M,03.3,N,,*67
$IIVWR,033,R,07.2,N,,,,*64
$IIDPT,011.2,-1.0,*42
$IIGLL,4629.729,N,00640.077,E,170432,A,A*54
$IIHDG,223,,,,*54
$IIMTW,+17.0,C*3E
$IIMWV,033,R,07.2,N,A*16
$IIMWV,056,T,04.6,N,A*14
$IIRMB,A,0.12,R,,VIDY,,,,,002.62,291,00.9,V,A*73
$IIRMC,170434,A,4629.727,N,00640.076,E,03.6,217,180608,,,A*42
$IIVHW,,,223,M,03.4,N,,*60
$IIVWR,034,R,07.3,N,,,,*62
$IIDPT,011.2,-1.0,*42
$IIGLL,4629.727,N,00640.076,E,170434,A,A*5D
$IIHDG,224,,,,*53
$IIMTW,+17.0,C*3E
$IIMWV,033,R,07.2,N,A*16
$IIMWV,057,T,04.7,N,A*14
$IIRMC,170434,A,4629.727,N,00640.076,E,03.6,217,180608,,,A*42
$IIVHW,,,224,M,03.4,N,,*67
$IIVWR,033,R,07.2,N,,,,*64
$IIDPT,011.1,-1.0,*41
$IIGLL,4629.725,N,00640.074,E,170436,A,A*5F
$IIHDG,224,,,,*53
$IIMTW,+17.0,C*3E
$IIMWV,034,R,07.2,N,A*11
$IIMWV,056,T,04.6,N,A*14
$IIRMB,A,0.12,R,,VIDY,,,,,002.62,291,00.9,V,A*73
$IIRMC,170436,A,4629.725,N,00640.074,E,03.5,214,180608,,,A*40
$IIVHW,,,224,M,03.4,N,,*67
$IIVWR,034,R,07.1,N,,,,*60
$IIDPT,010.8,-1.0,*49
$IIGLL,4629.725,N,00640.074,E,170436,A,A*5F
$IIHDG,224,,,,*53
$IIMTW,+17.0,C*3E
$IIMWV,034,R,07.1,N,A*12
$IIMWV,058,T,04.7,N,A*1B
$IIRMC,170436,A,4629.725,N,00640.074,E,03.5,214,180608,,,A*40
$IIVHW,,,224,M,03.4,N,,*67
$IIVWR,033,R,07.2,N,,,,*64
$IIDPT,010.8,-1.0,*49
$IIGLL,4629.724,N,00640.072,E,170438,A,A*56
$IIHDG,224,,,,*53
$IIMTW,+20.5,C*3F
$IIMWV,033,R,07.2,N,A*16
$IIMWV,058,T,04.5,N,A*19
$IIRMB,A,0.12,R,,VIDY,,,,,002.62,291,01.0,V,A*7B
$IIRMC,170438,A,4629.724,N,00640.072,E,03.6,217,180608,,,A*49
$IIVHW,,,223,M,03.4,N,,*60
$IIVWR,033,R,07.1,N,,,,*67
$IIDPT,010.8,-1.0,*49
$IIGLL,4629.724,N,00640.072,E,170438,A,A*56
$IIHDG,223,,,,*54
$IIMTW,+17.5,C*3B
$IIMWV,033,R,07.1,N,A*15
$IIMWV,057,T,04.5,N,A*16
$IIRMB,A,0.13,R,,VIDY,,,,,002.62,291,01.0,V,A*7A
$IIRMC,170440,A,4629.722,N,00640.070,E,03.6,218,180608,,,A*4D
$IIVHW,,,224,M,03.4,N,,*67
$IIVWR,033,R,07.1,N,,,,*67
$IIDPT,010.8,-1.0,*49
$IIGLL,4629.722,N,00640.070,E,170440,A,A*5D
$IIHDG,224,,,,*53
$IIMTW,+18.0,C*31
$IIMWV,033,R,07.3,N,A*17
$IIMWV,057,T,04.5,N,A*16
$IIRMC,170440,A,4629.722,N,00640.070,E,03.6,218,180608,,,A*4D
$IIVHW,,,224,M,03.4,N,,*67
$IIVWR,033,R,07.3,N,,,,*65
$IIDPT,010.8,-1.0,*49
$IIGLL,4629.721,N,00640.068,E,170442,A,A*55
$IIHDG,224,,,,*53
$IIMTW,+17.0,C*3E
$IIMWV,033,R,07.2,N,A*16
$IIMWV,055,T,04.7,N,A*16
$IIRMB,A,0.13,R,,VIDY,,,,,002.62,291,01.0,V,A*7A
$IIRMC,170442,A,4629.721,N,00640.068,E,03.6,220,180608,,,A*4E
$IIVHW,,,224,M,03.4,N,,*67
$IIVWR,033,R,07.2,N,,,,*64
$IIDPT,010.8,-1.0,*49
$IIGLL,4629.721,N,00640.068,E,170442,A,A*55
$IIHDG,225,,,,*52
$IIMTW,+19.5,C*35
$IIMWV,033,R,07.2,N,A*16
$IIMWV,056,T,04.6,N,A*14
$IIRMC,170442,A,4629.721,N,00640.068,E,03.6,220,180608,,,A*4E
$IIVHW,,,226,M,03.4,N,,*65
$IIVWR,033,R,07.1,N,,,,*67
$IIDPT,010.8,-1.0,*49
$IIGLL,4629.719,N,00640.067,E,170444,A,A*57
$IIHDG,226,,,,*51
$IIMTW,+17.0,C*3E
$IIMWV,033,R,07.1,N,A*15
$IIMWV,056,T,04.6,N,A*14
$IIRMB,A,0.13,R,,VIDY,,,,,002.62,291,01.1,V,A*7B
$IIRMC,170444,A,4629.719,N,00640.067,E,03.5,221,180608,,,A*4E
$IIVHW,,,226,M,03.4,N,,*65
$IIVWR,033,R,07.2,N,,,,*64
$IIDPT,010.8,-1.0,*49
$IIGLL,4629.719,N,00640.067,E,170444,A,A*57
$IIHDG,226,,,,*51
$IIMTW,+17.0,C*3E
$IIMWV,033,R,07.2,N,A*16
$IIMWV,056,T,04.6,N,A*14
$IIRMB,A,0.13,R,,VIDY,,,,,002.61,291,01.2,V,A*7B
$IIRMC,170446,A,4629.718,N,00640.065,E,03.6,221,180608,,,A*4C
$IIVHW,,,226,M,03.4,N,,*65
$IIVWR,033,R,07.2,N,,,,*64
$IIDPT,010.7,-1.0,*46
$IIGLL,4629.718,N,00640.065,E,170446,A,A*56
$IIHDG,226,,,,*51
$IIMTW,+17.0,C*3E
$IIMWV,033,R,07.2,N,A*16
$IIMWV,057,T,04.5,N,A*16
$IIRMC,170446,A,4629.718,N,00640.065,E,03.6,221,180608,,,A*4C
$IIVHW,,,226,M,03.4,N,,*65
$IIVWR,033,R,07.2,N,,,,*64
$IIDPT,010.6,-1.0,*47
$IIGLL,4629.718,N,00640.065,E,170446,A,A*56
$IIHDG,227,,,,*50
$IIMTW,+17.0,C*3E
$IIMWV,032,R,07.2,N,A*17
$IIMWV,056,T,04.6,N,A*14
$IIRMB,A,0.13,R,,VIDY,,,,,002.61,291,01.2,V,A*7B
$IIRMC,170446,A,4629.718,N,00640.065,E,03.6,221,180608,,,A*4C
$IIVHW,,,227,M,03.4,N,,*64
$IIVWR,032,R,07.3,N,,,,*64
$IIDPT,010.6,-1.0,*47
$IIGLL,4629.716,N,00640.063,E,170448,A,A*50
$IIHDG,228,,,,*5F
$IIMTW,+17.0,C*3E
$IIMWV,032,R,07.3,N,A*16
$IIMWV,055,T,04.6,N,A*17
$IIRMC,170448,A,4629.716,N,00640.063,E,03.6,221,180608,,,A*4A
$IIVHW,,,229,M,03.4,N,,*6A
$IIVWR,031,R,07.2,N,,,,*66
$IIDPT,010.6,-1.0,*47
$IIGLL,4629.715,N,00640.061,E,170450,A,A*58
$IIHDG,229,,,,*5E
$IIMTW,+17.0,C*3E
$IIMWV,031,R,07.2,N,A*14
$IIMWV,053,T,04.7,N,A*10
$IIRMB,A,0.14,R,,VIDY,,,,,002.61,292,01.3,V,A*7E
$IIRMC,170450,A,4629.715,N,00640.061,E,03.5,223,180608,,,A*43
$IIVHW,,,232,M,03.4,N,,*60
$IIVWR,030,R,07.2,N,,,,*67
$IIDPT,010.6,-1.0,*47
$IIGLL,4629.715,N,00640.061,E,170450,A,A*58
$IIHDG,232,,,,*54
$IIMTW,+17.0,C*3E
$IIMWV,030,R,07.2,N,A*15
$IIMWV,052,T,04.5,N,A*13
$IIRMB,A,0.14,R,,VIDY,,,,,002.61,292,01.7,V,A*7A
$IIRMC,170452,A,4629.714,N,00640.058,E,03.6,235,180608,,,A*4E
$IIVHW,,,237,M,03.4,N,,*65
$IIVWR,030,R,07.3,N,,,,*66
$IIDPT,010.6,-1.0,*47
$IIGLL,4629.714,N,00640.058,E,170452,A,A*51
$IIHDG,243,,,,*52
$IIMTW,+20.0,C*3A
$IIMWV,028,R,07.4,N,A*1A
$IIMWV,051,T,04.6,N,A*13
$IIRMC,170452,A,4629.714,N,00640.058,E,03.6,235,180608,,,A*4E
$IIVHW,,,243,M,03.4,N,,*66
$IIVWR,028,R,07.4,N,,,,*68
$IIDPT,010.6,-1.0,*47
$IIGLL,4629.713,N,00640.056,E,170454,A,A*5E
$IIHDG,250,,,,*50
$IIMTW,+18.0,C*31
$IIMWV,026,R,07.6,N,A*16
$IIMWV,048,T,04.6,N,A*1B
$IIRMB,A,0.14,R,,VIDY,,,,,002.61,292,02.5,V,A*7B
$IIRMC,170454,A,4629.713,N,00640.056,E,03.6,255,180608,,,A*47
$IIVHW,,,250,M,03.4,N,,*64
$IIVWR,024,R,07.7,N,,,,*67
$IIDPT,011.8,-1.0,*48
$IIGLL,4629.713,N,00640.056,E,170454,A,A*5E
$IIHDG,256,,,,*56
$IIMTW,+17.0,C*3E
$IIMWV,024,R,07.7,N,A*15
$IIMWV,044,T,04.7,N,A*16
$IIRMC,170454,A,4629.713,N,00640.056,E,03.6,255,180608,,,A*47
$IIVHW,,,265,M,03.3,N,,*65
$IIVWR,022,R,07.7,N,,,,*61
$IIDPT,011.8,-1.0,*48
$IIGLL,4629.713,N,00640.053,E,170456,A,A*59
$IIHDG,265,,,,*56
$IIMTW,+17.0,C*3E
$IIMWV,022,R,07.7,N,A*13
$IIMWV,041,T,04.7,N,A*13
$IIRMB,A,0.14,R,,VIDY,,,,,002.61,292,02.9,V,A*77
$IIRMC,170456,A,4629.713,N,00640.053,E,03.0,271,180608,,,A*40
$IIVHW,,,273,M,03.3,N,,*62
$IIVWR,019,R,07.7,N,,,,*69
$IIDPT,011.8,-1.0,*48
$IIGLL,4629.713,N,00640.053,E,170456,A,A*59
$IIHDG,273,,,,*51
$IIMTW,+17.0,C*3E
$IIMWV,019,R,07.7,N,A*1B
$IIMWV,033,T,04.6,N,A*17
$IIRMB,A,0.14,R,,VIDY,,,,,002.61,292,03.0,V,A*7F
$IIRMC,170458,A,4629.714,N,00640.051,E,02.0,310,180608,,,A*4C
$IIVHW,,,282,M,03.3,N,,*6C
$IIVWR,013,R,07.7,N,,,,*63
$IIDPT,011.8,-1.0,*48
$IIGLL,4629.714,N,00640.051,E,170458,A,A*52
$IIHDG,290,,,,*5C
$IIMTW,+17.0,C*3E
$IIMWV,007,R,07.4,N,A*17
$IIMWV,022,T,04.3,N,A*12
$IIRMC,170458,A,4629.714,N,00640.051,E,02.0,310,180608,,,A*4C
$IIVHW,,,290,M,03.3,N,,*6F
$IIVWR,007,R,07.4,N,,,,*65
$IIDPT,011.8,-1.0,*48
$IIGLL,4629.714,N,00640.050,E,170500,A,A*5F
$IIHDG,300,,,,*54
$IIMTW,+17.0,C*3E
$IIMWV,002,R,07.2,N,A*14
$IIMWV,011,T,04.0,N,A*11
$IIRMB,A,0.14,R,,VIDY,,,,,002.61,292,02.0,V,A*7E
$IIRMC,170500,A,4629.714,N,00640.050,E,02.1,309,180608,,,A*48
$IIVHW,,,300,M,03.3,N,,*67
$IIVWR,000,R,00.0,N,,,,*61
$IIDPT,010.8,-1.0,*49
$IIGLL,4629.714,N,00640.050,E,170500,A,A*5F
$IIHDG,304,,,,*50
$IIMTW,+17.0,C*3E
$IIMWV,000,R,00.0,N,A*13
$IIMWV,003,T,03.9,N,A*1C
$IIRMC,170500,A,4629.714,N,00640.050,E,02.1,309,180608,,,A*48
$IIVHW,,,311,M,03.1,N,,*65
$IIVWR,004,L,06.8,N,,,,*75
$IIDPT,010.6,-1.0,*47
$IIGLL,4629.715,N,00640.049,E,170502,A,A*54
$IIHDG,311,,,,*54
$IIMTW,+17.0,C*3E
$IIMWV,356,R,06.8,N,A*1D
$IIMWV,000,T,03.2,N,A*14
$IIRMB,A,0.14,R,,VIDY,,,,,002.61,292,02.0,V,A*7E
$IIRMC,170502,A,4629.715,N,00640.049,E,02.1,313,180608,,,A*48
$IIVHW,,,314,M,03.0,N,,*61
$IIVWR,011,L,06.7,N,,,,*7E
$IIDPT,010.4,-1.0,*45
$IIGLL,4629.715,N,00640.049,E,170502,A,A*54
$IIHDG,314,,,,*51
$IIMTW,+17.0,C*3E
$IIMWV,349,R,06.7,N,A*1C
$IIMWV,336,T,03.7,N,A*17
$IIRMB,A,0.14,R,,VIDY,,,,,002.60,292,02.1,V,A*7E
$IIRMC,170504,A,4629.716,N,00640.048,E,02.5,327,180608,,,A*4F
$IIVHW,,,322,M,02.9,N,,*6C
$IIVWR,016,L,06.4,N,,,,*7A
$IIDPT,010.2,-1.0,*43
$IIGLL,4629.716,N,00640.048,E,170504,A,A*50
$IIHDG,320,,,,*56
$IIMTW,+16.5,C*3A
$IIMWV,338,R,06.5,N,A*18
$IIMWV,331,T,03.5,N,A*12
$IIRMC,170506,A,4629.718,N,00640.047,E,02.6,328,180608,,,A*40
$IIVHW,,,320,M,02.9,N,,*6E
$IIVWR,022,L,06.5,N,,,,*7C
$IIDPT,010.1,-1.0,*40
$IIGLL,4629.718,N,00640.047,E,170506,A,A*53
$IIHDG,320,,,,*56
$IIMTW,+16.5,C*3A
$IIMWV,338,R,06.4,N,A*19
$IIMWV,322,T,03.9,N,A*1C
$IIRMB,A,0.14,R,,VIDY,,,,,002.60,292,01.7,V,A*7B
$IIRMC,170506,A,4629.718,N,00640.047,E,02.6,328,180608,,,A*40
$IIVHW,,,320,M,02.9,N,,*6E
$IIVWR,024,L,06.5,N,,,,*7A
$IIDPT,010.1,-1.0,*40
$IIGLL,4629.719,N,00640.046,E,170508,A,A*5D
$IIHDG,322,,,,*54
$IIMTW,+16.5,C*3A
$IIMWV,336,R,06.5,N,A*16
$IIMWV,323,T,03.7,N,A*13
$IIRMB,A,0.13,R,,VIDY,,,,,002.60,292,02.0,V,A*78
$IIRMC,170508,A,4629.719,N,00640.046,E,02.4,333,180608,,,A*46
$IIVHW,,,318,M,02.8,N,,*64
$IIVWR,027,L,06.5,N,,,,*79
$IIDPT,010.1,-1.0,*40
$IIGLL,4629.719,N,00640.046,E,170508,A,A*5D
$IIHDG,318,,,,*5D
$IIMTW,+16.5,C*3A
$IIMWV,333,R,06.5,N,A*13
$IIMWV,314,T,04.0,N,A*17
$IIRMB,A,0.13,R,,VIDY,,,,,002.60,292,02.1,V,A*79
$IIRMC,170510,A,4629.720,N,00640.045,E,02.6,330,180608,,,A*47
$IIVHW,,,318,M,02.8,N,,*64
$IIVWR,027,L,06.6,N,,,,*7A
$IIDPT,020.3,-1.0,*41
$IIGLL,4629.720,N,00640.045,E,170510,A,A*5D
$IIHDG,317,,,,*52
$IIMTW,+16.5,C*3A
$IIMWV,334,R,06.6,N,A*17
$IIMWV,315,T,04.1,N,A*17
$IIRMC,170510,A,4629.720,N,00640.045,E,02.6,330,180608,,,A*47
$IIVHW,,,317,M,02.8,N,,*6B
$IIVWR,026,L,06.6,N,,,,*7B
$IIDPT,020.3,-1.0,*41
$IIGLL,4629.721,N,00640.044,E,170512,A,A*5F
$IIHDG,316,,,,*53
$IIMTW,+16.5,C*3A
$IIMWV,330,R,06.6,N,A*13
$IIMWV,316,T,04.1,N,A*14
$IIRMB,A,0.13,R,,VIDY,,,,,002.60,291,02.0,V,A*7B
$IIRMC,170512,A,4629.721,N,00640.044,E,02.6,324,180608,,,A*40
$IIVHW,,,316,M,02.8,N,,*6A
$IIVWR,026,L,06.6,N,,,,*7B
$IIDPT,069.6,-1.0,*49
$IIGLL,4629.721,N,00640.044,E,170512,A,A*5F
$IIHDG,315,,,,*50
$IIMTW,+16.5,C*3A
$IIMWV,334,R,06.6,N,A*17
$IIMWV,310,T,04.3,N,A*10
$IIRMC,170512,A,4629.721,N,00640.044,E,02.6,324,180608,,,A*40
$IIVHW,,,316,M,02.8,N,,*6A
$IIVWR,029,L,06.6,N,,,,*74
$IIDPT,069.6,-1.0,*49
$IIGLL,4629.722,N,00640.042,E,170514,A,A*5C
$IIHDG,316,,,,*53
$IIMTW,+16.5,C*3A
$IIMWV,331,R,06.6,N,A*12
$IIMWV,316,T,04.1,N,A*14
$IIRMB,A,0.13,R,,VIDY,,,,,002.60,291,02.1,V,A*7A
$IIRMC,170514,A,4629.722,N,00640.042,E,02.5,324,180608,,,A*40
$IIVHW,,,312,M,02.8,N,,*6E
$IIVWR,026,L,06.6,N,,,,*7B
$IIDPT,069.6,-1.0,*49
$IIGLL,4629.722,N,00640.042,E,170514,A,A*5C
$IIHDG,312,,,,*57
$IIMTW,+16.5,C*3A
$IIMWV,334,R,06.6,N,A*17
$IIMWV,316,T,04.1,N,A*14
$IIRMB,A,0.13,R,,VIDY,,,,,002.60,291,02.2,V,A*79
$IIRMC,170516,A,4629.723,N,00640.041,E,02.6,331,180608,,,A*47
$IIVHW,,,316,M,02.8,N,,*6A
$IIVWR,024,L,06.6,N,,,,*79
$IIDPT,069.6,-1.0,*49
$IIGLL,4629.723,N,00640.041,E,170516,A,A*5C
$IIHDG,313,,,,*56
$IIMTW,+16.5,C*3A
$IIMWV,330,R,06.6,N,A*13
$IIMWV,320,T,04.1,N,A*11
$IIRMC,170516,A,4629.723,N,00640.041,E,02.6,331,180608,,,A*47
$IIVHW,,,313,M,02.8,N,,*6F
$IIVWR,030,L,06.6,N,,,,*7C
$IIDPT,010.9,-1.0,*48
$IIGLL,4629.725,N,00640.040,E,170518,A,A*55
$IIHDG,314,,,,*51
$IIMTW,+16.5,C*3A
$IIMWV,335,R,06.6,N,A*16
$IIMWV,310,T,04.3,N,A*10
$IIRMB,A,0.13,R,,VIDY,,,,,002.60,291,02.5,V,A*7E
$IIRMC,170518,A,4629.725,N,00640.040,E,02.6,331,180608,,,A*4E
$IIVHW,,,314,M,02.8,N,,*68
$IIVWR,029,L,06.6,N,,,,*74
$IIDPT,010.7,-1.0,*46
$IIGLL,4629.725,N,00640.040,E,170518,A,A*55
$IIHDG,314,,,,*51
$IIMTW,+16.5,C*3A
$IIMWV,331,R,06.6,N,A*12
$IIMWV,320,T,04.1,N,A*11
$IIRMC,170518,A,4629.725,N,00640.040,E,02.6,331,180608,,,A*4E
$IIVHW,,,313,M,02.8,N,,*6F
$IIVWR,028,L,06.6,N,,,,*75
$IIDPT,010.7,-1.0,*46
$IIGLL,4629.726,N,00640.039,E,170520,A,A*53
$IIHDG,313,,,,*56
$IIMTW,+16.5,C*3A
$IIMWV,332,R,06.6,N,A*11
$IIMWV,313,T,04.2,N,A*12
$IIRMB,A,0.13,R,,VIDY,,,,,002.60,291,02.1,V,A*7A
$IIRMC,170520,A,4629.726,N,00640.039,E,02.6,324,180608,,,A*4C
$IIVHW,,,314,M,02.8,N,,*68
$IIVWR,026,L,06.6,N,,,,*7B
$IIDPT,010.8,-1.0,*49
$IIGLL,4629.726,N,00640.039,E,170520,A,A*53
$IIHDG,314,,,,*51
$IIMTW,+16.5,C*3A
$IIMWV,334,R,06.6,N,A*17
$IIMWV,316,T,04.1,N,A*14
$IIRMB,A,0.13,R,,VIDY,,,,,002.59,291,02.1,V,A*70
$IIRMC,170522,A,4629.727,N,00640.038,E,02.6,323,180608,,,A*49
$IIVHW,,,315,M,02.8,N,,*69
$IIVWR,028,L,06.6,N,,,,*75
$IIDPT,010.8,-1.0,*49
$IIGLL,4629.727,N,00640.038,E,170522,A,A*51
$IIHDG,315,,,,*50
$IIMTW,+16.5,C*3A
$IIMWV,333,R,06.6,N,A*10
$IIMWV,313,T,04.2,N,A*12
$IIRMC,170522,A,4629.727,N,00640.038,E,02.6,323,180608,,,A*49
$IIVHW,,,315,M,02.8,N,,*69
$IIVWR,027,L,06.6,N,,,,*7A
$IIDPT,010.8,-1.0,*49
$IIGLL,4629.728,N,00640.036,E,170524,A,A*56
$IIHDG,315,,,,*50
$IIMTW,+16.5,C*3A
$IIMWV,334,R,06.7,N,A*16
$IIMWV,315,T,04.1,N,A*17
$IIRMB,A,0.13,R,,VIDY,,,,,002.59,291,02.3,V,A*72
$IIRMC,170524,A,4629.728,N,00640.036,E,02.6,326,180608,,,A*4B
$IIVHW,,,315,M,02.8,N,,*69
$IIVWR,026,L,06.8,N,,,,*75
$IIDPT,010.8,-1.0,*49
$IIGLL,4629.728,N,00640.036,E,170524,A,A*56
$IIHDG,315,,,,*50
$IIMTW,+16.5,C*3A
$IIMWV,334,R,06.8,N,A*19
$IIMWV,317,T,04.2,N,A*16
$IIRMC,170524,A,4629.728,N,00640.036,E,02.6,326,180608,,,A*4B
$IIVHW,,,314,M,02.9,N,,*69
$IIVWR,025,L,06.9,N,,,,*77
$IIDPT,010.8,-1.0,*49
$IIGLL,4629.729,N,00640.035,E,170526,A,A*56
$IIHDG,314,,,,*51
$IIMTW,+16.5,C*3A
$IIMWV,335,R,06.9,N,A*19
$IIMWV,318,T,04.3,N,A*18
$IIRMB,A,0.13,R,,VIDY,,,,,002.59,291,02.3,V,A*72
$IIRMC,170526,A,4629.729,N,00640.035,E,02.6,320,180608,,,A*4D
$IIVHW,,,314,M,02.9,N,,*69
$IIVWR,025,L,07.0,N,,,,*7F
$IIDPT,010.6,-1.0,*47
$IIGLL,4629.729,N,00640.035,E,170526,A,A*56
$IIHDG,314,,,,*51
$IIMTW,+16.5,C*3A
$IIMWV,335,R,07.0,N,A*11
$IIMWV,320,T,04.4,N,A*14
$IIRMB,A,0.13,R,,VIDY,,,,,002.59,291,02.3,V,A*72
$IIRMC,170528,A,4629.730,N,00640.034,E,02.7,317,180608,,,A*4F
$IIVHW,,,312,M,02.9,N,,*6F
$IIVWR,026,L,06.9,N,,,,*74
$IIDPT,010.6,-1.0,*47
$IIGLL,4629.730,N,00640.034,E,170528,A,A*51
$IIHDG,312,,,,*57
$IIMTW,+16.5,C*3A
$IIMWV,336,R,07.0,N,A*12
$IIMWV,318,T,04.4,N,A*1F
$IIRMC,170528,A,4629.730,N,00640.034,E,02.7,317,180608,,,A*4F
$IIVHW,,,312,M,02.9,N,,*6F
$IIVWR,024,L,07.0,N,,,,*7E
$IIDPT,010.3,-1.0,*42
$IIGLL,4629.731,N,00640.032,E,170530,A,A*5F
$IIHDG,312,,,,*57
$IIMTW,+16.5,C*3A
$IIMWV,335,R,07.0,N,A*11
$IIMWV,320,T,04.4,N,A*14
$IIRMB,A,0.13,R,,VIDY,,,,,002.59,291,01.9,V,A*7B
$IIRMC,170530,A,4629.731,N,00640.032,E,02.6,320,180608,,,A*44
$IIVHW,,,312,M,02.9,N,,*6F
$IIVWR,025,L,07.0,N,,,,*7F
$IIDPT,010.3,-1.0,*42
$IIGLL,4629.731,N,00640.032,E,170530,A,A*5F
$IIHDG,311,,,,*54
$IIMTW,+16.5,C*3A
$IIMWV,335,R,07.0,N,A*11
$IIMWV,320,T,04.4,N,A*14
$IIRMC,170530,A,4629.731,N,00640.032,E,02.6,320,180608,,,A*44
$IIVHW,,,312,M,02.9,N,,*6F
$IIVWR,025,L,06.9,N,,,,*77
$IIDPT,010.3,-1.0,*42
$IIGLL,4629.732,N,00640.031,E,170532,A,A*5D
$IIHDG,312,,,,*57
$IIMTW,+16.5,C*3A
$IIMWV,335,R,06.9,N,A*19
$IIMWV,320,T,04.4,N,A*14
$IIRMB,A,0.13,R,,VIDY,,,,,002.59,291,02.1,V,A*70
$IIRMC,170532,A,4629.732,N,00640.031,E,02.4,318,180608,,,A*4F
$IIVHW,,,311,M,02.9,N,,*6C
$IIVWR,023,L,06.9,N,,,,*71
$IIDPT,010.3,-1.0,*42
$IIGLL,4629.732,N,00640.031,E,170532,A,A*5D
$IIHDG,311,,,,*54
$IIMTW,+19.5,C*35
$IIMWV,337,R,06.9,N,A*1B
$IIMWV,322,T,04.2,N,A*10
$IIRMB,A,0.12,R,,VIDY,,,,,002.59,291,02.3,V,A*73
$IIRMC,170534,A,4629.733,N,00640.030,E,02.8,318,180608,,,A*45
$IIVHW,,,311,M,02.9,N,,*6C
$IIVWR,024,L,06.9,N,,,,*76
$IIDPT,010.3,-1.0,*42
$IIGLL,4629.733,N,00640.030,E,170534,A,A*5B
$IIHDG,310,,,,*55
$IIMTW,+17.5,C*3B
$IIMWV,338,R,07.0,N,A*1C
$IIMWV,319,T,04.2,N,A*18
$IIRMC,170534,A,4629.733,N,00640.030,E,02.8,318,180608,,,A*45
$IIVHW,,,310,M,02.9,N,,*6D
$IIVWR,022,L,07.0,N,,,,*78
$IIDPT,010.3,-1.0,*42
$IIGLL,4629.734,N,00640.028,E,170536,A,A*57
$IIHDG,310,,,,*55
$IIMTW,+17.0,C*3E
$IIMWV,336,R,06.9,N,A*1A
$IIMWV,324,T,04.3,N,A*17
$IIRMB,A,0.12,R,,VIDY,,,,,002.59,291,01.2,V,A*71
$IIRMC,170536,A,4629.734,N,00640.028,E,03.1,316,180608,,,A*4F
$IIVHW,,,310,M,02.9,N,,*6D
$IIVWR,000,R,00.0,N,,,,*61
$IIDPT,025.1,-1.0,*46
$IIGLL,4629.734,N,00640.028,E,170536,A,A*57
$IIHDG,310,,,,*55
$IIMTW,+17.0,C*3E
$IIMWV,000,R,00.0,N,A*13
$IIMWV,319,T,04.2,N,A*18
$IIRMC,170536,A,4629.734,N,00640.028,E,03.1,316,180608,,,A*4F
$IIVHW,,,309,M,02.9,N,,*65
$IIVWR,023,L,06.8,N,,,,*70
$IIDPT,025.1,-1.0,*46
$IIGLL,4629.735,N,00640.027,E,170538,A,A*57
$IIHDG,309,,,,*5D
$IIMTW,+17.0,C*3E
$IIMWV,337,R,06.8,N,A*1A
$IIMWV,000,T,03.0,N,A*16
$IIRMB,A,0.12,R,,VIDY,,,,,002.58,291,01.7,V,A*75
$IIRMC,170538,A,4629.735,N,00640.027,E,02.8,317,180608,,,A*46
$IIVHW,,,308,M,02.9,N,,*64
$IIVWR,024,L,06.9,N,,,,*76
$IIDPT,028.6,-1.0,*4C
$IIGLL,4629.735,N,00640.027,E,170538,A,A*57
$IIHDG,308,,,,*5C
$IIMTW,+17.0,C*3E
$IIMWV,336,R,06.9,N,A*1A
$IIMWV,319,T,04.2,N,A*18
$IIRMB,A,0.12,R,,VIDY,,,,,002.58,291,02.3,V,A*72
$IIRMC,170540,A,4629.736,N,00640.025,E,02.7,314,180608,,,A*44
$IIVHW,,,308,M,02.9,N,,*64
$IIVWR,023,L,06.9,N,,,,*71
$IIDPT,028.1,-1.0,*4B
$IIGLL,4629.736,N,00640.025,E,170540,A,A*59
$IIHDG,307,,,,*53
$IIMTW,+17.0,C*3E
$IIMWV,338,R,06.9,N,A*14
$IIMWV,322,T,04.2,N,A*10
$IIRMC,170540,A,4629.736,N,00640.025,E,02.7,314,180608,,,A*44
$IIVHW,,,307,M,02.9,N,,*6B
$IIVWR,022,L,06.9,N,,,,*70
$IIDPT,028.1,-1.0,*4B
$IIGLL,4629.737,N,00640.024,E,170542,A,A*5B
$IIHDG,307,,,,*53
$IIMTW,+17.0,C*3E
$IIMWV,338,R,06.8,N,A*15
$IIMWV,324,T,04.2,N,A*16
$IIRMB,A,0.12,R,,VIDY,,,,,002.58,291,02.4,V,A*75
$IIRMC,170542,A,4629.737,N,00640.024,E,01.5,299,180608,,,A*43
$IIVHW,,,307,M,02.9,N,,*6B
$IIVWR,022,L,06.9,N,,,,*70
$IIDPT,032.3,-1.0,*42
$IIGLL,4629.737,N,00640.024,E,170542,A,A*5B
$IIHDG,307,,,,*53
$IIMTW,+17.0,C*3E
$IIMWV,338,R,06.9,N,A*14
$IIMWV,323,T,04.1,N,A*12
$IIRMC,170542,A,4629.737,N,00640.024,E,01.5,299,180608,,,A*43
$IIVHW,,,307,M,02.9,N,,*6B
$IIVWR,022,L,06.8,N,,,,*71
$IIDPT,028.1,-1.0,*4B
$IIGLL,4629.738,N,00640.023,E,170544,A,A*55
$IIHDG,307,,,,*53
$IIMTW,+17.0,C*3E
$IIMWV,338,R,06.8,N,A*15
$IIMWV,324,T,04.2,N,A*16
$IIRMB,A,0.12,R,,VIDY,,,,,002.58,291,02.2,V,A*73
$IIRMC,170544,A,4629.738,N,00640.023,E,02.7,317,180608,,,A*4B
$IIVHW,,,307,M,02.8,N,,*6A
$IIVWR,022,L,06.8,N,,,,*71
$IIDPT,031.7,-1.0,*45
$IIGLL,4629.738,N,00640.023,E,170544,A,A*55
$IIHDG,307,,,,*53
$IIMTW,+17.0,C*3E
$IIMWV,338,R,06.8,N,A*15
$IIMWV,324,T,04.2,N,A*16
$IIRMC,170546,A,4629.739,N,00640.021,E,02.5,314,180608,,,A*4B
$IIVHW,,,307,M,02.8,N,,*6A
$IIVWR,021,L,06.8,N,,,,*72
$IIDPT,040.1,-1.0,*45
$IIGLL,4629.739,N,00640.021,E,170546,A,A*54
$IIHDG,307,,,,*53
$IIMTW,+17.0,C*3E
$IIMWV,339,R,07.0,N,A*1D
$IIMWV,325,T,04.1,N,A*14
$IIRMB,A,0.12,R,,VIDY,,,,,002.58,291,02.3,V,A*72
$IIRMC,170546,A,4629.739,N,00640.021,E,02.5,314,180608,,,A*4B
$IIVHW,,,307,M,02.9,N,,*6B
$IIVWR,021,L,07.0,N,,,,*7B
