$IIVHW,,,226,M,05.2,N,,*65
$IIVWR,059,R,08.3,N,,,,*66
$IIDPT,070.9,-1.0,*4E
$IIGLL,4629.444,N,00641.176,E,173000,A,A*5B
$IIHDG,226,,,,*51
$IIMTW,+24.0,C*3E
$IIMWV,059,R,08.3,N,A*14
$IIMWV,096,T,07.3,N,A*1E
$IIRMC,173000,A,4629.444,N,00641.176,E,05.5,224,250608,,,A*4F
$IIVHW,,,224,M,05.2,N,,*67
$IIVWR,059,R,08.6,N,,,,*63
$IIDPT,069.7,-1.0,*48
$IIGLL,4629.444,N,00641.176,E,173000,A,A*5B
$IIHDG,224,,,,*53
$IIMTW,+24.0,C*3E
$IIMWV,059,R,08.6,N,A*11
$IIMWV,097,T,07.3,N,A*1F
$IIRMB,A,0.18,R,,VIDY,,,,,003.43,291,02.2,V,A*72
$IIRMC,173002,A,4629.442,N,00641.172,E,05.5,224,250608,,,A*4F
$IIVHW,,,223,M,05.2,N,,*60
$IIVWR,059,R,08.4,N,,,,*61
$IIDPT,071.1,-1.0,*47
$IIGLL,4629.442,N,00641.172,E,173002,A,A*5B
$IIHDG,223,,,,*54
$IIMTW,+24.5,C*3B
$IIMWV,060,R,08.6,N,A*1B
$IIMWV,098,T,07.2,N,A*11
$IIRMC,173002,A,4629.442,N,00641.172,E,05.5,224,250608,,,A*4F
$IIVHW,,,223,M,05.2,N,,*60
$IIVWR,060,R,08.6,N,,,,*69
$IIDPT,071.1,-1.0,*47
$IIGLL,4629.439,N,00641.169,E,173004,A,A*5B
$IIHDG,223,,,,*54
$IIMTW,+24.5,C*3B
$IIMWV,060,R,08.6,N,A*1B
$IIMWV,098,T,07.4,N,A*17
$IIRMB,A,0.19,R,,VIDY,,,,,003.43,291,02.2,V,A*73
$IIRMC,173004,A,4629.439,N,00641.169,E,05.5,224,250608,,,A*4F
$IIVHW,,,223,M,05.3,N,,*61
$IIVWR,062,R,08.6,N,,,,*6B
$IIDPT,070.0,-1.0,*47
$IIGLL,4629.439,N,00641.169,E,173004,A,A*5B
$IIHDG,222,,,,*55
$IIMTW,+24.5,C*3B
$IIMWV,062,R,08.6,N,A*19
$IIMWV,098,T,07.4,N,A*17
$IIRMC,173004,A,4629.439,N,00641.169,E,05.5,224,250608,,,A*4F
$IIVHW,,,220,M,05.3,N,,*62
$IIVWR,063,R,08.9,N,,,,*65
$IIDPT,070.0,-1.0,*47
$IIGLL,4629.437,N,00641.166,E,173006,A,A*58
$IIHDG,220,,,,*57
$IIMTW,+24.0,C*3E
$IIMWV,063,R,08.9,N,A*17
$IIMWV,100,T,07.6,N,A*15
$IIRMB,A,0.19,R,,VIDY,,,,,003.42,291,02.2,V,A*72
$IIRMC,173006,A,4629.437,N,00641.166,E,05.7,218,250608,,,A*41
$IIVHW,,,222,M,05.3,N,,*60
$IIVWR,064,R,09.0,N,,,,*6A
$IIDPT,069.8,-1.0,*47
$IIGLL,4629.437,N,00641.166,E,173006,A,A*58
$IIHDG,222,,,,*55
$IIMTW,+24.0,C*3E
$IIMWV,064,R,09.0,N,A*18
$IIMWV,100,T,08.2,N,A*1E
$IIRMB,A,0.19,R,,VIDY,,,,,003.42,291,01.8,V,A*7B
$IIRMC,173008,A,4629.434,N,00641.163,E,05.7,220,250608,,,A*42
$IIVHW,,,221,M,05.3,N,,*63
$IIVWR,065,R,09.0,N,,,,*6B
$IIDPT,069.7,-1.0,*48
$IIGLL,4629.434,N,00641.163,E,173008,A,A*50
$IIHDG,221,,,,*56
$IIMTW,+24.0,C*3E
$IIMWV,066,R,09.1,N,A*1B
$IIMWV,101,T,08.2,N,A*1F
$IIRMC,173008,A,4629.434,N,00641.163,E,05.7,220,250608,,,A*42
$IIVHW,,,221,M,05.3,N,,*63
$IIVWR,066,R,09.1,N,,,,*69
$IIDPT,069.4,-1.0,*4B
$IIGLL,4629.432,N,00641.160,E,173010,A,A*5C
$IIHDG,221,,,,*56
$IIMTW,+24.0,C*3E
$IIMWV,066,R,09.0,N,A*1A
$IIMWV,101,T,08.3,N,A*1E
$IIRMB,A,0.20,R,,VIDY,,,,,003.42,291,01.6,V,A*7F
$IIRMC,173010,A,4629.432,N,00641.160,E,05.9,220,250608,,,A*40
$IIVHW,,,221,M,05.3,N,,*63
$IIVWR,066,R,08.9,N,,,,*60
$IIDPT,067.2,-1.0,*43
$IIGLL,4629.432,N,00641.160,E,173010,A,A*5C
$IIHDG,222,,,,*55
$IIMTW,+24.0,C*3E
$IIMWV,066,R,08.9,N,A*12
$IIMWV,102,T,08.2,N,A*1C
$IIRMC,173010,A,4629.432,N,00641.160,E,05.9,220,250608,,,A*40
$IIVHW,,,222,M,05.4,N,,*67
$IIVWR,065,R,09.1,N,,,,*6A
$IIDPT,065.6,-1.0,*45
$IIGLL,4629.429,N,00641.157,E,173012,A,A*50
$IIHDG,222,,,,*55
$IIMTW,+24.0,C*3E
$IIMWV,065,R,09.1,N,A*18
$IIMWV,103,T,08.2,N,A*1D
$IIRMC,173012,A,4629.429,N,00641.157,E,05.8,217,250608,,,A*49
$IIVHW,,,223,M,05.4,N,,*66
$IIVWR,063,R,09.2,N,,,,*6F
$IIDPT,064.9,-1.0,*4B
$IIGLL,4629.429,N,00641.157,E,173012,A,A*50
$IIHDG,223,,,,*54
$IIMTW,+24.0,C*3E
$IIMWV,063,R,09.2,N,A*1D
$IIMWV,099,T,08.2,N,A*1F
$IIRMB,A,0.20,R,,VIDY,,,,,003.42,291,02.0,V,A*7A
$IIRMC,173014,A,4629.426,N,00641.154,E,05.9,221,250608,,,A*47
$IIVHW,,,222,M,05.4,N,,*67
$IIVWR,064,R,09.2,N,,,,*68
$IIDPT,064.0,-1.0,*42
$IIGLL,4629.426,N,00641.154,E,173014,A,A*5A
$IIHDG,222,,,,*55
$IIMTW,+24.0,C*3E
$IIMWV,062,R,09.1,N,A*1F
$IIMWV,100,T,08.3,N,A*1F
$IIRMC,173014,A,4629.426,N,00641.154,E,05.9,221,250608,,,A*47
$IIVHW,,,222,M,05.4,N,,*67
$IIVWR,062,R,09.1,N,,,,*6D
$IIDPT,064.7,-1.0,*45
$IIGLL,4629.424,N,00641.151,E,173016,A,A*5F
$IIHDG,221,,,,*56
$IIMTW,+24.0,C*3E
$IIMWV,062,R,09.0,N,A*1E
$IIMWV,099,T,08.1,N,A*1C
$IIRMB,A,0.20,R,,VIDY,,,,,003.42,291,02.0,V,A*7A
$IIRMC,173016,A,4629.424,N,00641.151,E,05.8,219,250608,,,A*48
$IIVHW,,,221,M,05.4,N,,*64
$IIVWR,062,R,09.1,N,,,,*6D
$IIDPT,053.9,-1.0,*4F
$IIGLL,4629.424,N,00641.151,E,173016,A,A*5F
$IIHDG,222,,,,*55
$IIMTW,+24.0,C*3E
$IIMWV,062,R,09.1,N,A*1F
$IIMWV,099,T,08.0,N,A*1D
$IIRMC,173016,A,4629.424,N,00641.151,E,05.8,219,250608,,,A*48
$IIVHW,,,224,M,05.4,N,,*61
$IIVWR,063,R,09.0,N,,,,*6D
$IIDPT,052.9,-1.0,*4E
$IIGLL,4629.421,N,00641.148,E,173018,A,A*5C
$IIHDG,224,,,,*53
$IIMTW,+24.0,C*3E
$IIMWV,063,R,09.0,N,A*1F
$IIMWV,099,T,08.1,N,A*1C
$IIRMB,A,0.21,R,,VIDY,,,,,003.42,291,01.8,V,A*70
$IIRMC,173020,A,4629.418,N,00641.144,E,05.9,223,250608,,,A*4E
$IIVHW,,,225,M,05.4,N,,*60
$IIVWR,063,R,09.5,N,,,,*68
$IIDPT,064.8,-1.0,*4A
$IIGLL,4629.418,N,00641.144,E,173020,A,A*51
$IIHDG,225,,,,*52
$IIMTW,+24.0,C*3E
$IIMWV,063,R,09.5,N,A*1A
$IIMWV,099,T,08.5,N,A*18
$IIRMB,A,0.21,R,,VIDY,,,,,003.42,291,01.9,V,A*71
$IIRMC,173020,A,4629.418,N,00641.144,E,05.9,223,250608,,,A*4E
$IIVHW,,,226,M,05.5,N,,*62
$IIVWR,062,R,09.5,N,,,,*69
$IIDPT,069.4,-1.0,*4B
$IIGLL,4629.418,N,00641.144,E,173020,A,A*51
$IIHDG,225,,,,*52
$IIMTW,+24.0,C*3E
$IIMWV,064,R,09.2,N,A*1A
$IIMWV,098,T,08.3,N,A*1F
$IIRMB,A,0.21,R,,VIDY,,,,,003.42,292,02.2,V,A*7A
$IIRMC,173022,A,4629.416,N,00641.141,E,05.9,223,250608,,,A*47
$IIVHW,,,225,M,05.4,N,,*60
$IIVWR,064,R,09.2,N,,,,*68
$IIDPT,056.7,-1.0,*44
$IIGLL,4629.416,N,00641.141,E,173022,A,A*58
$IIHDG,225,,,,*52
$IIMTW,+24.0,C*3E
$IIMWV,064,R,09.0,N,A*18
$IIMWV,100,T,08.3,N,A*1F
$IIRMC,173022,A,4629.416,N,00641.141,E,05.9,223,250608,,,A*47
$IIVHW,,,225,M,05.4,N,,*60
$IIVWR,065,R,08.9,N,,,,*63
$IIDPT,047.1,-1.0,*42
$IIGLL,4629.413,N,00641.138,E,173024,A,A*55
$IIHDG,225,,,,*52
$IIMTW,+24.0,C*3E
$IIMWV,065,R,08.9,N,A*11
$IIMWV,101,T,08.2,N,A*1F
$IIRMB,A,0.22,R,,VIDY,,,,,003.42,292,02.2,V,A*79
$IIRMC,173024,A,4629.413,N,00641.138,E,05.9,223,250608,,,A*4A
$IIVHW,,,224,M,05.5,N,,*60
$IIVWR,063,R,09.1,N,,,,*6C
$IIDPT,047.1,-1.0,*42
$IIGLL,4629.413,N,00641.138,E,173024,A,A*55
$IIHDG,224,,,,*53
$IIMTW,+24.0,C*3E
$IIMWV,063,R,09.1,N,A*1E
$IIMWV,101,T,08.1,N,A*1C
$IIRMB,A,0.22,R,,VIDY,,,,,003.41,292,02.0,V,A*78
$IIRMC,173026,A,4629.411,N,00641.135,E,06.1,220,250608,,,A*4F
$IIVHW,,,224,M,05.5,N,,*60
$IIVWR,063,R,08.9,N,,,,*65
$IIDPT,047.1,-1.0,*42
$IIGLL,4629.411,N,00641.135,E,173026,A,A*58
$IIHDG,224,,,,*53
$IIMTW,+24.0,C*3E
$IIMWV,063,R,09.1,N,A*1E
$IIMWV,101,T,08.0,N,A*1D
$IIRMC,173026,A,4629.411,N,00641.135,E,06.1,220,250608,,,A*4F
$IIVHW,,,224,M,05.5,N,,*60
$IIVWR,063,R,09.1,N,,,,*6C
$IIDPT,047.1,-1.0,*42
$IIGLL,4629.408,N,00641.131,E,173028,A,A*5A
$IIHDG,223,,,,*54
$IIMTW,+24.0,C*3E
$IIMWV,065,R,09.2,N,A*1B
$IIMWV,101,T,08.1,N,A*1C
$IIRMB,A,0.22,R,,VIDY,,,,,003.41,292,01.9,V,A*72
$IIRMC,173028,A,4629.408,N,00641.131,E,06.1,220,250608,,,A*4D
$IIVHW,,,223,M,05.5,N,,*67
$IIVWR,066,R,09.0,N,,,,*68
$IIDPT,020.8,-1.0,*4A
$IIGLL,4629.408,N,00641.131,E,173028,A,A*5A
$IIHDG,223,,,,*54
$IIMTW,+24.0,C*3E
$IIMWV,066,R,09.0,N,A*1A
$IIMWV,102,T,08.4,N,A*1A
$IIRMC,173028,A,4629.408,N,00641.131,E,06.1,220,250608,,,A*4D
$IIVHW,,,222,M,05.5,N,,*66
$IIVWR,067,R,08.9,N,,,,*61
$IIDPT,020.8,-1.0,*4A
$IIGLL,4629.405,N,00641.128,E,173030,A,A*56
$IIHDG,222,,,,*55
$IIMTW,+24.0,C*3E
$IIMWV,067,R,08.9,N,A*13
$IIMWV,103,T,08.3,N,A*1C
$IIRMB,A,0.23,R,,VIDY,,,,,003.41,292,01.9,V,A*73
$IIRMC,173030,A,4629.405,N,00641.128,E,05.9,222,250608,,,A*48
$IIVHW,,,220,M,05.5,N,,*64
$IIVWR,065,R,08.4,N,,,,*6E
$IIDPT,041.7,-1.0,*42
$IIGLL,4629.405,N,00641.128,E,173030,A,A*56
$IIHDG,220,,,,*57
$IIMTW,+24.0,C*3E
$IIMWV,065,R,08.4,N,A*1C
$IIMWV,105,T,07.8,N,A*1E
$IIRMB,A,0.23,R,,VIDY,,,,,003.41,292,02.0,V,A*79
$IIRMC,173032,A,4629.403,N,00641.125,E,06.0,220,250608,,,A*49
$IIVHW,,,222,M,05.4,N,,*67
$IIVWR,066,R,08.4,N,,,,*6D
$IIDPT,041.7,-1.0,*42
$IIGLL,4629.403,N,00641.125,E,173032,A,A*5F
$IIHDG,220,,,,*57
$IIMTW,+24.0,C*3E
$IIMWV,066,R,08.5,N,A*1E
$IIMWV,105,T,07.8,N,A*1E
$IIRMC,173032,A,4629.403,N,00641.125,E,06.0,220,250608,,,A*49
$IIVHW,,,220,M,05.5,N,,*64
$IIVWR,066,R,08.5,N,,,,*6C
$IIDPT,041.7,-1.0,*42
$IIGLL,4629.400,N,00641.122,E,173034,A,A*5D
$IIHDG,220,,,,*57
$IIMTW,+24.0,C*3E
$IIMWV,066,R,08.5,N,A*1E
$IIMWV,105,T,07.9,N,A*1F
$IIRMB,A,0.23,R,,VIDY,,,,,003.41,292,01.5,V,A*7F
$IIRMC,173034,A,4629.400,N,00641.122,E,06.0,218,250608,,,A*40
$IIVHW,,,220,M,05.5,N,,*64
$IIVWR,065,R,08.5,N,,,,*6F
$IIDPT,049.1,-1.0,*4C
$IIGLL,4629.400,N,00641.122,E,173034,A,A*5D
$IIHDG,222,,,,*55
$IIMTW,+24.0,C*3E
$IIMWV,065,R,08.5,N,A*1D
$IIMWV,105,T,07.9,N,A*1F
$IIRMC,173034,A,4629.400,N,00641.122,E,06.0,218,250608,,,A*40
$IIVHW,,,222,M,05.5,N,,*66
$IIVWR,000,R,00.0,N,,,,*61
$IIDPT,049.1,-1.0,*4C
$IIGLL,4629.397,N,00641.119,E,173036,A,A*5E
$IIHDG,222,,,,*55
$IIMTW,+24.0,C*3E
$IIMWV,000,R,00.0,N,A*13
$IIMWV,105,T,07.9,N,A*1F
$IIRMB,A,0.24,R,,VIDY,,,,,003.41,292,01.6,V,A*7B
$IIRMC,173036,A,4629.397,N,00641.119,E,05.9,218,250608,,,A*49
$IIVHW,,,224,M,05.5,N,,*60
$IIVWR,065,R,08.6,N,,,,*6C
$IIDPT,051.0,-1.0,*44
$IIGLL,4629.397,N,00641.119,E,173036,A,A*5E
$IIHDG,224,,,,*53
$IIMTW,+24.0,C*3E
$IIMWV,065,R,08.6,N,A*1E
$IIMWV,104,T,08.0,N,A*18
$IIRMB,A,0.24,R,,VIDY,,,,,003.41,292,01.6,V,A*7B
$IIRMC,173038,A,4629.394,N,00641.116,E,05.9,218,250608,,,A*4B
$IIVHW,,,226,M,05.5,N,,*62
$IIVWR,063,R,08.6,N,,,,*6A
$IIDPT,047.5,-1.0,*46
$IIGLL,4629.394,N,00641.116,E,173038,A,A*5C
$IIHDG,230,,,,*56
$IIMTW,+24.0,C*3E
$IIMWV,062,R,08.8,N,A*17
$IIMWV,102,T,07.7,N,A*16
$IIRMC,173038,A,4629.394,N,00641.116,E,05.9,218,250608,,,A*4B
$IIVHW,,,230,M,05.5,N,,*65
$IIVWR,062,R,08.8,N,,,,*65
$IIDPT,040.9,-1.0,*4D
$IIGLL,4629.392,N,00641.113,E,173040,A,A*50
$IIHDG,233,,,,*55
$IIMTW,+24.0,C*3E
$IIMWV,061,R,09.0,N,A*1D
$IIMWV,100,T,07.8,N,A*1B
$IIRMB,A,0.24,R,,VIDY,,,,,003.41,292,01.6,V,A*7B
$IIRMC,173040,A,4629.392,N,00641.113,E,05.9,218,250608,,,A*47
$IIVHW,,,233,M,05.5,N,,*66
$IIVWR,058,R,09.3,N,,,,*66
$IIDPT,031.7,-1.0,*45
$IIGLL,4629.392,N,00641.113,E,173040,A,A*50
$IIHDG,235,,,,*53
$IIMTW,+24.0,C*3E
$IIMWV,058,R,09.3,N,A*14
$IIMWV,099,T,07.8,N,A*1A
$IIRMC,173040,A,4629.392,N,00641.113,E,05.9,218,250608,,,A*47
$IIVHW,,,238,M,05.4,N,,*6C
$IIVWR,057,R,09.6,N,,,,*6C
$IIDPT,038.8,-1.0,*43
$IIGLL,4629.389,N,00641.110,E,173042,A,A*5B
$IIHDG,238,,,,*5E
$IIMTW,+24.0,C*3E
$IIMWV,057,R,09.6,N,A*1E
$IIMWV,095,T,07.9,N,A*17
$IIRMB,A,0.25,R,,VIDY,,,,,003.41,292,01.6,V,A*7A
$IIRMC,173042,A,4629.389,N,00641.110,E,05.9,218,250608,,,A*4C
$IIVHW,,,239,M,05.4,N,,*6D
$IIVWR,056,R,09.8,N,,,,*63
$IIDPT,031.7,-1.0,*45
$IIGLL,4629.389,N,00641.110,E,173042,A,A*5B
$IIHDG,239,,,,*5F
$IIMTW,+24.0,C*3E
$IIMWV,056,R,09.8,N,A*11
$IIMWV,091,T,08.1,N,A*14
$IIRMB,A,0.25,R,,VIDY,,,,,003.41,292,01.6,V,A*7A
$IIRMC,173044,A,4629.387,N,00641.107,E,05.9,218,250608,,,A*42
$IIVHW,,,239,M,05.4,N,,*6D
$IIVWR,055,R,10.0,N,,,,*60
$IIDPT,038.8,-1.0,*43
$IIGLL,4629.387,N,00641.107,E,173044,A,A*55
$IIHDG,240,,,,*51
$IIMTW,+24.5,C*3B
$IIMWV,054,R,09.9,N,A*12
$IIMWV,088,T,08.2,N,A*1F
$IIRMC,173044,A,4629.387,N,00641.107,E,05.9,218,250608,,,A*42
$IIVHW,,,240,M,05.4,N,,*63
$IIVWR,054,R,09.9,N,,,,*60
$IIDPT,045.5,-1.0,*44
$IIGLL,4629.384,N,00641.104,E,173046,A,A*57
$IIHDG,240,,,,*51
$IIMTW,+24.0,C*3E
$IIMWV,051,R,09.8,N,A*16
$IIMWV,087,T,08.0,N,A*12
$IIRMB,A,0.25,R,,VIDY,,,,,003.40,292,01.6,V,A*7B
$IIRMC,173046,A,4629.384,N,00641.104,E,05.9,218,250608,,,A*40
$IIVHW,,,240,M,05.3,N,,*64
$IIVWR,049,R,09.7,N,,,,*62
$IIDPT,047.3,-1.0,*40
$IIGLL,4629.384,N,00641.104,E,173046,A,A*57
$IIHDG,239,,,,*5F
$IIMTW,+24.0,C*3E
$IIMWV,049,R,09.7,N,A*10
$IIMWV,085,T,07.6,N,A*19
$IIRMC,173046,A,4629.384,N,00641.104,E,05.9,218,250608,,,A*40
$IIVHW,,,239,M,05.3,N,,*6A
$IIVWR,048,R,09.4,N,,,,*60
$IIDPT,043.7,-1.0,*40
$IIGLL,4629.382,N,00641.101,E,173048,A,A*5A
$IIHDG,239,,,,*5F
$IIMTW,+24.0,C*3E
$IIMWV,048,R,09.4,N,A*12
$IIMWV,081,T,07.2,N,A*19
$IIRMB,A,0.26,R,,VIDY,,,,,003.40,292,01.6,V,A*78
$IIRMC,173048,A,4629.382,N,00641.101,E,05.9,219,250608,,,A*4C
$IIVHW,,,238,M,05.3,N,,*6B
$IIVWR,045,R,09.4,N,,,,*6D
$IIDPT,047.3,-1.0,*40
$IIGLL,4629.382,N,00641.101,E,173048,A,A*5A
$IIHDG,238,,,,*5E
$IIMTW,+24.0,C*3E
$IIMWV,045,R,09.4,N,A*1F
$IIMWV,079,T,06.7,N,A*1A
$IIRMB,A,0.26,R,,VIDY,,,,,003.40,292,01.8,V,A*76
$IIRMC,173050,A,4629.379,N,00641.098,E,05.6,222,250608,,,A*47
$IIVHW,,,238,M,05.2,N,,*6A
$IIVWR,043,R,09.4,N,,,,*6B
$IIDPT,043.7,-1.0,*40
$IIGLL,4629.379,N,00641.098,E,173050,A,A*56
$IIHDG,237,,,,*51
$IIMTW,+24.0,C*3E
$IIMWV,043,R,09.4,N,A*19
$IIMWV,077,T,06.4,N,A*17
$IIRMC,173050,A,4629.379,N,00641.098,E,05.6,222,250608,,,A*47
$IIVHW,,,237,M,05.2,N,,*65
$IIVWR,043,R,09.4,N,,,,*6B
$IIDPT,038.4,-1.0,*4F
$IIGLL,4629.377,N,00641.094,E,173052,A,A*56
$IIHDG,237,,,,*51
$IIMTW,+24.0,C*3E
$IIMWV,043,R,09.4,N,A*19
$IIMWV,076,T,06.5,N,A*17
$IIRMB,A,0.26,R,,VIDY,,,,,003.40,292,01.9,V,A*77
$IIRMC,173052,A,4629.377,N,00641.094,E,05.6,222,250608,,,A*47
$IIVHW,,,237,M,05.1,N,,*66
$IIVWR,043,R,09.4,N,,,,*6B
$IIDPT,038.4,-1.0,*4F
$IIGLL,4629.377,N,00641.094,E,173052,A,A*56
$IIHDG,238,,,,*5E
$IIMTW,+24.0,C*3E
$IIMWV,043,R,09.4,N,A*19
$IIMWV,076,T,06.5,N,A*17
$IIRMC,173052,A,4629.377,N,00641.094,E,05.6,222,250608,,,A*47
$IIVHW,,,241,M,05.0,N,,*66
$IIVWR,042,R,09.4,N,,,,*6A
$IIDPT,038.4,-1.0,*4F
$IIGLL,4629.375,N,00641.091,E,173054,A,A*57
$IIHDG,241,,,,*50
$IIMTW,+24.0,C*3E
$IIMWV,042,R,09.4,N,A*18
$IIMWV,075,T,06.5,N,A*14
$IIRMB,A,0.26,R,,VIDY,,,,,003.40,292,01.9,V,A*77
$IIRMC,173054,A,4629.375,N,00641.091,E,05.6,222,250608,,,A*46
$IIVHW,,,244,M,05.0,N,,*63
$IIVWR,043,R,09.4,N,,,,*6B
$IIDPT,038.4,-1.0,*4F
$IIGLL,4629.375,N,00641.091,E,173054,A,A*57
$IIHDG,244,,,,*55
$IIMTW,+24.0,C*3E
$IIMWV,043,R,09.4,N,A*19
$IIMWV,075,T,06.5,N,A*14
$IIRMB,A,0.27,R,,VIDY,,,,,003.40,292,01.9,V,A*76
$IIRMC,173056,A,4629.372,N,00641.088,E,05.4,226,250608,,,A*4D
$IIVHW,,,247,M,05.0,N,,*60
$IIVWR,042,R,09.6,N,,,,*68
$IIDPT,030.0,-1.0,*43
$IIGLL,4629.372,N,00641.088,E,173056,A,A*5A
$IIHDG,249,,,,*58
$IIMTW,+24.0,C*3E
$IIMWV,040,R,09.7,N,A*19
$IIMWV,072,T,06.7,N,A*11
$IIRMC,173056,A,4629.372,N,00641.088,E,05.4,226,250608,,,A*4D
$IIVHW,,,249,M,05.0,N,,*6E
$IIVWR,040,R,09.7,N,,,,*6B
$IIDPT,030.0,-1.0,*43
$IIGLL,4629.371,N,00641.084,E,173058,A,A*5B
$IIHDG,249,,,,*58
$IIMTW,+24.0,C*3E
$IIMWV,041,R,09.6,N,A*19
$IIMWV,069,T,06.6,N,A*1A
$IIRMB,A,0.27,R,,VIDY,,,,,003.40,292,03.6,V,A*7B
$IIRMC,173058,A,4629.371,N,00641.084,E,05.1,246,250608,,,A*4F
$IIVHW,,,249,M,04.9,N,,*66
$IIVWR,040,R,09.6,N,,,,*6A
$IIDPT,076.3,-1.0,*42
$IIGLL,4629.371,N,00641.084,E,173058,A,A*5B
$IIHDG,251,,,,*51
$IIMTW,+24.0,C*3E
$IIMWV,040,R,09.6,N,A*18
$IIMWV,070,T,06.7,N,A*13
$IIRMC,173058,A,4629.371,N,00641.084,E,05.1,246,250608,,,A*4F
$IIVHW,,,253,M,04.8,N,,*6C
$IIVWR,041,R,09.8,N,,,,*65
$IIDPT,076.3,-1.0,*42
$IIGLL,4629.371,N,00641.080,E,173100,A,A*53
$IIHDG,253,,,,*53
$IIMTW,+24.5,C*3B
$IIMWV,041,R,09.8,N,A*17
$IIMWV,069,T,06.5,N,A*19
$IIRMB,A,0.27,R,,VIDY,,,,,003.39,292,03.6,V,A*75
$IIRMC,173100,A,4629.371,N,00641.080,E,04.9,251,250608,,,A*48
$IIVHW,,,255,M,04.8,N,,*6A
$IIVWR,041,R,09.7,N,,,,*6A
$IIDPT,063.8,-1.0,*4D
$IIGLL,4629.371,N,00641.080,E,173100,A,A*53
$IIHDG,255,,,,*55
$IIMTW,+24.5,C*3B
$IIMWV,041,R,09.7,N,A*18
$IIMWV,069,T,06.8,N,A*14
$IIRMB,A,0.27,R,,VIDY,,,,,003.39,293,03.8,V,A*7A
$IIRMC,173102,A,4629.370,N,00641.076,E,04.9,252,250608,,,A*41
$IIVHW,,,253,M,04.8,N,,*6C
$IIVWR,041,R,09.9,N,,,,*64
$IIDPT,063.8,-1.0,*4D
$IIGLL,4629.370,N,00641.076,E,173102,A,A*59
$IIHDG,255,,,,*55
$IIMTW,+24.0,C*3E
$IIMWV,040,R,10.0,N,A*16
$IIMWV,068,T,07.0,N,A*1C
$IIRMC,173102,A,4629.370,N,00641.076,E,04.9,252,250608,,,A*41
$IIVHW,,,255,M,04.7,N,,*65
$IIVWR,040,R,10.0,N,,,,*64
$IIDPT,062.5,-1.0,*41
$IIGLL,4629.369,N,00641.072,E,173104,A,A*53
$IIHDG,256,,,,*56
$IIMTW,+24.0,C*3E
$IIMWV,040,R,09.9,N,A*17
$IIMWV,065,T,07.0,N,A*11
$IIRMB,A,0.27,R,,VIDY,,,,,003.39,293,03.8,V,A*7A
$IIRMC,173104,A,4629.369,N,00641.072,E,05.0,253,250608,,,A*42
$IIVHW,,,256,M,04.7,N,,*66
$IIVWR,039,R,10.0,N,,,,*6A
$IIDPT,051.1,-1.0,*45
$IIGLL,4629.369,N,00641.072,E,173104,A,A*53
$IIHDG,258,,,,*58
$IIMTW,+24.0,C*3E
$IIMWV,039,R,10.0,N,A*18
$IIMWV,065,T,06.9,N,A*19
$IIRMC,173104,A,4629.369,N,00641.072,E,05.0,253,250608,,,A*42
$IIVHW,,,263,M,04.6,N,,*61
$IIVWR,038,R,10.1,N,,,,*6A
$IIDPT,051.1,-1.0,*45
$IIGLL,4629.369,N,00641.068,E,173106,A,A*5A
$IIHDG,263,,,,*50
$IIMTW,+24.0,C*3E
$IIMWV,038,R,10.1,N,A*18
$IIMWV,064,T,07.0,N,A*10
$IIRMB,A,0.27,R,,VIDY,,,,,003.39,293,03.8,V,A*7A
$IIRMC,173106,A,4629.369,N,00641.068,E,04.9,255,250608,,,A*45
$IIVHW,,,269,M,04.6,N,,*6B
$IIVWR,036,R,10.2,N,,,,*67
$IIDPT,051.1,-1.0,*45
$IIGLL,4629.369,N,00641.068,E,173106,A,A*5A
$IIHDG,269,,,,*5A
$IIMTW,+24.5,C*3B
$IIMWV,036,R,10.2,N,A*15
$IIMWV,059,T,06.9,N,A*16
$IIRMB,A,0.28,R,,VIDY,,,,,003.39,293,03.9,V,A*74
$IIRMC,173108,A,4629.368,N,00641.064,E,04.7,274,250608,,,A*4B
$IIVHW,,,275,M,04.6,N,,*66
$IIVWR,033,R,10.4,N,,,,*64
$IIDPT,045.5,-1.0,*44
$IIGLL,4629.368,N,00641.064,E,173108,A,A*59
$IIHDG,282,,,,*5F
$IIMTW,+24.5,C*3B
$IIMWV,030,R,10.9,N,A*18
$IIMWV,054,T,06.9,N,A*1B
$IIRMC,173108,A,4629.368,N,00641.064,E,04.7,274,250608,,,A*4B
$IIVHW,,,282,M,04.5,N,,*6D
$IIVWR,030,R,10.9,N,,,,*6A
$IIDPT,034.7,-1.0,*40
$IIGLL,4629.369,N,00641.061,E,173110,A,A*54
$IIHDG,288,,,,*55
$IIMTW,+24.5,C*3B
$IIMWV,027,R,11.0,N,A*16
$IIMWV,048,T,07.2,N,A*1C
$IIRMB,A,0.28,R,,VIDY,,,,,003.38,293,04.4,V,A*7F
$IIRMC,173110,A,4629.369,N,00641.061,E,04.5,280,250608,,,A*4F
$IIVHW,,,288,M,04.4,N,,*66
$IIVWR,022,R,11.1,N,,,,*60
$IIDPT,022.4,-1.0,*44
$IIGLL,4629.369,N,00641.061,E,173110,A,A*54
$IIHDG,297,,,,*5B
$IIMTW,+24.5,C*3B
$IIMWV,022,R,11.1,N,A*12
$IIMWV,043,T,07.1,N,A*14
$IIRMC,173110,A,4629.369,N,00641.061,E,04.5,280,250608,,,A*4F
$IIVHW,,,306,M,04.3,N,,*66
$IIVWR,018,R,11.4,N,,,,*6C
$IIDPT,022.4,-1.0,*44
$IIGLL,4629.370,N,00641.057,E,173112,A,A*5B
$IIHDG,306,,,,*52
$IIMTW,+24.5,C*3B
$IIMWV,018,R,11.4,N,A*1E
$IIMWV,035,T,07.1,N,A*15
$IIRMB,A,0.28,R,,VIDY,,,,,003.38,293,04.4,V,A*7F
$IIRMC,173112,A,4629.370,N,00641.057,E,04.4,283,250608,,,A*42
$IIVHW,,,316,M,04.3,N,,*67
$IIVWR,010,R,11.7,N,,,,*67
$IIDPT,022.4,-1.0,*44
$IIGLL,4629.370,N,00641.057,E,173112,A,A*5B
$IIHDG,316,,,,*53
$IIMTW,+24.5,C*3B
$IIMWV,010,R,11.7,N,A*15
$IIMWV,015,T,07.3,N,A*15
$IIRMB,A,0.28,R,,VIDY,,,,,003.38,293,04.4,V,A*7F
$IIRMC,173114,A,4629.370,N,00641.054,E,04.4,285,250608,,,A*41
$IIVHW,,,326,M,04.2,N,,*65
$IIVWR,000,R,11.5,N,,,,*64
$IIDPT,011.5,-1.0,*45
$IIGLL,4629.370,N,00641.054,E,173114,A,A*5E
$IIHDG,339,,,,*5E
$IIMTW,+24.5,C*3B
$IIMWV,350,R,11.5,N,A*10
$IIMWV,000,T,07.3,N,A*11
$IIRMC,173114,A,4629.370,N,00641.054,E,04.4,285,250608,,,A*41
$IIVHW,,,339,M,04.1,N,,*68
$IIVWR,010,L,11.5,N,,,,*7B
$IIDPT,011.3,-1.0,*43
$IIGLL,4629.370,N,00641.054,E,173114,A,A*5E
$IIHDG,345,,,,*55
$IIMTW,+24.5,C*3B
$IIMWV,345,R,11.4,N,A*15
$IIMWV,345,T,07.2,N,A*12
$IIRMB,A,0.28,R,,VIDY,,,,,003.38,293,04.1,V,A*7A
$IIRMC,173114,A,4629.370,N,00641.054,E,04.4,285,250608,,,A*41
$IIVHW,,,345,M,04.0,N,,*62
$IIVWR,017,L,11.0,N,,,,*79
$IIDPT,011.3,-1.0,*43
$IIGLL,4629.371,N,00641.051,E,173116,A,A*58
$IIHDG,356,,,,*57
$IIMTW,+24.5,C*3B
$IIMWV,343,R,11.0,N,A*17
$IIMWV,337,T,07.4,N,A*11
$IIRMC,173116,A,4629.371,N,00641.051,E,04.4,285,250608,,,A*47
$IIVHW,,,003,M,03.8,N,,*6C
$IIVWR,019,L,10.8,N,,,,*7E
$IIDPT,011.3,-1.0,*43
$IIGLL,4629.373,N,00641.051,E,173118,A,A*54
$IIHDG,003,,,,*54
$IIMTW,+24.5,C*3B
$IIMWV,341,R,10.8,N,A*1C
$IIMWV,334,T,07.2,N,A*14
$IIRMB,A,0.27,R,,VIDY,,,,,003.37,293,01.0,V,A*7E
$IIRMC,173118,A,4629.373,N,00641.051,E,03.0,012,250608,,,A*44
$IIVHW,,,011,M,03.8,N,,*6F
$IIVWR,028,L,10.4,N,,,,*70
$IIDPT,011.3,-1.0,*43
$IIGLL,4629.373,N,00641.051,E,173118,A,A*54
$IIHDG,011,,,,*57
$IIMTW,+24.5,C*3B
$IIMWV,332,R,10.4,N,A*14
$IIMWV,318,T,07.1,N,A*19
$IIRMB,A,0.27,R,,VIDY,,,,,003.37,293,-00.1,V,A*53
$IIRMC,173120,A,4629.374,N,00641.051,E,02.8,025,250608,,,A*45
$IIVHW,,,014,M,03.7,N,,*65
$IIVWR,037,L,10.7,N,,,,*7D
$IIDPT,011.3,-1.0,*43
$IIGLL,4629.374,N,00641.051,E,173120,A,A*58
$IIHDG,016,,,,*50
$IIMTW,+24.0,C*3E
$IIMWV,321,R,10.6,N,A*14
$IIMWV,307,T,08.0,N,A*19
$IIRMC,173120,A,4629.374,N,00641.051,E,02.8,025,250608,,,A*45
$IIVHW,,,016,M,03.6,N,,*66
$IIVWR,039,L,10.6,N,,,,*72
$IIDPT,011.3,-1.0,*43
$IIGLL,4629.376,N,00641.052,E,173122,A,A*5B
$IIHDG,022,,,,*57
$IIMTW,+24.0,C*3E
$IIMWV,317,R,09.9,N,A*16
$IIMWV,304,T,07.9,N,A*1C
$IIRMB,A,0.27,R,,VIDY,,,,,003.37,293,-00.1,V,A*53
$IIRMC,173122,A,4629.376,N,00641.052,E,02.9,036,250608,,,A*45
$IIVHW,,,022,M,03.6,N,,*61
$IIVWR,041,L,09.7,N,,,,*74
$IIDPT,011.3,-1.0,*43
$IIGLL,4629.376,N,00641.052,E,173122,A,A*5B
$IIHDG,027,,,,*52
$IIMTW,+24.0,C*3E
$IIMWV,319,R,09.7,N,A*16
$IIMWV,298,T,07.6,N,A*17
$IIRMC,173122,A,4629.376,N,00641.052,E,02.9,036,250608,,,A*45
$IIVHW,,,029,M,03.5,N,,*69
$IIVWR,045,L,09.3,N,,,,*74
$IIDPT,036.3,-1.0,*46
$IIGLL,4629.377,N,00641.054,E,173124,A,A*5A
$IIHDG,029,,,,*5C
$IIMTW,+24.0,C*3E
$IIMWV,315,R,09.3,N,A*1E
$IIMWV,299,T,07.3,N,A*13
$IIRMB,A,0.27,R,,VIDY,,,,,003.38,292,-00.6,V,A*5A
$IIRMC,173124,A,4629.377,N,00641.054,E,03.0,037,250608,,,A*4D
$IIVHW,,,034,M,03.6,N,,*66
$IIVWR,051,L,08.7,N,,,,*74
$IIDPT,047.3,-1.0,*40
$IIGLL,4629.377,N,00641.054,E,173124,A,A*5A
$IIHDG,034,,,,*50
$IIMTW,+24.5,C*3B
$IIMWV,309,R,08.7,N,A*16
$IIMWV,285,T,06.9,N,A*15
$IIRMB,A,0.27,R,,VIDY,,,,,003.38,292,-01.2,V,A*5F
$IIRMC,173126,A,4629.379,N,00641.055,E,03.5,043,250608,,,A*46
$IIVHW,,,038,M,03.6,N,,*6A
$IIVWR,052,L,08.6,N,,,,*76
$IIDPT,064.0,-1.0,*42
$IIGLL,4629.379,N,00641.055,E,173126,A,A*57
$IIHDG,041,,,,*52
$IIMTW,+24.5,C*3B
$IIMWV,307,R,08.6,N,A*19
$IIMWV,284,T,06.9,N,A*14
$IIRMC,173126,A,4629.379,N,00641.055,E,03.5,043,250608,,,A*46
$IIVHW,,,041,M,03.6,N,,*64
$IIVWR,053,L,08.6,N,,,,*77
$IIDPT,064.0,-1.0,*42
$IIGLL,4629.380,N,00641.057,E,173128,A,A*5D
$IIHDG,044,,,,*57
$IIMTW,+24.5,C*3B
$IIMWV,307,R,08.2,N,A*1D
$IIMWV,282,T,06.9,N,A*12
$IIRMB,A,0.27,R,,VIDY,,,,,003.38,292,-01.2,V,A*5F
$IIRMC,173128,A,4629.380,N,00641.057,E,03.7,042,250608,,,A*4F
$IIVHW,,,044,M,03.6,N,,*61
$IIVWR,053,L,08.3,N,,,,*72
$IIDPT,042.3,-1.0,*45
$IIGLL,4629.380,N,00641.057,E,173128,A,A*5D
$IIHDG,045,,,,*56
$IIMTW,+24.0,C*3E
$IIMWV,307,R,08.3,N,A*1C
$IIMWV,280,T,06.6,N,A*1F
$IIRMC,173128,A,4629.380,N,00641.057,E,03.7,042,250608,,,A*4F
$IIVHW,,,044,M,03.7,N,,*60
$IIVWR,052,L,08.1,N,,,,*71
$IIDPT,050.8,-1.0,*4D
$IIGLL,4629.382,N,00641.060,E,173130,A,A*52
$IIHDG,044,,,,*57
$IIMTW,+24.0,C*3E
$IIMWV,308,R,08.1,N,A*11
$IIMWV,280,T,06.7,N,A*1E
$IIRMB,A,0.26,R,,VIDY,,,,,003.38,292,-01.7,V,A*5B
$IIRMC,173130,A,4629.382,N,00641.060,E,04.0,048,250608,,,A*4A
$IIVHW,,,042,M,03.7,N,,*66
$IIVWR,053,L,08.3,N,,,,*72
$IIDPT,042.3,-1.0,*45
$IIGLL,4629.382,N,00641.060,E,173130,A,A*52
$IIHDG,042,,,,*51
$IIMTW,+24.0,C*3E
$IIMWV,307,R,08.3,N,A*1C
$IIMWV,279,T,06.6,N,A*19
$IIRMB,A,0.26,R,,VIDY,,,,,003.38,292,-01.7,V,A*5B
$IIRMC,173132,A,4629.383,N,00641.062,E,04.0,048,250608,,,A*4B
$IIVHW,,,043,M,03.8,N,,*68
$IIVWR,051,L,08.7,N,,,,*74
$IIDPT,033.0,-1.0,*40
$IIGLL,4629.383,N,00641.062,E,173132,A,A*53
$IIHDG,042,,,,*51
$IIMTW,+24.5,C*3B
$IIMWV,310,R,08.7,N,A*1E
$IIMWV,283,T,06.8,N,A*12
$IIRMC,173132,A,4629.383,N,00641.062,E,04.0,048,250608,,,A*4B
$IIVHW,,,042,M,03.8,N,,*69
$IIVWR,050,L,08.7,N,,,,*75
$IIDPT,033.0,-1.0,*40
$IIGLL,4629.385,N,00641.064,E,173134,A,A*55
$IIHDG,041,,,,*52
$IIMTW,+24.5,C*3B
$IIMWV,309,R,08.7,N,A*16
$IIMWV,284,T,06.7,N,A*1A
$IIRMB,A,0.26,R,,VIDY,,,,,003.38,292,-01.7,V,A*5B
$IIRMC,173134,A,4629.385,N,00641.064,E,04.1,048,250608,,,A*4C
$IIVHW,,,041,M,03.8,N,,*6A
$IIVWR,050,L,08.6,N,,,,*74
$IIDPT,038.8,-1.0,*43
$IIGLL,4629.385,N,00641.064,E,173134,A,A*55
$IIHDG,041,,,,*52
$IIMTW,+24.0,C*3E
$IIMWV,310,R,08.6,N,A*1F
$IIMWV,282,T,06.8,N,A*13
$IIRMC,173134,A,4629.385,N,00641.064,E,04.1,048,250608,,,A*4C
$IIVHW,,,040,M,03.9,N,,*6A
$IIVWR,050,L,08.9,N,,,,*7B
$IIDPT,038.8,-1.0,*43
$IIGLL,4629.387,N,00641.067,E,173136,A,A*56
$IIHDG,040,,,,*53
$IIMTW,+24.0,C*3E
$IIMWV,310,R,08.9,N,A*10
$IIMWV,284,T,06.7,N,A*1A
$IIRMB,A,0.26,R,,VIDY,,,,,003.38,292,-01.8,V,A*54
$IIRMC,173136,A,4629.387,N,00641.067,E,04.1,048,250608,,,A*4F
$IIVHW,,,040,M,04.0,N,,*64
$IIVWR,051,L,08.5,N,,,,*76
$IIDPT,038.8,-1.0,*43
$IIGLL,4629.387,N,00641.067,E,173136,A,A*56
$IIHDG,040,,,,*53
$IIMTW,+24.0,C*3E
$IIMWV,309,R,08.5,N,A*14
$IIMWV,281,T,06.7,N,A*1F
$IIRMB,A,0.26,R,,VIDY,,,,,003.38,292,-01.8,V,A*54
$IIRMC,173138,A,4629.388,N,00641.069,E,04.1,046,250608,,,A*4E
$IIVHW,,,042,M,04.0,N,,*66
$IIVWR,053,L,08.5,N,,,,*74
$IIDPT,048.7,-1.0,*4B
$IIGLL,4629.388,N,00641.069,E,173138,A,A*59
$IIHDG,042,,,,*51
$IIMTW,+25.0,C*3F
$IIMWV,310,R,08.5,N,A*1C
$IIMWV,279,T,06.8,N,A*17
$IIRMC,173138,A,4629.388,N,00641.069,E,04.1,046,250608,,,A*4E
$IIVHW,,,042,M,04.0,N,,*66
$IIVWR,050,L,08.5,N,,,,*77
$IIDPT,048.7,-1.0,*4B
$IIGLL,4629.390,N,00641.071,E,173140,A,A*56
$IIHDG,042,,,,*51
$IIMTW,+25.0,C*3F
$IIMWV,309,R,08.5,N,A*14
$IIMWV,281,T,06.6,N,A*1E
$IIRMB,A,0.25,R,,VIDY,,,,,003.38,292,-01.7,V,A*58
$IIRMC,173140,A,4629.390,N,00641.071,E,04.2,047,250608,,,A*43
$IIVHW,,,042,M,04.1,N,,*67
$IIVWR,048,L,08.5,N,,,,*7E
$IIDPT,048.7,-1.0,*4B
$IIGLL,4629.390,N,00641.071,E,173140,A,A*56
$IIHDG,041,,,,*52
$IIMTW,+25.0,C*3F
$IIMWV,312,R,08.5,N,A*1E
$IIMWV,279,T,06.6,N,A*19
$IIRMC,173140,A,4629.390,N,00641.071,E,04.2,047,250608,,,A*43
$IIVHW,,,041,M,04.2,N,,*67
$IIVWR,048,L,08.6,N,,,,*7D
$IIDPT,032.0,-1.0,*41
$IIGLL,4629.392,N,00641.074,E,173142,A,A*53
$IIHDG,041,,,,*52
$IIMTW,+24.0,C*3E
$IIMWV,312,R,08.6,N,A*1D
$IIMWV,283,T,06.3,N,A*19
$IIRMB,A,0.25,R,,VIDY,,,,,003.38,292,-01.8,V,A*57
$IIRMC,173142,A,4629.392,N,00641.074,E,04.2,047,250608,,,A*46
$IIVHW,,,041,M,04.3,N,,*66
$IIVWR,047,L,08.9,N,,,,*7D
$IIDPT,028.6,-1.0,*4C
$IIGLL,4629.392,N,00641.074,E,173142,A,A*53
$IIHDG,041,,,,*52
$IIMTW,+24.0,C*3E
$IIMWV,313,R,08.9,N,A*13
$IIMWV,285,T,06.6,N,A*1A
$IIRMB,A,0.25,R,,VIDY,,,,,003.38,292,-01.8,V,A*57
$IIRMC,173144,A,4629.393,N,00641.076,E,04.2,047,250608,,,A*43
$IIVHW,,,040,M,04.3,N,,*67
$IIVWR,045,L,09.1,N,,,,*76
$IIDPT,027.3,-1.0,*46
$IIGLL,4629.393,N,00641.076,E,173144,A,A*56
$IIHDG,039,,,,*5D
$IIMTW,+24.0,C*3E
$IIMWV,314,R,09.0,N,A*1C
$IIMWV,287,T,06.7,N,A*19
$IIRMC,173144,A,4629.393,N,00641.076,E,04.2,047,250608,,,A*43
$IIVHW,,,039,M,04.4,N,,*6E
$IIVWR,046,L,09.0,N,,,,*74
$IIDPT,027.3,-1.0,*46
$IIGLL,4629.395,N,00641.079,E,173146,A,A*5D
$IIHDG,039,,,,*5D
$IIMTW,+24.5,C*3B
$IIMWV,313,R,09.1,N,A*1A
$IIMWV,286,T,06.6,N,A*19
$IIRMB,A,0.25,R,,VIDY,,,,,003.38,292,-01.8,V,A*57
$IIRMC,173146,A,4629.395,N,00641.079,E,04.2,047,250608,,,A*48
$IIVHW,,,039,M,04.4,N,,*6E
$IIVWR,047,L,09.3,N,,,,*76
$IIDPT,027.3,-1.0,*46
$IIGLL,4629.395,N,00641.079,E,173146,A,A*5D
$IIHDG,039,,,,*5D
$IIMTW,+24.5,C*3B
$IIMWV,313,R,09.3,N,A*18
$IIMWV,284,T,06.7,N,A*1A
$IIRMC,173146,A,4629.395,N,00641.079,E,04.2,047,250608,,,A*48
$IIVHW,,,039,M,04.5,N,,*6F
$IIVWR,045,L,09.0,N,,,,*77
$IIDPT,032.4,-1.0,*45
$IIGLL,4629.397,N,00641.081,E,173148,A,A*56
$IIHDG,039,,,,*5D
$IIMTW,+24.0,C*3E
$IIMWV,315,R,09.0,N,A*1D
$IIMWV,285,T,06.9,N,A*15
$IIRMB,A,0.25,R,,VIDY,,,,,003.39,292,-01.8,V,A*56
$IIRMC,173148,A,4629.397,N,00641.081,E,04.3,047,250608,,,A*42
$IIVHW,,,038,M,04.5,N,,*6E
$IIVWR,045,L,08.9,N,,,,*7F
$IIDPT,032.4,-1.0,*45
$IIGLL,4629.397,N,00641.081,E,173148,A,A*56
$IIHDG,038,,,,*5C
$IIMTW,+24.0,C*3E
$IIMWV,315,R,08.9,N,A*15
$IIMWV,285,T,06.5,N,A*19
$IIRMB,A,0.24,R,,VIDY,,,,,003.39,292,-01.7,V,A*58
$IIRMC,173150,A,4629.398,N,00641.084,E,04.4,045,250608,,,A*44
$IIVHW,,,038,M,04.6,N,,*6D
$IIVWR,045,L,08.8,N,,,,*7E
$IIDPT,034.4,-1.0,*43
$IIGLL,4629.398,N,00641.084,E,173150,A,A*55
$IIHDG,039,,,,*5D
$IIMTW,+24.0,C*3E
$IIMWV,317,R,09.0,N,A*1F
$IIMWV,285,T,06.4,N,A*18
$IIRMC,173150,A,4629.398,N,00641.084,E,04.4,045,250608,,,A*44
$IIVHW,,,039,M,04.6,N,,*6C
$IIVWR,043,L,09.0,N,,,,*71
$IIDPT,034.4,-1.0,*43
$IIGLL,4629.400,N,00641.086,E,173152,A,A*53
$IIHDG,038,,,,*5C
$IIMTW,+24.5,C*3B
$IIMWV,317,R,09.2,N,A*1D
$IIMWV,286,T,06.3,N,A*1C
$IIRMB,A,0.24,R,,VIDY,,,,,003.39,292,-01.7,V,A*58
$IIRMC,173152,A,4629.400,N,00641.086,E,04.4,045,250608,,,A*42
$IIVHW,,,038,M,04.6,N,,*6D
$IIVWR,044,L,09.0,N,,,,*76
$IIDPT,036.4,-1.0,*41
$IIGLL,4629.400,N,00641.086,E,173152,A,A*53
$IIHDG,038,,,,*5C
$IIMTW,+24.0,C*3E
$IIMWV,316,R,09.0,N,A*1E
$IIMWV,288,T,06.5,N,A*14
$IIRMC,173152,A,4629.400,N,00641.086,E,04.4,045,250608,,,A*42
$IIVHW,,,039,M,04.7,N,,*6D
$IIVWR,046,L,08.9,N,,,,*7C
$IIDPT,039.3,-1.0,*49
$IIGLL,4629.402,N,00641.089,E,173154,A,A*58
$IIHDG,039,,,,*5D
$IIMTW,+24.5,C*3B
$IIMWV,314,R,08.9,N,A*14
$IIMWV,285,T,06.4,N,A*18
$IIRMB,A,0.24,R,,VIDY,,,,,003.39,292,-01.7,V,A*58
$IIRMC,173154,A,4629.402,N,00641.089,E,04.4,045,250608,,,A*49
$IIVHW,,,038,M,04.7,N,,*6C
$IIVWR,045,L,09.0,N,,,,*77
$IIDPT,039.3,-1.0,*49
$IIGLL,4629.402,N,00641.089,E,173154,A,A*58
$IIHDG,038,,,,*5C
$IIMTW,+24.0,C*3E
$IIMWV,315,R,09.0,N,A*1D
$IIMWV,283,T,06.4,N,A*1E
$IIRMB,A,0.24,R,,VIDY,,,,,003.39,292,-01.7,V,A*58
$IIRMC,173156,A,4629.403,N,00641.091,E,04.4,045,250608,,,A*43
$IIVHW,,,037,M,04.8,N,,*6C
$IIVWR,045,L,08.9,N,,,,*7F
$IIDPT,039.3,-1.0,*49
$IIGLL,4629.403,N,00641.091,E,173156,A,A*52
$IIHDG,036,,,,*52
$IIMTW,+24.0,C*3E
$IIMWV,313,R,09.3,N,A*18
$IIMWV,283,T,06.4,N,A*1E
$IIRMC,173156,A,4629.403,N,00641.091,E,04.4,045,250608,,,A*43
$IIVHW,,,036,M,04.8,N,,*6D
$IIVWR,047,L,09.3,N,,,,*76
$IIDPT,042.6,-1.0,*40
$IIGLL,4629.406,N,00641.094,E,173158,A,A*5C
$IIHDG,037,,,,*53
$IIMTW,+24.0,C*3E
$IIMWV,311,R,09.4,N,A*1D
$IIMWV,282,T,06.8,N,A*13
$IIRMB,A,0.23,R,,VIDY,,,,,003.39,292,-01.7,V,A*5F
$IIRMC,173158,A,4629.406,N,00641.094,E,05.3,043,250608,,,A*4D
$IIVHW,,,037,M,04.9,N,,*6D
$IIVWR,048,L,09.5,N,,,,*7F
$IIDPT,045.4,-1.0,*45
$IIGLL,4629.406,N,00641.094,E,173158,A,A*5C
$IIHDG,039,,,,*5D
$IIMTW,+24.0,C*3E
$IIMWV,312,R,09.5,N,A*1F
$IIMWV,281,T,07.1,N,A*18
$IIRMC,173158,A,4629.406,N,00641.094,E,05.3,043,250608,,,A*4D
$IIVHW,,,040,M,05.0,N,,*65
$IIVWR,050,L,09.5,N,,,,*76
$IIDPT,045.4,-1.0,*45
$IIGLL,4629.408,N,00641.097,E,173200,A,A*5F
$IIHDG,040,,,,*53
$IIMTW,+24.0,C*3E
$IIMWV,310,R,09.5,N,A*1D
$IIMWV,281,T,07.1,N,A*18
$IIRMB,A,0.23,R,,VIDY,,,,,003.39,292,-01.9,V,A*51
$IIRMC,173200,A,4629.408,N,00641.097,E,05.0,049,250608,,,A*47
$IIVHW,,,039,M,05.1,N,,*6A
$IIVWR,049,L,09.8,N,,,,*73
$IIDPT,041.7,-1.0,*42
$IIGLL,4629.408,N,00641.097,E,173200,A,A*5F
$IIHDG,039,,,,*5D
$IIMTW,+24.0,C*3E
$IIMWV,311,R,09.8,N,A*11
$IIMWV,280,T,07.4,N,A*1C
$IIRMB,A,0.23,R,,VIDY,,,,,003.39,292,-02.1,V,A*5A
$IIRMC,173202,A,4629.410,N,00641.100,E,05.4,045,250608,,,A*4B
$IIVHW,,,039,M,05.1,N,,*6A
$IIVWR,049,L,09.8,N,,,,*73
$IIDPT,042.0,-1.0,*46
$IIGLL,4629.410,N,00641.100,E,173202,A,A*5B
$IIHDG,038,,,,*5C
$IIMTW,+24.0,C*3E
$IIMWV,312,R,10.0,N,A*12
$IIMWV,279,T,07.3,N,A*1D
$IIRMC,173202,A,4629.410,N,00641.100,E,05.4,045,250608,,,A*4B
$IIVHW,,,038,M,05.2,N,,*68
$IIVWR,048,L,10.0,N,,,,*72
$IIDPT,042.0,-1.0,*46
$IIGLL,4629.412,N,00641.103,E,173204,A,A*5C
$IIHDG,037,,,,*53
$IIMTW,+24.0,C*3E
$IIMWV,312,R,10.4,N,A*16
$IIMWV,282,T,07.5,N,A*1F
$IIRMB,A,0.23,R,,VIDY,,,,,003.39,292,-02.1,V,A*5A
$IIRMC,173204,A,4629.412,N,00641.103,E,05.4,046,250608,,,A*4F
$IIVHW,,,037,M,05.2,N,,*67
$IIVWR,048,L,10.4,N,,,,*76
$IIDPT,043.6,-1.0,*41
$IIGLL,4629.412,N,00641.103,E,173204,A,A*5C
$IIHDG,039,,,,*5D
$IIMTW,+24.0,C*3E
$IIMWV,312,R,10.4,N,A*16
$IIMWV,282,T,07.7,N,A*1D
$IIRMC,173204,A,4629.412,N,00641.103,E,05.4,046,250608,,,A*4F
$IIVHW,,,040,M,05.2,N,,*67
$IIVWR,048,L,10.5,N,,,,*77
$IIDPT,043.6,-1.0,*41
$IIGLL,4629.414,N,00641.107,E,173206,A,A*5C
$IIHDG,040,,,,*53
$IIMTW,+24.0,C*3E
$IIMWV,312,R,10.5,N,A*17
$IIMWV,282,T,07.7,N,A*1D
$IIRMB,A,0.22,R,,VIDY,,,,,003.39,292,-02.3,V,A*59
$IIRMC,173206,A,4629.414,N,00641.107,E,05.3,048,250608,,,A*46
$IIVHW,,,038,M,05.3,N,,*69
$IIVWR,048,L,10.1,N,,,,*73
$IIDPT,042.0,-1.0,*46
$IIGLL,4629.414,N,00641.107,E,173206,A,A*5C
$IIHDG,038,,,,*5C
$IIMTW,+24.0,C*3E
$IIMWV,312,R,10.1,N,A*13
$IIMWV,281,T,07.5,N,A*1C
$IIRMB,A,0.22,R,,VIDY,,,,,003.40,292,-02.2,V,A*56
$IIRMC,173208,A,4629.417,N,00641.110,E,05.7,042,250608,,,A*43
$IIVHW,,,037,M,05.4,N,,*61
$IIVWR,048,L,10.2,N,,,,*70
$IIDPT,043.9,-1.0,*4E
$IIGLL,4629.417,N,00641.110,E,173208,A,A*57
$IIHDG,036,,,,*52
$IIMTW,+24.0,C*3E
$IIMWV,311,R,10.6,N,A*17
$IIMWV,281,T,07.6,N,A*1F
$IIRMC,173208,A,4629.417,N,00641.110,E,05.7,042,250608,,,A*43
$IIVHW,,,036,M,05.4,N,,*60
$IIVWR,049,L,10.6,N,,,,*75
$IIDPT,049.2,-1.0,*4F
$IIGLL,4629.419,N,00641.113,E,173210,A,A*53
$IIHDG,036,,,,*52
$IIMTW,+24.0,C*3E
$IIMWV,311,R,10.6,N,A*17
$IIMWV,280,T,08.0,N,A*17
$IIRMB,A,0.22,R,,VIDY,,,,,003.40,292,-02.0,V,A*54
$IIRMC,173210,A,4629.419,N,00641.113,E,05.6,044,250608,,,A*40
$IIVHW,,,036,M,05.4,N,,*60
$IIVWR,048,L,10.8,N,,,,*7A
$IIDPT,060.3,-1.0,*45
$IIGLL,4629.419,N,00641.113,E,173210,A,A*53
$IIHDG,037,,,,*53
$IIMTW,+24.0,C*3E
$IIMWV,312,R,10.8,N,A*1A
$IIMWV,280,T,08.0,N,A*17
$IIRMC,173210,A,4629.419,N,00641.113,E,05.6,044,250608,,,A*40
$IIVHW,,,037,M,05.5,N,,*60
$IIVWR,049,L,11.0,N,,,,*72
$IIDPT,060.3,-1.0,*45
$IIGLL,4629.422,N,00641.116,E,173212,A,A*5C
$IIHDG,037,,,,*53
$IIMTW,+24.0,C*3E
$IIMWV,311,R,11.0,N,A*10
$IIMWV,282,T,08.0,N,A*15
$IIRMB,A,0.21,R,,VIDY,,,,,003.40,292,-02.1,V,A*56
$IIRMC,173212,A,4629.422,N,00641.116,E,05.7,044,250608,,,A*4E
$IIVHW,,,037,M,05.6,N,,*63
$IIVWR,049,L,10.9,N,,,,*7A
$IIDPT,051.3,-1.0,*47
$IIGLL,4629.422,N,00641.116,E,173212,A,A*5C
$IIHDG,037,,,,*53
$IIMTW,+24.0,C*3E
$IIMWV,311,R,10.9,N,A*18
$IIMWV,281,T,08.2,N,A*14
$IIRMB,A,0.21,R,,VIDY,,,,,003.40,291,-02.2,V,A*56
$IIRMC,173214,A,4629.424,N,00641.119,E,05.9,044,250608,,,A*4F
$IIVHW,,,037,M,05.6,N,,*63
$IIVWR,049,L,10.9,N,,,,*7A
$IIDPT,051.3,-1.0,*47
$IIGLL,4629.424,N,00641.119,E,173214,A,A*53
$IIHDG,037,,,,*53
$IIMTW,+24.0,C*3E
$IIMWV,311,R,10.8,N,A*19
$IIMWV,281,T,08.2,N,A*14
$IIRMC,173214,A,4629.424,N,00641.119,E,05.9,044,250608,,,A*4F
$IIVHW,,,037,M,05.6,N,,*63
$IIVWR,049,L,10.8,N,,,,*7B
$IIDPT,051.3,-1.0,*47
$IIGLL,4629.427,N,00641.123,E,173216,A,A*5B
$IIHDG,038,,,,*5C
$IIMTW,+24.0,C*3E
$IIMWV,310,R,10.9,N,A*19
$IIMWV,280,T,08.2,N,A*15
$IIRMB,A,0.21,R,,VIDY,,,,,003.40,291,-02.2,V,A*56
$IIRMC,173216,A,4629.427,N,00641.123,E,05.9,044,250608,,,A*47
$IIVHW,,,038,M,05.6,N,,*6C
$IIVWR,050,L,10.8,N,,,,*73
$IIDPT,011.5,-1.0,*45
$IIGLL,4629.427,N,00641.123,E,173216,A,A*5B
$IIHDG,039,,,,*5D
$IIMTW,+24.0,C*3E
$IIMWV,310,R,10.8,N,A*18
$IIMWV,278,T,08.3,N,A*13
$IIRMC,173216,A,4629.427,N,00641.123,E,05.9,044,250608,,,A*47
$IIVHW,,,039,M,05.6,N,,*6D
$IIVWR,050,L,10.6,N,,,,*7D
$IIDPT,011.5,-1.0,*45
$IIGLL,4629.429,N,00641.126,E,173218,A,A*5E
$IIHDG,039,,,,*5D
$IIMTW,+24.0,C*3E
$IIMWV,310,R,10.6,N,A*16
$IIMWV,278,T,08.3,N,A*13
$IIRMB,A,0.20,R,,VIDY,,,,,003.40,291,-02.2,V,A*57
$IIRMC,173218,A,4629.429,N,00641.126,E,05.7,048,250608,,,A*40
$IIVHW,,,040,M,05.7,N,,*62
$IIVWR,050,L,10.8,N,,,,*73
$IIDPT,011.3,-1.0,*43
$IIGLL,4629.429,N,00641.126,E,173218,A,A*5E
$IIHDG,040,,,,*53
$IIMTW,+24.0,C*3E
$IIMWV,310,R,10.8,N,A*18
$IIMWV,278,T,08.3,N,A*13
$IIRMB,A,0.20,R,,VIDY,,,,,003.40,291,-02.4,V,A*51
$IIRMC,173220,A,4629.432,N,00641.129,E,05.8,046,250608,,,A*4F
$IIVHW,,,039,M,05.7,N,,*6C
$IIVWR,051,L,10.7,N,,,,*7D
$IIDPT,011.3,-1.0,*43
$IIGLL,4629.432,N,00641.129,E,173220,A,A*50
$IIHDG,039,,,,*5D
$IIMTW,+24.0,C*3E
$IIMWV,308,R,10.7,N,A*1E
$IIMWV,276,T,08.3,N,A*1D
$IIRMC,173220,A,4629.432,N,00641.129,E,05.8,046,250608,,,A*4F
$IIVHW,,,039,M,05.7,N,,*6C
$IIVWR,052,L,10.7,N,,,,*7E
$IIDPT,011.3,-1.0,*43
$IIGLL,4629.434,N,00641.133,E,173222,A,A*5F
$IIHDG,040,,,,*53
$IIMTW,+24.0,C*3E
$IIMWV,308,R,10.5,N,A*1C
$IIMWV,275,T,08.4,N,A*19
$IIRMB,A,0.20,R,,VIDY,,,,,003.40,291,-02.6,V,A*53
$IIRMC,173222,A,4629.434,N,00641.133,E,05.8,047,250608,,,A*41
$IIVHW,,,040,M,05.7,N,,*62
$IIVWR,052,L,10.5,N,,,,*7C
$IIDPT,011.3,-1.0,*43
$IIGLL,4629.434,N,00641.133,E,173222,A,A*5F
$IIHDG,041,,,,*52
$IIMTW,+24.0,C*3E
$IIMWV,308,R,10.5,N,A*1C
$IIMWV,275,T,08.2,N,A*1F
$IIRMC,173222,A,4629.434,N,00641.133,E,05.8,047,250608,,,A*41
$IIVHW,,,042,M,05.7,N,,*60
$IIVWR,054,L,10.4,N,,,,*7B
$IIDPT,011.3,-1.0,*43
$IIGLL,4629.436,N,00641.136,E,173224,A,A*5E
$IIHDG,042,,,,*51
$IIMTW,+24.0,C*3E
$IIMWV,306,R,10.4,N,A*13
$IIMWV,275,T,08.2,N,A*1F
$IIRMB,A,0.20,R,,VIDY,,,,,003.41,291,-02.6,V,A*52
$IIRMC,173224,A,4629.436,N,00641.136,E,05.9,048,250608,,,A*4E
$IIVHW,,,042,M,05.7,N,,*60
$IIVWR,055,L,10.7,N,,,,*79
$IIDPT,011.3,-1.0,*43
$IIGLL,4629.436,N,00641.136,E,173224,A,A*5E
$IIHDG,042,,,,*51
$IIMTW,+24.0,C*3E
$IIMWV,305,R,10.7,N,A*13
$IIMWV,272,T,08.7,N,A*1D
$IIRMB,A,0.19,R,,VIDY,,,,,003.41,291,-02.6,V,A*58
$IIRMC,173226,A,4629.438,N,00641.140,E,05.8,049,250608,,,A*43
$IIVHW,,,042,M,05.7,N,,*60
$IIVWR,055,L,10.6,N,,,,*78
$IIDPT,011.4,-1.0,*44
$IIGLL,4629.438,N,00641.140,E,173226,A,A*53
$IIHDG,042,,,,*51
$IIMTW,+24.0,C*3E
$IIMWV,306,R,10.5,N,A*12
$IIMWV,272,T,08.6,N,A*1C
$IIRMC,173226,A,4629.438,N,00641.140,E,05.8,049,250608,,,A*43
$IIVHW,,,042,M,05.7,N,,*60
$IIVWR,054,L,10.5,N,,,,*7A
$IIDPT,011.4,-1.0,*44
$IIGLL,4629.438,N,00641.140,E,173226,A,A*53
$IIHDG,040,,,,*53
$IIMTW,+24.0,C*3E
$IIMWV,306,R,10.4,N,A*13
$IIMWV,272,T,08.5,N,A*1F
$IIRMB,A,0.19,R,,VIDY,,,,,003.41,291,-02.7,V,A*59
$IIRMC,173226,A,4629.438,N,00641.140,E,05.8,049,250608,,,A*43
$IIVHW,,,040,M,05.7,N,,*62
$IIVWR,054,L,10.4,N,,,,*7B
$IIDPT,013.1,-1.0,*43
$IIGLL,4629.441,N,00641.143,E,173228,A,A*50
$IIHDG,039,,,,*5D
$IIMTW,+24.0,C*3E
$IIMWV,306,R,10.4,N,A*13
$IIMWV,272,T,08.4,N,A*1E
$IIRMC,173228,A,4629.441,N,00641.143,E,05.8,049,250608,,,A*40
$IIVHW,,,040,M,05.6,N,,*63
$IIVWR,053,L,10.4,N,,,,*7C
$IIDPT,014.7,-1.0,*42
$IIGLL,4629.443,N,00641.147,E,173230,A,A*5F
$IIHDG,040,,,,*53
$IIMTW,+24.0,C*3E
$IIMWV,307,R,10.4,N,A*12
$IIMWV,273,T,08.4,N,A*1F
$IIRMB,A,0.19,R,,VIDY,,,,,003.41,291,-02.3,V,A*5D
$IIRMC,173230,A,4629.443,N,00641.147,E,05.6,047,250608,,,A*4F
$IIVHW,,,041,M,05.6,N,,*62
$IIVWR,052,L,10.4,N,,,,*7D
$IIDPT,017.8,-1.0,*4E
$IIGLL,4629.443,N,00641.147,E,173230,A,A*5F
$IIHDG,041,,,,*52
$IIMTW,+24.0,C*3E
$IIMWV,308,R,10.4,N,A*1D
$IIMWV,275,T,08.2,N,A*1F
$IIRMB,A,0.18,R,,VIDY,,,,,003.41,291,-02.6,V,A*59
$IIRMC,173232,A,4629.445,N,00641.150,E,05.7,047,250608,,,A*4C
$IIVHW,,,040,M,05.6,N,,*63
$IIVWR,049,L,10.4,N,,,,*77
$IIDPT,014.9,-1.0,*4C
$IIGLL,4629.445,N,00641.150,E,173232,A,A*5D
$IIHDG,039,,,,*5D
$IIMTW,+24.0,C*3E
$IIMWV,312,R,10.5,N,A*17
$IIMWV,278,T,07.8,N,A*17
$IIRMC,173232,A,4629.445,N,00641.150,E,05.7,047,250608,,,A*4C
$IIVHW,,,039,M,05.7,N,,*6C
$IIVWR,048,L,10.5,N,,,,*77
$IIDPT,014.9,-1.0,*4C
$IIGLL,4629.448,N,00641.153,E,173234,A,A*55
$IIHDG,038,,,,*5C
$IIMTW,+24.0,C*3E
$IIMWV,312,R,10.8,N,A*1A
$IIMWV,279,T,07.7,N,A*19
$IIRMB,A,0.18,R,,VIDY,,,,,003.41,291,-02.4,V,A*5B
$IIRMC,173234,A,4629.448,N,00641.153,E,06.0,044,250608,,,A*43
$IIVHW,,,038,M,05.7,N,,*6D
$IIVWR,046,L,10.9,N,,,,*75
$IIDPT,044.4,-1.0,*44
$IIGLL,4629.448,N,00641.153,E,173234,A,A*55
$IIHDG,039,,,,*5D
$IIMTW,+24.0,C*3E
$IIMWV,314,R,10.9,N,A*1D
$IIMWV,280,T,08.0,N,A*17
$IIRMC,173234,A,4629.448,N,00641.153,E,06.0,044,250608,,,A*43
$IIVHW,,,040,M,05.7,N,,*62
$IIVWR,045,L,10.7,N,,,,*78
$IIDPT,044.4,-1.0,*44
$IIGLL,4629.450,N,00641.157,E,173236,A,A*5A
$IIHDG,040,,,,*53
$IIMTW,+24.0,C*3E
$IIMWV,315,R,10.7,N,A*12
$IIMWV,282,T,07.9,N,A*13
$IIRMB,A,0.18,R,,VIDY,,,,,003.41,291,-02.6,V,A*59
$IIRMC,173236,A,4629.450,N,00641.157,E,05.6,051,250608,,,A*4D
$IIVHW,,,041,M,05.7,N,,*63
$IIVWR,045,L,10.9,N,,,,*76
$IIDPT,044.4,-1.0,*44
$IIGLL,4629.450,N,00641.157,E,173236,A,A*5A
$IIHDG,041,,,,*52
$IIMTW,+24.0,C*3E
$IIMWV,315,R,10.9,N,A*1C
$IIMWV,284,T,07.9,N,A*15
$IIRMB,A,0.18,R,,VIDY,,,,,003.42,291,-02.8,V,A*54
$IIRMC,173238,A,4629.452,N,00641.160,E,05.8,051,250608,,,A*4B
$IIVHW,,,042,M,05.7,N,,*60
$IIVWR,045,L,10.7,N,,,,*78
$IIDPT,044.4,-1.0,*44
$IIGLL,4629.452,N,00641.160,E,173238,A,A*52
$IIHDG,043,,,,*50
$IIMTW,+24.0,C*3E
$IIMWV,316,R,11.0,N,A*17
$IIMWV,283,T,07.6,N,A*1D
$IIRMC,173238,A,4629.452,N,00641.160,E,05.8,051,250608,,,A*4B
$IIVHW,,,043,M,05.7,N,,*61
$IIVWR,044,L,11.0,N,,,,*7F
$IIDPT,044.4,-1.0,*44
$IIGLL,4629.455,N,00641.164,E,173240,A,A*5E
$IIHDG,043,,,,*50
$IIMTW,+24.0,C*3E
$IIMWV,316,R,11.2,N,A*15
$IIMWV,286,T,07.7,N,A*19
$IIRMB,A,0.17,R,,VIDY,,,,,003.42,291,-02.9,V,A*5A
$IIRMC,173240,A,4629.455,N,00641.164,E,06.0,049,250608,,,A*45
$IIVHW,,,043,M,05.8,N,,*6E
$IIVWR,043,L,11.3,N,,,,*7B
$IIDPT,044.4,-1.0,*44
$IIGLL,4629.455,N,00641.164,E,173240,A,A*5E
$IIHDG,042,,,,*51
$IIMTW,+24.0,C*3E
$IIMWV,317,R,11.3,N,A*15
$IIMWV,286,T,08.0,N,A*11
$IIRMC,173240,A,4629.455,N,00641.164,E,06.0,049,250608,,,A*45
$IIVHW,,,041,M,05.8,N,,*6C
$IIVWR,043,L,11.8,N,,,,*70
$IIDPT,032.7,-1.0,*46
$IIGLL,4629.457,N,00641.168,E,173242,A,A*52
$IIHDG,041,,,,*52
$IIMTW,+24.0,C*3E
$IIMWV,317,R,11.8,N,A*1E
$IIMWV,287,T,07.9,N,A*16
$IIRMB,A,0.17,R,,VIDY,,,,,003.42,291,-02.7,V,A*54
$IIRMC,173242,A,4629.457,N,00641.168,E,06.4,045,250608,,,A*41
$IIVHW,,,040,M,05.8,N,,*6D
$IIVWR,043,L,11.7,N,,,,*7F
$IIDPT,040.7,-1.0,*43
$IIGLL,4629.457,N,00641.168,E,173242,A,A*52
$IIHDG,040,,,,*53
$IIMTW,+24.0,C*3E
$IIMWV,317,R,11.7,N,A*11
$IIMWV,289,T,08.3,N,A*1D
$IIRMB,A,0.17,R,,VIDY,,,,,003.42,291,-02.4,V,A*57
$IIRMC,173244,A,4629.459,N,00641.171,E,05.9,046,250608,,,A*4C
$IIVHW,,,040,M,05.8,N,,*6D
$IIVWR,042,L,11.5,N,,,,*7C
$IIDPT,040.7,-1.0,*43
$IIGLL,4629.459,N,00641.171,E,173244,A,A*52
$IIHDG,040,,,,*53
$IIMTW,+24.0,C*3E
$IIMWV,317,R,11.4,N,A*12
$IIMWV,290,T,08.1,N,A*17
$IIRMC,173244,A,4629.459,N,00641.171,E,05.9,046,250608,,,A*4C
$IIVHW,,,040,M,05.7,N,,*62
$IIVWR,043,L,11.4,N,,,,*7C
$IIDPT,050.6,-1.0,*43
$IIGLL,4629.462,N,00641.174,E,173246,A,A*5D
$IIHDG,040,,,,*53
$IIMTW,+24.0,C*3E
$IIMWV,319,R,11.0,N,A*18
$IIMWV,288,T,08.0,N,A*1F
$IIRMB,A,0.16,R,,VIDY,,,,,003.42,291,-02.5,V,A*57
$IIRMC,173246,A,4629.462,N,00641.174,E,05.8,047,250608,,,A*43
$IIVHW,,,040,M,05.7,N,,*62
$IIVWR,041,L,10.7,N,,,,*7C
$IIDPT,050.6,-1.0,*43
$IIGLL,4629.462,N,00641.174,E,173246,A,A*5D
$IIHDG,040,,,,*53
$IIMTW,+24.0,C*3E
$IIMWV,319,R,10.7,N,A*1E
$IIMWV,288,T,07.5,N,A*15
$IIRMC,173246,A,4629.462,N,00641.174,E,05.8,047,250608,,,A*43
$IIVHW,,,040,M,05.7,N,,*62
$IIVWR,042,L,10.5,N,,,,*7D
$IIDPT,036.3,-1.0,*46
$IIGLL,4629.464,N,00641.178,E,173248,A,A*59
$IIHDG,040,,,,*53
$IIMTW,+24.0,C*3E
$IIMWV,318,R,10.5,N,A*1D
$IIMWV,287,T,07.3,N,A*1C
$IIRMB,A,0.16,R,,VIDY,,,,,003.42,291,-02.6,V,A*54
$IIRMC,173248,A,4629.464,N,00641.178,E,05.9,046,250608,,,A*47
$IIVHW,,,040,M,05.7,N,,*62
$IIVWR,040,L,10.4,N,,,,*7E
$IIDPT,026.6,-1.0,*42
$IIGLL,4629.464,N,00641.178,E,173248,A,A*59
$IIHDG,040,,,,*53
$IIMTW,+24.0,C*3E
$IIMWV,320,R,10.4,N,A*17
$IIMWV,288,T,06.9,N,A*18
$IIRMB,A,0.16,R,,VIDY,,,,,003.42,291,-02.6,V,A*54
$IIRMC,173250,A,4629.466,N,00641.181,E,05.9,047,250608,,,A*4B
$IIVHW,,,041,M,05.7,N,,*63
$IIVWR,040,L,10.3,N,,,,*79
$IIDPT,036.1,-1.0,*44
$IIGLL,4629.466,N,00641.181,E,173250,A,A*54
$IIHDG,042,,,,*51
$IIMTW,+24.0,C*3E
$IIMWV,321,R,10.0,N,A*12
$IIMWV,288,T,06.8,N,A*19
$IIRMC,173250,A,4629.466,N,00641.181,E,05.9,047,250608,,,A*4B
$IIVHW,,,042,M,05.7,N,,*60
$IIVWR,039,L,10.0,N,,,,*74
$IIDPT,036.1,-1.0,*44
$IIGLL,4629.469,N,00641.185,E,173252,A,A*5D
$IIHDG,044,,,,*57
$IIMTW,+24.0,C*3E
$IIMWV,323,R,10.2,N,A*12
$IIMWV,288,T,06.6,N,A*17
$IIRMB,A,0.15,R,,VIDY,,,,,003.43,290,-02.8,V,A*59
$IIRMC,173252,A,4629.469,N,00641.185,E,05.6,052,250608,,,A*49
$IIVHW,,,044,M,05.6,N,,*67
$IIVWR,037,L,09.9,N,,,,*7B
$IIDPT,046.8,-1.0,*4A
$IIGLL,4629.469,N,00641.185,E,173252,A,A*5D
$IIHDG,046,,,,*55
$IIMTW,+24.0,C*3E
$IIMWV,323,R,09.9,N,A*11
$IIMWV,291,T,06.5,N,A*1C
$IIRMC,173252,A,4629.469,N,00641.185,E,05.6,052,250608,,,A*49
$IIVHW,,,045,M,05.5,N,,*65
$IIVWR,035,L,09.7,N,,,,*77
$IIDPT,048.5,-1.0,*49
$IIGLL,4629.470,N,00641.188,E,173254,A,A*5E
$IIHDG,045,,,,*56
$IIMTW,+24.0,C*3E
$IIMWV,325,R,09.7,N,A*19
$IIMWV,291,T,06.3,N,A*1A
$IIRMB,A,0.15,R,,VIDY,,,,,003.43,290,-02.9,V,A*58
$IIRMC,173254,A,4629.470,N,00641.188,E,05.5,051,250608,,,A*4A
$IIVHW,,,044,M,05.5,N,,*64
$IIVWR,038,L,09.6,N,,,,*7B
$IIDPT,055.3,-1.0,*43
$IIGLL,4629.470,N,00641.188,E,173254,A,A*5E
$IIHDG,044,,,,*57
$IIMTW,+24.0,C*3E
$IIMWV,322,R,09.6,N,A*1F
$IIMWV,288,T,06.1,N,A*10
$IIRMB,A,0.15,R,,VIDY,,,,,003.43,290,-02.7,V,A*56
$IIRMC,173256,A,4629.473,N,00641.192,E,05.6,048,250608,,,A*4B
$IIVHW,,,043,M,05.5,N,,*63
$IIVWR,040,L,09.5,N,,,,*77
$IIDPT,051.6,-1.0,*42
$IIGLL,4629.473,N,00641.192,E,173256,A,A*54
$IIHDG,044,,,,*57
$IIMTW,+24.0,C*3E
$IIMWV,319,R,09.5,N,A*14
$IIMWV,286,T,06.2,N,A*1D
$IIRMC,173256,A,4629.473,N,00641.192,E,05.6,048,250608,,,A*4B
$IIVHW,,,044,M,05.5,N,,*64
$IIVWR,041,L,09.5,N,,,,*76
$IIDPT,040.5,-1.0,*41
$IIGLL,4629.475,N,00641.195,E,173258,A,A*5B
$IIHDG,043,,,,*50
$IIMTW,+24.0,C*3E
$IIMWV,319,R,09.8,N,A*19
$IIMWV,284,T,06.3,N,A*1E
$IIRMB,A,0.15,R,,VIDY,,,,,003.43,290,-02.8,V,A*59
$IIRMC,173258,A,4629.475,N,00641.195,E,05.4,051,250608,,,A*4E
$IIVHW,,,043,M,05.5,N,,*63
$IIVWR,042,L,09.8,N,,,,*78
$IIDPT,051.4,-1.0,*40
$IIGLL,4629.475,N,00641.195,E,173258,A,A*5B
$IIHDG,044,,,,*57
$IIMTW,+24.0,C*3E
$IIMWV,318,R,09.8,N,A*18
$IIMWV,285,T,06.6,N,A*1A
$IIRMC,173258,A,4629.475,N,00641.195,E,05.4,051,250608,,,A*4E
$IIVHW,,,045,M,05.5,N,,*65
$IIVWR,043,L,09.6,N,,,,*77
$IIDPT,051.4,-1.0,*40
$IIGLL,4629.477,N,00641.199,E,173300,A,A*59
$IIHDG,045,,,,*56
$IIMTW,+24.0,C*3E
$IIMWV,317,R,09.6,N,A*19
$IIMWV,285,T,06.7,N,A*1B
$IIRMB,A,0.14,R,,VIDY,,,,,003.43,290,-02.8,V,A*58
$IIRMC,173300,A,4629.477,N,00641.199,E,05.5,051,250608,,,A*4D
$IIVHW,,,045,M,05.5,N,,*65
$IIVWR,042,L,09.9,N,,,,*79
$IIDPT,036.3,-1.0,*46
$IIGLL,4629.477,N,00641.199,E,173300,A,A*59
$IIHDG,045,,,,*56
$IIMTW,+24.0,C*3E
$IIMWV,318,R,09.9,N,A*19
$IIMWV,285,T,06.8,N,A*14
$IIRMB,A,0.14,R,,VIDY,,,,,003.43,290,-02.8,V,A*58
$IIRMC,173302,A,4629.479,N,00641.202,E,05.5,051,250608,,,A*40
$IIVHW,,,044,M,05.5,N,,*64
$IIVWR,042,L,10.1,N,,,,*79
$IIDPT,036.3,-1.0,*46
$IIGLL,4629.479,N,00641.202,E,173302,A,A*54
$IIHDG,044,,,,*57
$IIMTW,+24.0,C*3E
$IIMWV,316,R,09.8,N,A*16
$IIMWV,286,T,06.9,N,A*16
$IIRMC,173302,A,4629.479,N,00641.202,E,05.5,051,250608,,,A*40
$IIVHW,,,044,M,05.5,N,,*64
$IIVWR,044,L,09.8,N,,,,*7E
$IIDPT,043.7,-1.0,*40
$IIGLL,4629.481,N,00641.206,E,173304,A,A*51
$IIHDG,045,,,,*56
$IIMTW,+24.0,C*3E
$IIMWV,313,R,10.0,N,A*13
$IIMWV,282,T,06.8,N,A*13
$IIRMB,A,0.14,R,,VIDY,,,,,003.43,290,-02.8,V,A*58
$IIRMC,173304,A,4629.481,N,00641.206,E,05.4,052,250608,,,A*47
$IIVHW,,,045,M,05.5,N,,*65
$IIVWR,051,L,09.9,N,,,,*7B
$IIDPT,036.3,-1.0,*46
$IIGLL,4629.481,N,00641.206,E,173304,A,A*51
$IIHDG,046,,,,*55
$IIMTW,+24.0,C*3E
$IIMWV,309,R,09.9,N,A*19
$IIMWV,280,T,07.4,N,A*1C
$IIRMC,173304,A,4629.481,N,00641.206,E,05.4,052,250608,,,A*47
$IIVHW,,,047,M,05.5,N,,*67
$IIVWR,052,L,10.1,N,,,,*78
$IIDPT,043.3,-1.0,*44
$IIGLL,4629.482,N,00641.209,E,173306,A,A*5F
$IIHDG,047,,,,*54
$IIMTW,+24.0,C*3E
$IIMWV,308,R,10.1,N,A*18
$IIMWV,275,T,07.7,N,A*15
$IIRMB,A,0.14,R,,VIDY,,,,,003.44,290,-03.2,V,A*54
$IIRMC,173306,A,4629.482,N,00641.209,E,05.4,057,250608,,,A*4C
$IIVHW,,,047,M,05.5,N,,*67
$IIVWR,053,L,10.5,N,,,,*7D
$IIDPT,052.8,-1.0,*4F
$IIGLL,4629.482,N,00641.209,E,173306,A,A*5F
$IIHDG,047,,,,*54
$IIMTW,+24.0,C*3E
$IIMWV,307,R,10.5,N,A*13
$IIMWV,275,T,08.4,N,A*19
$IIRMB,A,0.13,R,,VIDY,,,,,003.44,290,-03.0,V,A*51
$IIRMC,173308,A,4629.484,N,00641.213,E,05.6,052,250608,,,A*48
$IIVHW,,,047,M,05.5,N,,*67
$IIVWR,052,L,10.9,N,,,,*70
$IIDPT,054.0,-1.0,*41
$IIGLL,4629.484,N,00641.213,E,173308,A,A*5C
$IIHDG,046,,,,*55
$IIMTW,+24.0,C*3E
$IIMWV,306,R,10.7,N,A*10
$IIMWV,278,T,08.6,N,A*16
$IIRMC,173308,A,4629.484,N,00641.213,E,05.6,052,250608,,,A*48
$IIVHW,,,046,M,05.5,N,,*66
$IIVWR,054,L,10.7,N,,,,*78
$IIDPT,054.0,-1.0,*41
$IIGLL,4629.487,N,00641.216,E,173310,A,A*53
$IIHDG,046,,,,*55
$IIMTW,+24.0,C*3E
$IIMWV,306,R,10.5,N,A*12
$IIMWV,275,T,08.6,N,A*1B
$IIRMB,A,0.13,R,,VIDY,,,,,003.44,290,-02.9,V,A*59
$IIRMC,173310,A,4629.487,N,00641.216,E,05.8,054,250608,,,A*4F
$IIVHW,,,046,M,05.5,N,,*66
$IIVWR,054,L,10.4,N,,,,*7B
$IIDPT,042.9,-1.0,*4F
$IIGLL,4629.488,N,00641.220,E,173312,A,A*5B
$IIHDG,048,,,,*5B
$IIMTW,+24.0,C*3E
$IIMWV,306,R,10.4,N,A*13
$IIMWV,274,T,08.4,N,A*18
$IIRMB,A,0.13,R,,VIDY,,,,,003.44,290,-03.4,V,A*55
$IIRMC,173312,A,4629.488,N,00641.220,E,05.8,057,250608,,,A*44
$IIVHW,,,050,M,05.6,N,,*62
$IIVWR,055,L,10.3,N,,,,*7D
$IIDPT,042.9,-1.0,*4F
$IIGLL,4629.488,N,00641.220,E,173312,A,A*5B
$IIHDG,050,,,,*52
$IIMTW,+24.0,C*3E
$IIMWV,305,R,10.3,N,A*17
$IIMWV,271,T,08.4,N,A*1D
$IIRMB,A,0.13,R,,VIDY,,,,,003.44,290,-03.5,V,A*54
$IIRMC,173314,A,4629.490,N,00641.224,E,05.8,058,250608,,,A*40
$IIVHW,,,050,M,05.6,N,,*62
$IIVWR,056,L,10.4,N,,,,*79
$IIDPT,037.1,-1.0,*45
$IIGLL,4629.490,N,00641.224,E,173314,A,A*50
$IIHDG,052,,,,*50
$IIMTW,+24.0,C*3E
$IIMWV,302,R,10.8,N,A*1B
$IIMWV,271,T,08.6,N,A*1F
$IIRMC,173314,A,4629.490,N,00641.224,E,05.8,058,250608,,,A*40
$IIVHW,,,052,M,05.6,N,,*60
$IIVWR,058,L,10.8,N,,,,*7B
$IIDPT,031.7,-1.0,*45
$IIGLL,4629.492,N,00641.228,E,173316,A,A*5C
$IIHDG,052,,,,*50
$IIMTW,+24.0,C*3E
$IIMWV,302,R,11.1,N,A*13
$IIMWV,270,T,09.1,N,A*18
$IIRMB,A,0.12,R,,VIDY,,,,,003.44,290,-03.6,V,A*56
$IIRMC,173316,A,4629.492,N,00641.228,E,05.9,057,250608,,,A*42
$IIVHW,,,052,M,05.6,N,,*60
$IIVWR,058,L,10.9,N,,,,*7A
$IIDPT,022.4,-1.0,*44
$IIGLL,4629.492,N,00641.228,E,173316,A,A*5C
$IIHDG,052,,,,*50
$IIMTW,+24.0,C*3E
$IIMWV,302,R,10.9,N,A*1A
$IIMWV,270,T,09.4,N,A*1D
$IIRMC,173316,A,4629.492,N,00641.228,E,05.9,057,250608,,,A*42
$IIVHW,,,052,M,05.7,N,,*61
$IIVWR,058,L,11.0,N,,,,*72
$IIDPT,022.4,-1.0,*44
$IIGLL,4629.494,N,00641.232,E,173318,A,A*5F
$IIHDG,052,,,,*50
$IIMTW,+24.0,C*3E
$IIMWV,302,R,11.0,N,A*12
$IIMWV,270,T,09.2,N,A*1B
$IIRMB,A,0.12,R,,VIDY,,,,,003.45,290,-03.5,V,A*54
$IIRMC,173318,A,4629.494,N,00641.232,E,05.8,058,250608,,,A*4F
$IIVHW,,,052,M,05.7,N,,*61
$IIVWR,057,L,10.8,N,,,,*74
$IIDPT,022.4,-1.0,*44
$IIGLL,4629.494,N,00641.232,E,173318,A,A*5F
$IIHDG,052,,,,*50
$IIMTW,+24.0,C*3E
$IIMWV,303,R,10.8,N,A*1A
$IIMWV,270,T,09.0,N,A*19
$IIRMB,A,0.12,R,,VIDY,,,,,003.45,290,-03.6,V,A*57
$IIRMC,173320,A,4629.496,N,00641.237,E,06.0,059,250608,,,A*49
$IIVHW,,,052,M,05.7,N,,*61
$IIVWR,057,L,10.6,N,,,,*7A
$IIDPT,022.4,-1.0,*44
$IIGLL,4629.496,N,00641.237,E,173320,A,A*53
$IIHDG,054,,,,*56
$IIMTW,+24.0,C*3E
$IIMWV,302,R,10.8,N,A*1B
$IIMWV,270,T,08.9,N,A*11
$IIRMC,173320,A,4629.496,N,00641.237,E,06.0,059,250608,,,A*49
$IIVHW,,,054,M,05.7,N,,*67
$IIVWR,058,L,10.8,N,,,,*7B
$IIDPT,053.4,-1.0,*42
$IIGLL,4629.498,N,00641.241,E,173322,A,A*5E
$IIHDG,054,,,,*56
$IIMTW,+24.0,C*3E
$IIMWV,304,R,10.7,N,A*12
$IIMWV,270,T,09.1,N,A*18
$IIRMB,A,0.11,R,,VIDY,,,,,003.45,290,-03.7,V,A*55
$IIRMC,173322,A,4629.498,N,00641.241,E,05.9,059,250608,,,A*4E
$IIVHW,,,054,M,05.7,N,,*67
$IIVWR,054,L,10.6,N,,,,*79
$IIDPT,053.4,-1.0,*42
$IIGLL,4629.498,N,00641.241,E,173322,A,A*5E
$IIHDG,052,,,,*50
$IIMTW,+24.0,C*3E
$IIMWV,306,R,10.6,N,A*11
$IIMWV,271,T,08.8,N,A*11
$IIRMC,173322,A,4629.498,N,00641.241,E,05.9,059,250608,,,A*4E
$IIVHW,,,052,M,05.6,N,,*60
$IIVWR,052,L,10.1,N,,,,*78
$IIDPT,052.8,-1.0,*4F
$IIGLL,4629.499,N,00641.245,E,173324,A,A*5D
$IIHDG,052,,,,*50
$IIMTW,+24.0,C*3E
$IIMWV,308,R,10.1,N,A*18
$IIMWV,273,T,08.5,N,A*1E
$IIRMB,A,0.11,R,,VIDY,,,,,003.45,290,-03.6,V,A*54
$IIRMC,173324,A,4629.499,N,00641.245,E,05.8,055,250608,,,A*40
$IIVHW,,,049,M,05.6,N,,*6A
$IIVWR,050,L,10.7,N,,,,*7C
$IIDPT,044.9,-1.0,*49
$IIGLL,4629.499,N,00641.245,E,173324,A,A*5D
$IIHDG,049,,,,*5A
$IIMTW,+24.0,C*3E
$IIMWV,310,R,10.7,N,A*17
$IIMWV,278,T,08.2,N,A*12
$IIRMB,A,0.11,R,,VIDY,,,,,003.45,290,-03.0,V,A*52
$IIRMC,173326,A,4629.502,N,00641.248,E,05.6,046,250608,,,A*40
$IIVHW,,,046,M,05.6,N,,*65
$IIVWR,050,L,11.1,N,,,,*7B
$IIDPT,044.9,-1.0,*49
$IIGLL,4629.502,N,00641.248,E,173326,A,A*51
$IIHDG,040,,,,*53
$IIMTW,+24.0,C*3E
$IIMWV,312,R,10.8,N,A*1A
$IIMWV,280,T,08.6,N,A*11
$IIRMC,173326,A,4629.502,N,00641.248,E,05.6,046,250608,,,A*40
$IIVHW,,,040,M,05.6,N,,*63
$IIVWR,048,L,10.8,N,,,,*7A
$IIDPT,022.4,-1.0,*44
$IIGLL,4629.504,N,00641.251,E,173328,A,A*51
$IIHDG,037,,,,*53
$IIMTW,+24.0,C*3E
$IIMWV,314,R,10.5,N,A*11
$IIMWV,282,T,08.0,N,A*15
$IIRMB,A,0.11,R,,VIDY,,,,,003.46,290,-02.0,V,A*50
$IIRMC,173328,A,4629.504,N,00641.251,E,05.6,040,250608,,,A*46
$IIVHW,,,037,M,05.6,N,,*63
$IIVWR,044,L,11.0,N,,,,*7F
$IIDPT,022.4,-1.0,*44
$IIGLL,4629.504,N,00641.251,E,173328,A,A*51
$IIHDG,033,,,,*57
$IIMTW,+24.0,C*3E
$IIMWV,316,R,11.0,N,A*17
$IIMWV,282,T,07.6,N,A*1C
$IIRMC,173328,A,4629.504,N,00641.251,E,05.6,040,250608,,,A*46
$IIVHW,,,033,M,05.6,N,,*67
$IIVWR,041,L,10.7,N,,,,*7C
$IIDPT,040.3,-1.0,*47
$IIGLL,4629.506,N,00641.254,E,173330,A,A*5F
$IIHDG,033,,,,*57
$IIMTW,+24.0,C*3E
$IIMWV,319,R,10.7,N,A*1E
$IIMWV,287,T,07.8,N,A*17
$IIRMB,A,0.10,R,,VIDY,,,,,003.46,290,-01.6,V,A*54
$IIRMC,173330,A,4629.506,N,00641.254,E,05.5,038,250608,,,A*44
$IIVHW,,,032,M,05.5,N,,*65
$IIVWR,046,L,10.6,N,,,,*7A
$IIDPT,038.6,-1.0,*4D
$IIGLL,4629.506,N,00641.254,E,173330,A,A*5F
$IIHDG,032,,,,*56
$IIMTW,+24.0,C*3E
$IIMWV,314,R,10.6,N,A*12
$IIMWV,284,T,08.1,N,A*12
$IIRMB,A,0.10,R,,VIDY,,,,,003.46,290,-01.8,V,A*5A
$IIRMC,173332,A,4629.509,N,00641.257,E,05.6,038,250608,,,A*49
$IIVHW,,,030,M,05.5,N,,*67
$IIVWR,045,L,10.7,N,,,,*78
$IIDPT,050.9,-1.0,*4C
$IIGLL,4629.509,N,00641.257,E,173332,A,A*51
$IIHDG,029,,,,*5C
$IIMTW,+24.0,C*3E
$IIMWV,317,R,10.5,N,A*12
$IIMWV,284,T,07.7,N,A*1B
$IIRMB,A,0.10,R,,VIDY,,,,,003.46,290,-01.4,V,A*56
$IIRMC,173334,A,4629.511,N,00641.259,E,05.6,034,250608,,,A*44
$IIVHW,,,029,M,05.5,N,,*6F
$IIVWR,043,L,10.5,N,,,,*7C
$IIDPT,041.9,-1.0,*4C
$IIGLL,4629.511,N,00641.259,E,173334,A,A*50
$IIHDG,028,,,,*5D
$IIMTW,+24.0,C*3E
$IIMWV,318,R,10.9,N,A*11
$IIMWV,286,T,07.3,N,A*1D
$IIRMC,173334,A,4629.511,N,00641.259,E,05.6,034,250608,,,A*44
$IIVHW,,,028,M,05.6,N,,*6D
$IIVWR,043,L,10.7,N,,,,*7E
$IIDPT,041.9,-1.0,*4C
$IIGLL,4629.514,N,00641.262,E,173336,A,A*5F
$IIHDG,025,,,,*50
$IIMTW,+24.0,C*3E
$IIMWV,317,R,10.7,N,A*10
$IIMWV,288,T,07.6,N,A*16
$IIRMB,A,0.09,R,,VIDY,,,,,003.46,289,-01.3,V,A*51
$IIRMC,173336,A,4629.514,N,00641.262,E,05.6,033,250608,,,A*4C
$IIVHW,,,024,M,05.6,N,,*61
$IIVWR,044,L,10.5,N,,,,*7B
$IIDPT,041.9,-1.0,*4C
$IIGLL,4629.514,N,00641.262,E,173336,A,A*5F
$IIHDG,024,,,,*51
$IIMTW,+24.0,C*3E
$IIMWV,316,R,10.5,N,A*13
$IIMWV,285,T,07.4,N,A*19
$IIRMB,A,0.09,R,,VIDY,,,,,003.46,289,-01.0,V,A*52
$IIRMC,173338,A,4629.517,N,00641.264,E,05.7,031,250608,,,A*44
$IIVHW,,,023,M,05.6,N,,*66
$IIVWR,045,L,10.9,N,,,,*76
$IIDPT,041.9,-1.0,*4C
$IIGLL,4629.517,N,00641.264,E,173338,A,A*54
$IIHDG,023,,,,*56
$IIMTW,+24.0,C*3E
$IIMWV,318,R,11.2,N,A*1B
$IIMWV,285,T,07.9,N,A*14
$IIRMC,173338,A,4629.517,N,00641.264,E,05.7,031,250608,,,A*44
$IIVHW,,,023,M,05.6,N,,*66
$IIVWR,042,L,11.2,N,,,,*7B
$IIDPT,041.9,-1.0,*4C
$IIGLL,4629.520,N,00641.266,E,173340,A,A*5D
$IIHDG,024,,,,*51
$IIMTW,+24.0,C*3E
$IIMWV,321,R,10.2,N,A*10
$IIMWV,289,T,07.9,N,A*18
$IIRMB,A,0.09,R,,VIDY,,,,,003.46,289,-01.1,V,A*53
$IIRMC,173340,A,4629.520,N,00641.266,E,05.6,032,250608,,,A*4F
$IIVHW,,,024,M,05.6,N,,*61
$IIVWR,039,L,10.8,N,,,,*7C
$IIDPT,051.0,-1.0,*44
$IIGLL,4629.520,N,00641.266,E,173340,A,A*5D
$IIHDG,025,,,,*50
$IIMTW,+24.0,C*3E
$IIMWV,321,R,10.8,N,A*1A
$IIMWV,290,T,06.8,N,A*10
$IIRMC,173340,A,4629.520,N,00641.266,E,05.6,032,250608,,,A*4F
$IIVHW,,,024,M,05.6,N,,*61
$IIVWR,037,L,11.2,N,,,,*79
$IIDPT,051.0,-1.0,*44
$IIGLL,4629.522,N,00641.269,E,173342,A,A*52
$IIHDG,024,,,,*51
$IIMTW,+24.0,C*3E
$IIMWV,323,R,11.2,N,A*13
$IIMWV,292,T,07.3,N,A*18
$IIRMB,A,0.08,R,,VIDY,,,,,003.46,289,-01.2,V,A*51
$IIRMC,173342,A,4629.522,N,00641.269,E,05.8,031,250608,,,A*4D
$IIVHW,,,022,M,05.6,N,,*67
$IIVWR,036,L,11.3,N,,,,*79
$IIDPT,051.0,-1.0,*44
$IIGLL,4629.522,N,00641.269,E,173342,A,A*52
$IIHDG,022,,,,*57
$IIMTW,+24.0,C*3E
$IIMWV,324,R,11.3,N,A*15
$IIMWV,298,T,07.4,N,A*15
$IIRMB,A,0.08,R,,VIDY,,,,,003.46,289,-01.0,V,A*53
$IIRMC,173344,A,4629.525,N,00641.271,E,05.7,030,250608,,,A*4B
$IIVHW,,,022,M,05.6,N,,*67
$IIVWR,036,L,10.9,N,,,,*72
$IIDPT,047.4,-1.0,*47
$IIGLL,4629.525,N,00641.271,E,173344,A,A*5A
$IIHDG,023,,,,*56
$IIMTW,+24.0,C*3E
$IIMWV,323,R,10.4,N,A*14
$IIMWV,297,T,07.1,N,A*1F
$IIRMC,173344,A,4629.525,N,00641.271,E,05.7,030,250608,,,A*4B
$IIVHW,,,023,M,05.6,N,,*66
$IIVWR,037,L,10.4,N,,,,*7E
$IIDPT,047.4,-1.0,*47
$IIGLL,4629.528,N,00641.273,E,173346,A,A*57
$IIHDG,023,,,,*56
$IIMTW,+24.0,C*3E
$IIMWV,320,R,10.8,N,A*1B
$IIMWV,293,T,06.7,N,A*1C
$IIRMB,A,0.08,R,,VIDY,,,,,003.46,289,-01.0,V,A*53
$IIRMC,173346,A,4629.528,N,00641.273,E,05.7,030,250608,,,A*46
$IIVHW,,,023,M,05.5,N,,*65
$IIVWR,039,L,10.6,N,,,,*72
$IIDPT,032.7,-1.0,*46
$IIGLL,4629.528,N,00641.273,E,173346,A,A*57
$IIHDG,023,,,,*56
$IIMTW,+24.0,C*3E
$IIMWV,321,R,10.6,N,A*14
$IIMWV,291,T,07.4,N,A*1C
$IIRMC,173346,A,4629.528,N,00641.273,E,05.7,030,250608,,,A*46
$IIVHW,,,023,M,05.6,N,,*66
$IIVWR,041,L,10.9,N,,,,*72
$IIDPT,040.9,-1.0,*4D
$IIGLL,4629.528,N,00641.273,E,173346,A,A*57
$IIHDG,023,,,,*56
$IIMTW,+24.0,C*3E
$IIMWV,319,R,10.9,N,A*10
$IIMWV,291,T,07.0,N,A*18
$IIRMB,A,0.08,R,,VIDY,,,,,003.46,289,-01.1,V,A*52
$IIRMC,173348,A,4629.531,N,00641.276,E,05.7,030,250608,,,A*45
$IIVHW,,,022,M,05.6,N,,*67
$IIVWR,039,L,11.6,N,,,,*73
$IIDPT,040.9,-1.0,*4D
$IIGLL,4629.531,N,00641.276,E,173348,A,A*54
$IIHDG,022,,,,*57
$IIMTW,+24.0,C*3E
$IIMWV,321,R,11.6,N,A*15
$IIMWV,295,T,08.0,N,A*13
$IIRMB,A,0.07,R,,VIDY,,,,,003.46,289,-01.1,V,A*5D
$IIRMC,173350,A,4629.534,N,00641.278,E,05.7,030,250608,,,A*47
$IIVHW,,,021,M,05.6,N,,*64
$IIVWR,038,L,12.0,N,,,,*77
$IIDPT,032.0,-1.0,*41
$IIGLL,4629.534,N,00641.278,E,173350,A,A*56
$IIHDG,020,,,,*55
$IIMTW,+24.0,C*3E
$IIMWV,323,R,11.5,N,A*14
$IIMWV,297,T,08.3,N,A*12
$IIRMC,173350,A,4629.534,N,00641.278,E,05.7,030,250608,,,A*47
$IIVHW,,,020,M,05.5,N,,*66
$IIVWR,037,L,11.5,N,,,,*7E
$IIDPT,032.0,-1.0,*41
$IIGLL,4629.537,N,00641.280,E,173352,A,A*50
$IIHDG,021,,,,*54
$IIMTW,+24.0,C*3E
$IIMWV,322,R,11.2,N,A*12
$IIMWV,297,T,07.7,N,A*19
$IIRMB,A,0.07,R,,VIDY,,,,,003.46,289,-01.0,V,A*5C
$IIRMC,173352,A,4629.537,N,00641.280,E,05.6,029,250608,,,A*48
$IIVHW,,,021,M,05.5,N,,*67
$IIVWR,039,L,11.0,N,,,,*75
$IIDPT,032.0,-1.0,*41
$IIGLL,4629.537,N,00641.280,E,173352,A,A*50
$IIHDG,021,,,,*54
$IIMTW,+24.0,C*3E
$IIMWV,321,R,11.0,N,A*13
$IIMWV,295,T,07.6,N,A*1A
$IIRMC,173352,A,4629.537,N,00641.280,E,05.6,029,250608,,,A*48
$IIVHW,,,021,M,05.6,N,,*64
$IIVWR,038,L,11.8,N,,,,*7C
$IIDPT,032.0,-1.0,*41
$IIGLL,4629.539,N,00641.282,E,173354,A,A*5A
$IIHDG,021,,,,*54
$IIMTW,+24.0,C*3E
$IIMWV,322,R,11.8,N,A*18
$IIMWV,293,T,07.4,N,A*1E
$IIRMB,A,0.07,R,,VIDY,,,,,003.46,289,-00.9,V,A*54
$IIRMC,173354,A,4629.539,N,00641.282,E,05.6,027,250608,,,A*4C
$IIVHW,,,021,M,05.6,N,,*64
$IIVWR,042,L,12.1,N,,,,*7B
$IIDPT,032.0,-1.0,*41
$IIGLL,4629.539,N,00641.282,E,173354,A,A*5A
$IIHDG,021,,,,*54
$IIMTW,+24.0,C*3E
$IIMWV,318,R,12.1,N,A*1B
$IIMWV,291,T,08.7,N,A*10
$IIRMB,A,0.06,R,,VIDY,,,,,003.46,289,-00.8,V,A*54
$IIRMC,173356,A,4629.542,N,00641.284,E,05.8,029,250608,,,A*44
$IIVHW,,,021,M,05.6,N,,*64
$IIVWR,042,L,12.2,N,,,,*78
$IIDPT,039.8,-1.0,*42
$IIGLL,4629.542,N,00641.284,E,173356,A,A*52
$IIHDG,022,,,,*57
$IIMTW,+24.0,C*3E
$IIMWV,315,R,11.3,N,A*17
$IIMWV,292,T,08.7,N,A*13
$IIRMC,173356,A,4629.542,N,00641.284,E,05.8,029,250608,,,A*44
$IIVHW,,,022,M,05.6,N,,*67
$IIVWR,045,L,11.3,N,,,,*7D
$IIDPT,047.2,-1.0,*41
$IIGLL,4629.545,N,00641.287,E,173358,A,A*58
$IIHDG,023,,,,*56
$IIMTW,+24.0,C*3E
$IIMWV,316,R,11.9,N,A*1E
$IIMWV,286,T,08.3,N,A*12
$IIRMB,A,0.06,R,,VIDY,,,,,003.46,289,-01.1,V,A*5C
$IIRMC,173358,A,4629.545,N,00641.287,E,05.8,030,250608,,,A*46
$IIVHW,,,023,M,05.6,N,,*66
$IIVWR,040,L,12.1,N,,,,*79
$IIDPT,052.8,-1.0,*4F
$IIGLL,4629.545,N,00641.287,E,173358,A,A*58
$IIHDG,022,,,,*57
$IIMTW,+24.0,C*3E
$IIMWV,320,R,12.1,N,A*10
$IIMWV,290,T,08.6,N,A*10
$IIRMC,173358,A,4629.545,N,00641.287,E,05.8,030,250608,,,A*46
$IIVHW,,,022,M,05.6,N,,*67
$IIVWR,038,L,12.2,N,,,,*75
$IIDPT,047.4,-1.0,*47
$IIGLL,4629.548,N,00641.289,E,173400,A,A*51
$IIHDG,022,,,,*57
$IIMTW,+24.0,C*3E
$IIMWV,322,R,12.2,N,A*11
$IIMWV,295,T,08.5,N,A*16
$IIRMB,A,0.06,R,,VIDY,,,,,003.47,289,-01.3,V,A*5F
$IIRMC,173400,A,4629.548,N,00641.289,E,05.8,027,250608,,,A*49
$IIVHW,,,022,M,05.7,N,,*66
$IIVWR,037,L,12.2,N,,,,*7A
$IIDPT,050.3,-1.0,*46
$IIGLL,4629.548,N,00641.289,E,173400,A,A*51
$IIHDG,022,,,,*57
$IIMTW,+24.0,C*3E
$IIMWV,323,R,12.2,N,A*10
$IIMWV,299,T,08.3,N,A*1C
$IIRMB,A,0.05,R,,VIDY,,,,,003.47,289,-01.0,V,A*5F
$IIRMC,173402,A,4629.551,N,00641.291,E,06.0,029,250608,,,A*4F
$IIVHW,,,021,M,05.7,N,,*65
$IIVWR,039,L,12.2,N,,,,*74
$IIDPT,051.9,-1.0,*4D
$IIGLL,4629.551,N,00641.291,E,173402,A,A*52
$IIHDG,023,,,,*56
$IIMTW,+24.0,C*3E
$IIMWV,322,R,11.4,N,A*14
$IIMWV,297,T,08.4,N,A*15
$IIRMC,173402,A,4629.551,N,00641.291,E,06.0,029,250608,,,A*4F
$IIVHW,,,023,M,05.7,N,,*67
$IIVWR,038,L,11.4,N,,,,*70
$IIDPT,055.5,-1.0,*45
$IIGLL,4629.554,N,00641.294,E,173404,A,A*54
$IIHDG,023,,,,*56
$IIMTW,+24.0,C*3E
$IIMWV,320,R,11.4,N,A*16
$IIMWV,295,T,07.6,N,A*1A
$IIRMB,A,0.05,R,,VIDY,,,,,003.47,289,-01.2,V,A*5D
$IIRMC,173404,A,4629.554,N,00641.294,E,06.0,030,250608,,,A*41
$IIVHW,,,023,M,05.7,N,,*67
$IIVWR,039,L,11.3,N,,,,*76
$IIDPT,046.7,-1.0,*45
$IIGLL,4629.554,N,00641.294,E,173404,A,A*54
