$GPRMB,A,1.00,R,003,004,4917.24,N,12309.57,W,001.3,052.5,000.5,V*3F
$GPRMB,A,2.00,R,003,004,4917.24,N,12309.57,W,001.3,052.5,000.5,V*3C
$GPRMB,A,3.00,R,003,004,4917.24,N,12309.57,W,001.3,052.5,000.5,V*3D
$GPRMB,A,4.00,R,003,004,4917.24,N,12309.57,W,001.3,052.5,000.5,V*3A
$GPRMB,A,5.00,R,003,004,4917.24,N,12309.57,W,001.3,052.5,000.5,V*3B
$GPRMB,A,6.00,R,003,004,4917.24,N,12309.57,W,001.3,052.5,000.5,V*38
$GPRMB,A,7.00,R,003,004,4917.24,N,12309.57,W,001.3,052.5,000.5,V*39
$GPRMB,A,8.00,R,003,004,4917.24,N,12309.57,W,001.3,052.5,000.5,V*36
$GPRMB,A,9.00,R,003,004,4917.24,N,12309.57,W,001.3,052.5,000.5,V*37
$GPRMB,A,0.00,R,003,004,4917.24,N,12309.57,W,001.3,052.5,000.5,V*3E
$GPRMB,A,1.00,R,003,004,4917.24,N,12309.57,W,001.3,052.5,000.5,V*3F
$GPRMB,A,2.00,R,003,004,4917.24,N,12309.57,W,001.3,052.5,000.5,V*3C
$GPRMB,A,3.00,R,003,004,4917.24,N,12309.57,W,001.3,052.5,000.5,V*3D
$GPRMB,A,4.00,R,003,004,4917.24,N,12309.57,W,001.3,052.5,000.5,V*3A
$GPRMB,A,5.00,R,003,004,4917.24,N,12309.57,W,001.3,052.5,000.5,V*3B
$GPRMB,A,6.00,R,003,004,4917.24,N,12309.57,W,001.3,052.5,000.5,V*38
$GPRMB,A,7.00,R,003,004,4917.24,N,12309.57,W,001.3,052.5,000.5,V*39
$GPRMB,A,8.00,R,003,004,4917.24,N,12309.57,W,001.3,052.5,000.5,V*36
$GPRMB,A,9.00,R,003,004,4917.24,N,12309.57,W,001.3,052.5,000.5,V*37
$GPRMB,A,0.00,R,003,004,4917.24,N,12309.57,W,001.3,052.5,000.5,V*3E
$GPRMB,A,1.00,R,003,004,4917.24,N,12309.57,W,001.3,052.5,000.5,V*3F
$GPRMB,A,2.00,R,003,004,4917.24,N,12309.57,W,001.3,052.5,000.5,V*3C
$GPRMB,A,3.00,R,003,004,4917.24,N,12309.57,W,001.3,052.5,000.5,V*3D
$GPRMB,A,4.00,R,003,004,4917.24,N,12309.57,W,001.3,052.5,000.5,V*3A
$GPRMB,A,5.00,R,003,004,4917.24,N,12309.57,W,001.3,052.5,000.5,V*3B
$GPRMB,A,6.00,R,003,004,4917.24,N,12309.57,W,001.3,052.5,000.5,V*38
$GPRMB,A,7.00,R,003,004,4917.24,N,12309.57,W,001.3,052.5,000.5,V*39
$GPRMB,A,8.00,R,003,004,4917.24,N,12309.57,W,001.3,052.5,000.5,V*36
$GPRMB,A,9.00,R,003,004,4917.24,N,12309.57,W,001.3,052.5,000.5,V*37
$GPRMB,A,0.00,R,003,004,4917.24,N,12309.57,W,001.3,052.5,000.5,V*3E
$GPRMB,A,1.00,R,003,004,4917.24,N,12309.57,W,001.3,052.5,000.5,V*3F
$GPRMB,A,2.00,R,003,004,4917.24,N,12309.57,W,001.3,052.5,000.5,V*3C
$GPRMB,A,3.00,R,003,004,4917.24,N,12309.57,W,001.3,052.5,000.5,V*3D
$GPRMB,A,4.00,R,003,004,4917.24,N,12309.57,W,001.3,052.5,000.5,V*3A
$GPRMB,A,5.00,R,003,004,4917.24,N,12309.57,W,001.3,052.5,000.5,V*3B
$GPRMB,A,6.00,R,003,004,4917.24,N,12309.57,W,001.3,052.5,000.5,V*38
$GPRMB,A,7.00,R,003,004,4917.24,N,12309.57,W,001.3,052.5,000.5,V*39
$GPRMB,A,8.00,R,003,004,4917.24,N,12309.57,W,001.3,052.5,000.5,V*36
$GPRMB,A,9.00,R,003,004,4917.24,N,12309.57,W,001.3,052.5,000.5,V*37
$GPRMB,A,0.00,R,003,004,4917.24,N,12309.57,W,001.3,052.5,000.5,V*3E
$GPRMB,A,1.00,R,003,004,4917.24,N,12309.57,W,001.3,052.5,000.5,V*3F
$GPRMB,A,2.00,R,003,004,4917.24,N,12309.57,W,001.3,052.5,000.5,V*3C
$GPRMB,A,3.00,R,003,004,4917.24,N,12309.57,W,001.3,052.5,000.5,V*3D
$GPRMB,A,4.00,R,003,004,4917.24,N,12309.57,W,001.3,052.5,000.5,V*3A
$GPRMB,A,5.00,R,003,004,4917.24,N,12309.57,W,001.3,052.5,000.5,V*3B
$GPRMB,A,6.00,R,003,004,4917.24,N,12309.57,W,001.3,052.5,000.5,V*38
$GPRMB,A,7.00,R,003,004,4917.24,N,12309.57,W,001.3,052.5,000.5,V*39
$GPRMB,A,8.00,R,003,004,4917.24,N,12309.57,W,001.3,052.5,000.5,V*36
$GPRMB,A,9.00,R,003,004,4917.24,N,12309.57,W,001.3,052.5,000.5,V*37
$GPRMB,A,0.00,R,003,004,4917.24,N,12309.57,W,001.3,052.5,000.5,V*3E
$GPRMB,A,1.00,R,003,004,4917.24,N,12309.57,W,001.3,052.5,000.5,V*3F
$GPRMB,A,2.00,R,003,004,4917.24,N,12309.57,W,001.3,052.5,000.5,V*3C
$GPRMB,A,3.00,R,003,004,4917.24,N,12309.57,W,001.3,052.5,000.5,V*3D
$GPRMB,A,4.00,R,003,004,4917.24,N,12309.57,W,001.3,052.5,000.5,V*3A
$GPRMB,A,5.00,R,003,004,4917.24,N,12309.57,W,001.3,052.5,000.5,V*3B
$GPRMB,A,6.00,R,003,004,4917.24,N,12309.57,W,001.3,052.5,000.5,V*38
$GPRMB,A,7.00,R,003,004,4917.24,N,12309.57,W,001.3,052.5,000.5,V*39
$GPRMB,A,8.00,R,003,004,4917.24,N,12309.57,W,001.3,052.5,000.5,V*36
$GPRMB,A,9.00,R,003,004,4917.24,N,12309.57,W,001.3,052.5,000.5,V*37
GPRMB,A,0.00,R,003,004,4917.24,N,12309.57,W,001.3,052.5,000.5,V*3E
$GPRMB,A,1.00,R,003,004,4917.24,N,12309.57,W,001.3,052.5,000.5,V*3F
$GPRMB,A,2.00,R,003,004,4917.24,N,12309.57,W,001.3,052.5,000.5,V*3C
$GPRMB,A,3.00,R,003,004,4917.24,N,12309.57,W,001.3,052.5,000.5,V*3D
$GPRMB,A,4.00,R,003,004,4917.24,N,12309.57,W,001.3,052.5,000.5,V*3A
$GPRMB,A,5.00,R,003,004,4917.24,N,12309.57,W,001.3,052.5,000.5,V*3B
$GPRMB,A,6.00,R,003,004,4917.24,N,12309.57,W,001.3,052.5,000.5,V*38
$GPRMB,A,7.00,R,003,004,4917.24,N,12309.57,W,001.3,052.5,000.5,V*39
$GPRMB,A,8.00,R,003,004,4917.24,N,12309.57,W,001.3,052.5,000.5,V*36
$GPRMB,A,9.00,R,003,004,4917.24,N,12309.57,W,001.3,052.5,000.5,V*37
$GPRMB,A,0.00,R,003,004,4917.24,N,12309.57,W,001.3,052.5,000.5,V*3E
$GPRMB,A,1.00,R,003,004,4917.24,N,12309.57,W,001.3,052.5,000.5,V*3F
$GPRMB,A,2.00,R,003,004,4917.24,N,12309.57,W,001.3,052.5,000.5,V*3C
$GPRMB,A,3.00,R,003,004,4917.24,N,12309.57,W,001.3,052.5,000.5,V*3D
$GPRMB,A,4.00,R,003,004,4917.24,N,12309.57,W,001.3,052.5,000.5,V*3A
$GPRMB,A,5.00,R,003,004,4917.24,N,12309.57,W,001.3,052.5,000.5,V*3B
$GPRMB,A,6.00,R,003,004,4917.24,N,12309.57,W,001.3,052.5,000.5,V*38
$GPRMB,A,7.00,R,003,004,4917.24,N,12309.57,W,001.3,052.5,000.5,V*39
$GPRMB,A,8.00,R,003,004,4917.24,N,12309.57,W,001.3,052.5,000.5,V*36
$GPRMB,A,9.00,R,003,004,4917.24,N,12309.57,W,001.3,052.5,000.5,V*37
$GPRMB,A,0.00,R,003,004,4917.24,N,12309.57,W,001.3,052.5,000.5,V*3E
$GPRMB,A,1.00,R,003,004,4917.24,N,12309.57,W,001.3,052.5,000.5,V*3F
$GPRMB,A,2.00,R,003,004,4917.24,N,12309.57,W,001.3,052.5,000.5,V*3C
$GPRMB,A,3.00,R,003,004,4917.24,N,12309.57,W,001.3,052.5,000.5,V*3D
$GPRMB,A,4.00,R,003,004,4917.24,N,12309.57,W,001.3,052.5,000.5,V*3A
$GPRMB,A,5.00,R,003,004,4917.24,N,12309.57,W,001.3,052.5,000.5,V*3B
$GPRMB,A,6.00,R,003,004,4917.24,N,12309.57,W,001.3,052.5,000.5,V*38
$GPRMB,A,7.00,R,003,004,4917.24,N,12309.57,W,001.3,052.5,000.5,V*39
$GPRMB,A,8.00,R,003,004,4917.24,N,12309.57,W,001.3,052.5,000.5,V*36
$GPRMB,A,9.00,R,003,004,4917.24,N,12309.57,W,001.3,052.5,000.5,V*37
$GPRMB,A,0.00,R,003,004,4917.24,N,12309.57,W,001.3,052.5,000.5,V*3E
$GPRMB,A,1.00,R,003,004,4917.24,N,12309.57,W,001.3,052.5,000.5,V*3F
$GPRMB,A,2.00,R,003,004,4917.24,N,12309.57,W,001.3,052.5,000.5,V*3C
$GPRMB,A,3.00,R,003,004,4917.24,N,12309.57,W,001.3,052.5,000.5,V*3D
$GPRMB,A,4.00,R,003,004,4917.24,N,12309.57,W,001.3,052.5,000.5,V*3A
$GPRMB,A,5.00,R,003,004,4917.24,N,12309.57,W,001.3,052.5,000.5,V*3B
$GPRMB,A,6.00,R,003,004,4917.24,N,12309.57,W,001.3,052.5,000.5,V*38
$GPRMB,A,7.00,R,003,004,4917.24,N,12309.57,W,001.3,052.5,000.5,V*39
$GPRMB,A,8.00,R,003,004,4917.24,N,12309.57,W,001.3,052.5,000.5,V*36
$GPRMB,A,9.00,R,003,004,4917.24,N,12309.57,W,001.3,052.5,000.5,V*37
$GPRMB,A,0.00,R,003,004,4917.24,N,12309.57,W,001.3,052.5,000.5,V*3E
$GPRMB,A,1.00,R,003,004,4917.24,N,12309.57,W,001.3,052.5,000.5,V*3F
$GPRMB,A,2.00,R,003,004,4917.24,N,12309.57,W,001.3,052.5,000.5,V*3C
$GPRMB,A,3.00,R,003,004,4917.24,N,12309.57,W,001.3,052.5,000.5,V*3D
$GPRMB,A,4.00,R,003,004,4917.24,N,12309.57,W,001.3,052.5,000.5,V*3A
$GPRMB,A,5.00,R,003,004,4917.24,N,12309.57,W,001.3,052.5,000.5,V*3B
$GPRMB,A,6.00,R,003,004,4917.24,N,12309.57,W,001.3,052.5,000.5,V*38
$GPRMB,A,7.00,R,003,004,4917.24,N,12309.57,W,001.3,052.5,000.5,V*39
$GPRMB,A,8.00,R,003,004,4917.24,N,12309.57,W,001.3,052.5,000.5,V*36
$GPRMB,A,9.00,R,003,004,4917.24,N,12309.57,W,001.3,052.5,000.5,V*37
$GPRMB,A,0.00,R,003,004,4917.24,N,12309.57,W,001.3,052.5,000.5,V*3E
$GPRMB,A,1.00,R,003,004,4917.24,N,12309.57,W,001.3,052.5,000.5,V*3F
$GPRMB,A,2.00,R,003,004,4917.24,N,12309.57,W,001.3,052.5,000.5,V*3C
$GPRMB,A,3.00,R,003,004,4917.24,N,12309.57,W,001.3,052.5,000.5,V*3D
$GPRMB,A,4.00,R,003,004,4917.24,N,12309.57,W,001.3,052.5,000.5,V*3A
$GPRMB,A,5.00,R,003,004,4917.24,N,12309.57,W,001.3,052.5,000.5,V*3B
$GPRMB,A,6.00,R,003,004,4917.24,N,12309.57,W,001.3,052.5,000.5,V*38
$GPRMB,A,7.00,R,003,004,4917.24,N,12309.57,W,001.3,052.5,000.5,V*39
$GPRMB,A,8.00,R,003,004,4917.24,N,12309.57,W,001.3,052.5,000.5,V*36
$GPRMB,A,9.00,R,003,004,4917.24,N,12309.57,W,001.3,052.5,000.5,V*37
$GPRMB,A,0.00,R,003,004,4917.24,N,12309.57,W,001.3,052.5,000.5,V*3E
$GPRMB,A,1.00,R,003,004,4917.24,N,12309.57,W,001.3,052.5,000.5,V*3F
$GPRMB,A,2.00,R,003,004,4917.24,N,12309.57,W,001.3,052.5,000.5,V*3C
$GPRMB,A,3.00,R,003,004,4917.24,N,12309.57,W,001.3,052.5,000.5,V*3D
$GPRMB,A,4.00,R,003,004,4917.24,N,12309.57,W,001.3,052.5,000.5,V*3A
$GPRMB,A,5.00,R,003,004,4917.24,N,12309.57,W,001.3,052.5,000.5,V*3B
$GPRMB,A,6.00,R,003,004,4917.24,N,12309.57,W,001.3,052.5,000.5,V*38
$GPRMB,A,7.00,R,003,004,4917.24,N,12309.57,W,001.3,052.5,000.5,V*39
$GPRMB,A,8.00,R,003,004,4917.24,N,12309.57,W,001.3,052.5,000.5,V*36
$GPRMB,A,9.00,R,003,004,4917.24,N,12309.57,W,001.3,052.5,000.5,V*37
$GPRMB,A,0.00,R,003,004,4917.24,N,12309.57,W,001.3,052.5,000.5,V*3E
$GPRMB,A,1.00,R,003,004,4917.24,N,12309.57,W,001.3,052.5,000.5,V*3F
$GPRMB,A,2.00,R,003,004,4917.24,N,12309.57,W,001.3,052.5,000.5,V*3C
$GPRMB,A,3.00,R,003,004,4917.24,N,12309.57,W,001.3,052.5,000.5,V*3D
$GPRMB,A,4.00,R,003,004,4917.24,N,12309.57,W,001.3,052.5,000.5,V*3A
$GPRMB,A,5.00,R,003,004,4917.24,N,12309.57,W,001.3,052.5,000.5,V*3B
$GPRMB,A,6.00,R,003,004,4917.24,N,12309.57,W,001.3,052.5,000.5,V*38
$GPRMB,A,7.00,R,003,004,4917.24,N,12309.57,W,001.3,052.5,000.5,V*39
$GPRMB,A,8.00,R,003,004,4917.24,N,12309.57,W,001.3,052.5,000.5,V*36
$GPRMB,A,9.00,R,003,004,4917.24,N,12309.57,W,001.3,052.5,000.5,V*37
$GPRMB,A,0.00,R,003,004,4917.24,N,12309.57,W,001.3,052.5,000.5,V*3E
$GPRMB,A,1.00,R,003,004,4917.24,N,12309.57,W,001.3,052.5,000.5,V*3F
$GPRMB,A,2.00,R,003,004,4917.24,N,12309.57,W,001.3,052.5,000.5,V*3C
$GPRMB,A,3.00,R,003,004,4917.24,N,12309.57,W,001.3,052.5,000.5,V*3D
$GPRMB,A,4.00,R,003,004,4917.24,N,12309.57,W,001.3,052.5,000.5,V*3A
$GPRMB,A,5.00,R,003,004,4917.24,N,12309.57,W,001.3,052.5,000.5,V*3B
$GPRMB,A,6.00,R,003,004,4917.24,N,12309.57,W,001.3,052.5,000.5,V*38
$GPRMB,A,7.00,R,003,004,4917.24,N,12309.57,W,001.3,052.5,000.5,V*39
$GPRMB,A,8.00,R,003,004,4917.24,N,12309.57,W,001.3,052.5,000.5,V*36
$IIMWV,180,R,02.5,N,A*1D
$IIRMC,091636,A,5450.924,N,00931.371,E,03.8,297,010813,,,A*4B
$IIVHW,,,004,M,,,,*30
$IIVWR,180,R,02.5,N,,,,*6F
$IIGLL,5450.924,N,00931.371,E,091636,A,A*5E
$IIHDG,004,,,,*53
$IIMTW,+00.0,C*38
$IIMWV,298,R,05.8,N,A*1D
$IIMWV,180,T,06.3,N,A*19
$IIRMC,091637,A,5450.924,N,00931.369,E,03.9,294,010813,,,A*41
$IIVHW,,,315,M,00.8,N,,*6B
$IIVLW,01330,N,000.0,N*52
$IIVWR,062,L,05.8,N,,,,*76
$GPRMB,A,9.00,R,003,004,4917.24,N,12309.57,W,001.3,052.5,000.5,V*37
$GPRMB,A,9.00,R,003,004,4917.24,N,37,A,A*20
$IIHDG,315,,,,*50
$IIMTW,+21.0,C*3B
$IIMWV,301,R,06.9,N,A*1E
$IIMWV,290,T,05.4,N,A*1F
$IIRMC,091638,A,5450.924,N,00931.367,E,03.9,298,010813,,,A*4C
$IIVHW,,,302,M,01.4,N,,*60
$IIVLW,01330,N,000.0,N*52
$IIVWR,059,L,06.9,N,,,,*7C
$IIGLL,5450.924,N,00931.367,E,091638,A,A*57
$IIHDG,302,,,,*56
$IIMTW,+21.0,C*3B
$IIMWV,304,R,07.2,N,A*11
$IIMWV,289,T,06.2,N,A*12
$IIRMC,091639,A,5450.925,N,00931.366,E,03.9,295,010813,,,A*40
$IIVHW,,,295,M,01.9,N,,*62
$IIVLW,01330,N,000.0,N*52
$IIVWR,056,L,07.2,N,,,,*79
$IIDPT,012.5,-1.0,*46
$IIGLL,5450.925,N,00931.366,E,091639,A,A*56
$IIHDG,292,,,,*5E
$IIMTW,+21.5,C*3E
$IIMWV,305,R,07.2,N,A*10
$IIMWV,289,T,06.2,N,A*12
$IIRMC,091640,A,5450.926,N,00931.365,E,03.9,296,010813,,,A*4D
$IIVHW,,,292,M,02.3,N,,*6C
$IIVLW,01330,N,000.0,N*52
$IIVWR,055,L,07.2,N,,,,*7A
$GPRMB,A,0.00,R,003,004,4917.24,N,12309.57,W,001.3,052.5,000.5,V*3E
$GPRMB,A,0.00,R.0,*59
$IIGLL,5450.926,N,00931.363,E,091641,A,A*5F
$IIHDG,288,,,,*55
$IIMTW,+18.0,C*31
$IIMWV,006,R,00.0,N,A*15
$IIMWV,287,T,06.1,N,A*1F
$IIRMC,091641,A,5450.926,N,00931.363,E,03.9,289,010813,,,A*44
$IIVHW,,,288,M,02.6,N,,*62
$IIVLW,01330,N,000.0,N*52
$IIVWR,006,R,00.0,N,,,,*67
$IIDPT,012.5,-1.0,*46
$IIGLL,5450.926,N,00931.362,E,091642,A,A*5D
$IIHDG,288,,,,*55
$IIMTW,+18.0,C*31
$IIMWV,307,R,07.6,N,A*16
$IIMWV,006,T,02.7,N,A*16
$IIRMC,091642,A,5450.926,N,00931.362,E,04.2,287,010813,,,A*44
$IIVHW,,,288,M,02.9,N,,*6D
$IIVLW,01330,N,000.0,N*52
$IIVWR,054,L,08.2,N,,,,*74
$IIDPT,012.5,-1.0,*46
$IIGLL,5450.927,N,00931.360,E,091643,A,A*5F
$IIHDG,287,,,,*5A
$IIMTW,+18.0,C*31
$IIMWV,306,R,08.2,N,A*1C
$IIMWV,284,T,06.1,N,A*1C
$IIRMC,091643,A,5450.927,N,00931.360,E,04.1,290,010813,,,A*43
$GPRMB,A,1.00,R,003,004,4917.24,N,12309.57,W,001.3,052.5,000.5,V*3F
$GIVHW,,,287,M,03.1,N,,*65
$IIVLW,01330,N,000.0,N*52
$IIVWR,052,L,07.8,N,,,,*77
$IIDPT,012.5,-1.0,*46
$IIGLL,5450.927,N,00931.358,E,091644,A,A*53
$IIHDG,286,,,,*5B
$IIMTW,+21.5,C*3E
$IIMWV,308,R,07.8,N,A*17
$IIMWV,284,T,06.7,N,A*1A
$IIRMC,091644,A,5450.927,N,00931.358,E,04.2,290,010813,,,A*4C
$IIVHW,,,286,M,03.5,N,,*6E
$IIVLW,01330,N,000.0,N*52
$IIVWR,053,L,08.3,N,,,,*72
$IIDPT,012.5,-1.0,*46
$IIGLL,5450.928,N,00931.356,E,091645,A,A*53
$IIHDG,286,,,,*5B
$IIMTW,+18.0,C*31
$IIMWV,307,R,08.3,N,A*1C
$IIMWV,283,T,06.2,N,A*18
$IIRMC,091646,A,5450.928,N,00931.355,E,04.0,293,010813,,,A*4D
$IIVHW,,,286,M,03.6,N,,*6D
$IIVLW,01330,N,000.0,N*52
$IIVWR,050,L,08.4,N,,,,*76
$IIDPT,012.5,-1.0,*46
$IIGLL,5450.928,N,00931.355,E,091646,A,A*53
$IIHDG,286,,,,*5B
$IIMTW,+18.0,C*31
$GPRMB,A,2.00,R,003,004,4917.24,N,12309.57,W,001.3,052.5,000.5,V*3C
$IIMWV,310,R,08.4,N,A*1D
$IIMWV,284,T,06.5,N,A*18
$IIRMC,091647,A,5450.929,N,00931.353,E,04.1,290,010813,,,A*49
$IIVHW,,,286,M,03.7,N,,*6C
$IIVLW,01330,N,000.0,N*52
$IIVWR,051,L,08.0,N,,,,*73
$IIDPT,012.5,-1.0,*46
$IIGLL,5450.929,N,00931.353,E,091647,A,A*55
$IIHDG,286,,,,*5B
$IIMTW,+18.0,C*31
$IIMWV,306,R,08.3,N,A*1D
$IIMWV,281,T,06.3,N,A*1B
$IIRMC,091647,A,5450.929,N,00931.353,E,04.1,290,010813,,,A*49
$IIVHW,,,285,M,03.8,N,,*60
$IIVLW,01330,N,000.0,N*52
$IIVWR,054,L,08.3,N,,,,*75
$IIDPT,012.5,-1.0,*46
$IIGLL,5450.929,N,00931.353,E,091647,A,A*55
$IIHDG,285,,,,*58
$IIMTW,+21.5,C*3E
$IIMWV,309,R,07.8,N,A*16
$IIMWV,278,T,06.7,N,A*19
$IIRMC,091649,A,5450.930,N,00931.350,E,04.1,293,010813,,,A*4F
$IIVHW,,,285,M,03.9,N,,*61
$IIVLW,01330,N,000.0,N*52
$IIVWR,051,L,07.8,N,,,,*74
$IIDPT,012.5,-1.0,*46
$GPRMB,A,3.00,R,003,004,4917.24,N,12309.57,W,001.3,052.5,000.5,V*3D
$GPRMB,A,3..930,N,00931.350,E,091649,A,A*29
$IIHDG,285,,,,*58
$IIMTW,+21.5,C*3E
$IIMWV,306,R,08.2,N,A*1C
$IIMWV,279,T,06.0,N,A*1F
$IIRMC,091650,A,5450.930,N,00931.348,E,04.1,292,010813,,,A*4F
$IIVHW,,,285,M,04.0,N,,*6F
$IIVLW,01330,N,000.0,N*52
$IIVWR,054,L,08.2,N,,,,*74
$IIDPT,012.5,-1.0,*46
$IIGLL,5450.931,N,00931.346,E,091651,A,A*5F
$IIHDG,284,,,,*59
$IIMTW,+21.5,C*3E
$IIMWV,312,R,07.7,N,A*13
$IIMWV,276,T,06.6,N,A*16
$IIRMC,091651,A,5450.931,N,00931.346,E,04.2,291,010813,,,A*41
$IIVHW,,,284,M,04.1,N,,*6F
$IIVLW,01330,N,000.0,N*52
$IIVWR,048,L,07.7,N,,,,*73
$IIDPT,012.5,-1.0,*46
$IIGLL,5450.931,N,00931.344,E,091652,A,A*5E
$IIHDG,284,,,,*59
$IIMTW,+21.5,C*3E
$IIMWV,310,R,07.5,N,A*13
$IIMWV,280,T,05.6,N,A*1C
$IIRMC,091652,A,5450.931,N,00931.344,E,04.3,291,010813,,,A*41
$IIVHW,,,284,M,04.2,N,,*6C
$GPRMB,A,4.00,R,003,004,4917.24,N,12309.57,W,001.3,052.5,000.5,V*3A
$GPVLW,01330,N,000.0,N*45
$IIVWR,051,L,08.0,N,,,,*73
$IIDPT,012.5,-1.0,*46
$IIGLL,5450.932,N,00931.342,E,091653,A,A*5A
$IIHDG,285,,,,*58
$IIMTW,+21.5,C*3E
$IIMWV,309,R,08.0,N,A*11
$IIMWV,276,T,05.7,N,A*14
$IIRMC,091653,A,5450.932,N,00931.342,E,04.6,289,010813,,,A*49
$IIVHW,,,285,M,04.2,N,,*6D
$IIVLW,01330,N,000.0,N*52
$IIVWR,051,L,07.9,N,,,,*75
$IIDPT,014.0,-1.0,*45
$IIGLL,5450.932,N,00931.341,E,091654,A,A*5E
$IIHDG,287,,,,*5A
$IIMTW,+17.5,C*3B
$IIMWV,309,R,07.9,N,A*17
$IIMWV,276,T,06.2,N,A*12
$IIRMC,091654,A,5450.932,N,00931.341,E,04.2,298,010813,,,A*49
$IIVHW,,,288,M,04.3,N,,*61
$IIVLW,01330,N,000.0,N*52
$IIVWR,052,L,07.8,N,,,,*77
$IIDPT,013.7,-1.0,*45
$IIGLL,5450.933,N,00931.339,E,091655,A,A*51
$IIHDG,288,,,,*55
$IIMTW,+17.5,C*3B
$IIMWV,308,R,07.8,N,A*17
$IIMWV,275,T,06.1,N,A*12
$GPRMB,A,5.00,R,003,004,4917.24,N,12309.57,W,001.3,052.5,000.5,V*3B
$IIRMC,091656,A,5450.934,N,00931.338,E,04.4,298,010813,,,A*45
$IIVHW,,,289,M,04.4,N,,*67
$IIVLW,01330,N,000.0,N*52
$IIVWR,051,L,07.6,N,,,,*7A
$IIDPT,013.6,-1.0,*44
$IIGLL,5450.934,N,00931.338,E,091656,A,A*54
$IIHDG,289,,,,*54
$IIMTW,+19.5,C*35
$IIMWV,309,R,07.6,N,A*18
$IIMWV,273,T,05.9,N,A*1F
$IIRMC,091657,A,5450.934,N,00931.335,E,04.5,298,010813,,,A*48
$IIVHW,,,290,M,04.4,N,,*6F
$IIVLW,01330,N,000.0,N*52
$IIVWR,052,L,07.5,N,,,,*7A
$IIDPT,012.6,-1.0,*45
$IIGLL,5450.934,N,00931.335,E,091657,A,A*58
$IIHDG,290,,,,*5C
$IIMTW,+19.5,C*35
$IIMWV,310,R,07.9,N,A*1F
$IIMWV,271,T,05.9,N,A*1D
$IIRMC,091658,A,5450.935,N,00931.333,E,04.6,297,010813,,,A*4C
$IIVHW,,,290,M,04.5,N,,*6E
$IIVLW,01330,N,000.0,N*52
$IIVWR,050,L,07.9,N,,,,*74
$IIDPT,012.6,-1.0,*45
$GPRMB,A,6.00,R,003,004,4917.24,N,12309.57,W,001.3,052.5,000.5,V*38
$GPRMB,A,6.00,R,003,004,4917.2491658,A,A*56
$IIHDG,290,,,,*5C
$IIMTW,+20.5,C*3F
$IIMWV,307,R,07.8,N,A*18
$IIMWV,275,T,06.0,N,A*13
$IIRMC,091659,A,5450.935,N,00931.331,E,04.8,304,010813,,,A*4A
$IIVHW,,,289,M,04.5,N,,*66
$IIVLW,01330,N,000.0,N*52
$IIVWR,053,L,07.8,N,,,,*76
$IIDPT,012.6,-1.0,*45
$IIGLL,5450.935,N,00931.331,E,091659,A,A*53
$IIHDG,287,,,,*5A
$IIMTW,+20.5,C*3F
$IIMWV,307,R,08.6,N,A*19
$IIMWV,270,T,06.2,N,A*14
$IIRMC,091700,A,5450.936,N,00931.329,E,04.7,295,010813,,,A*4B
$IIVHW,,,287,M,04.6,N,,*6B
$IIVLW,01330,N,000.0,N*52
$IIVWR,053,L,08.6,N,,,,*77
$IIDPT,012.6,-1.0,*45
$IIGLL,5450.937,N,00931.327,E,091701,A,A*5A
$IIHDG,287,,,,*5A
$IIMTW,+17.5,C*3B
$IIMWV,308,R,08.5,N,A*15
$IIMWV,274,T,06.8,N,A*1A
$IIRMC,091701,A,5450.937,N,00931.327,E,04.8,292,010813,,,A*4D
$IIVHW,,,287,M,04.6,N,,*6B
$IIVLW,01330,N,000.0,N*52
$GPRMB,A,7.00,R,003,004,4917.24,N,12309.57,W,001.3,052.5,000.5,V*39
$IIVWR,052,L,08.5,N,,,,*75
$IIDPT,012.6,-1.0,*45
$IIGLL,5450.937,N,00931.326,E,091702,A,A*58
$IIHDG,287,,,,*5A
$IIMTW,+17.5,C*3B
$IIMWV,310,R,08.5,N,A*1C
$IIMWV,274,T,06.7,N,A*15
$IIRMC,091702,A,5450.937,N,00931.326,E,04.5,293,010813,,,A*43
$IIVHW,,,287,M,04.7,N,,*6A
$IIVLW,01330,N,000.0,N*52
$IIVWR,051,L,08.5,N,,,,*76
$IIDPT,012.6,-1.0,*45
$IIGLL,5450.938,N,00931.324,E,091703,A,A*54
$IIHDG,285,,,,*58
$IIMTW,+20.5,C*3F
$IIMWV,309,R,08.5,N,A*14
$IIMWV,276,T,06.5,N,A*15
$IIRMC,091703,A,5450.938,N,00931.324,E,04.6,291,010813,,,A*4E
$IIVHW,,,285,M,04.7,N,,*68
$IIVLW,01330,N,000.0,N*52
$IIVWR,050,L,08.0,N,,,,*72
$IIDPT,012.6,-1.0,*45
$IIGLL,5450.938,N,00931.322,E,091704,A,A*55
$IIHDG,284,,,,*59
$IIMTW,+17.5,C*3B
$IIMWV,310,R,08.0,N,A*19
$IIMWV,275,T,06.6,N,A*15
$GPRMB,A,8.00,R,003,004,4917.24,N,12309.57,W,001.3,052.5,000.5,V*36
$GPRMB,A,8.00,R,003,004,4917.24,N,1230904.5,291,010813,,,A*5F
$IIVHW,,,282,M,04.8,N,,*60
$IIVLW,01330,N,000.0,N*52
$IIVWR,050,L,08.2,N,,,,*70
$IIDPT,012.6,-1.0,*45
$IIGLL,5450.939,N,00931.320,E,091705,A,A*57
$IIHDG,282,,,,*5F
$IIMTW,+17.5,C*3B
$IIMWV,310,R,08.2,N,A*1B
$IIMWV,273,T,06.1,N,A*14
$IIRMC,091706,A,5450.939,N,00931.318,E,04.6,290,010813,,,A*44
$IIVHW,,,282,M,04.8,N,,*60
$IIVLW,01330,N,000.0,N*52
$IIVWR,050,L,08.0,N,,,,*72
$IIDPT,012.6,-1.0,*45
$IIGLL,5450.939,N,00931.318,E,091706,A,A*5F
$IIHDG,282,,,,*5F
$IIMTW,+17.5,C*3B
$IIMWV,310,R,08.0,N,A*19
$IIMWV,273,T,06.1,N,A*14
$IIRMC,091707,A,5450.940,N,00931.316,E,04.7,290,010813,,,A*44
$IIVHW,,,282,M,04.8,N,,*60
$IIVLW,01330,N,000.0,N*52
$IIVWR,046,L,07.9,N,,,,*73
$IIDPT,013.1,-1.0,*43
$IIGLL,5450.940,N,00931.316,E,091707,A,A*5E
$GPRMB,A,9.00,R,003,004,4917.24,N,12309.57,W,001.3,052.5,000.5,V*37
$GPRMB,A,9.0,,*2C
$IIMTW,+17.5,C*3B
$IIMWV,315,R,08.2,N,A*1E
$IIMWV,275,T,05.6,N,A*16
$IIRMC,091708,A,5450.940,N,00931.314,E,04.6,291,010813,,,A*49
$IIVHW,,,283,M,04.8,N,,*61
$IIVLW,01330,N,000.0,N*52
$IIVWR,045,L,08.2,N,,,,*74
$IIDPT,014.0,-1.0,*45
$IIGLL,5450.940,N,00931.314,E,091708,A,A*53
$IIHDG,283,,,,*5E
$IIMTW,+20.5,C*3F
$IIMWV,315,R,07.9,N,A*1A
$IIMWV,279,T,05.8,N,A*14
$IIRMC,091709,A,5450.941,N,00931.312,E,04.6,291,010813,,,A*4F
$IIVHW,,,283,M,04.8,N,,*61
$IIVLW,01330,N,000.0,N*52
$IIVWR,045,L,07.9,N,,,,*70
$IIDPT,014.3,-1.0,*46
$IIGLL,5450.941,N,00931.312,E,091709,A,A*55
$IIHDG,284,,,,*59
$IIMTW,+18.0,C*31
$IIMWV,314,R,07.4,N,A*16
$IIMWV,277,T,05.6,N,A*14
$IIRMC,091710,A,5450.941,N,00931.310,E,04.7,291,010813,,,A*44
$IIVHW,,,284,M,04.8,N,,*66
$IIVLW,01330,N,000.0,N*52
$IIVWR,046,L,07.4,N,,,,*7E
$GPRMB,A,0.00,R,003,004,4917.24,N,12309.57,W,001.3,052.5,000.5,V*3E
$GPRMB,A,0.00,R,0,*5B
$IIGLL,5450.942,N,00931.309,E,091711,A,A*55
$IIHDG,284,,,,*59
$IIMTW,+21.0,C*3B
$IIMWV,315,R,07.4,N,A*17
$IIMWV,272,T,05.3,N,A*14
$IIRMC,091711,A,5450.942,N,00931.309,E,04.6,289,010813,,,A*46
$IIVHW,,,284,M,04.8,N,,*66
$IIVLW,01330,N,000.0,N*52
$IIVWR,045,L,07.4,N,,,,*7D
$IIDPT,014.9,-1.0,*4C
$IIGLL,5450.942,N,00931.307,E,091712,A,A*58
$IIHDG,282,,,,*5F
$IIMTW,+20.5,C*3F
$IIMWV,314,R,07.0,N,A*12
$IIMWV,273,T,05.2,N,A*14
$IIRMC,091712,A,5450.942,N,00931.307,E,04.6,289,010813,,,A*4B
$IIVHW,,,282,M,04.8,N,,*60
$IIVLW,01330,N,000.0,N*52
$IIVWR,045,L,07.2,N,,,,*7B
$IIDPT,014.2,-1.0,*47
$IIGLL,5450.942,N,00931.305,E,091713,A,A*5B
$IIHDG,282,,,,*5F
$IIMTW,+20.5,C*3F
$IIMWV,315,R,07.2,N,A*11
$IIMWV,269,T,05.0,N,A*1D
$IIRMC,091713,A,5450.942,N,00931.305,E,04.5,290,010813,,,A*43
$GPRMB,A,1.00,R,003,004,4917.24,N,12309.57,W,001.3,052.5,000.5,V*3F
$GIVHW,,,282,M,04.8,N,,*6E
$IIVLW,01330,N,000.0,N*52
$IIVWR,044,L,07.3,N,,,,*7B
$IIDPT,012.8,-1.0,*4B
$IIGLL,5450.943,N,00931.302,E,091714,A,A*5A
$IIHDG,280,,,,*5D
$IIMTW,+20.5,C*3F
$IIMWV,316,R,07.3,N,A*13
$IIMWV,272,T,05.1,N,A*16
$IIRMC,091714,A,5450.943,N,00931.302,E,04.5,286,010813,,,A*45
$IIVHW,,,277,M,04.8,N,,*6A
$IIVLW,01330,N,000.0,N*52
$IIVWR,041,L,07.3,N,,,,*7E
$IIDPT,012.6,-1.0,*45
$IIGLL,5450.943,N,00931.300,E,091715,A,A*59
$IIHDG,277,,,,*55
$IIMTW,+21.0,C*3B
$IIMWV,319,R,07.3,N,A*1C
$IIMWV,275,T,05.0,N,A*10
$IIRMC,091716,A,5450.943,N,00931.299,E,04.5,284,010813,,,A*46
$IIVHW,,,276,M,04.8,N,,*6B
$IIVLW,01330,N,000.1,N*53
$IIVWR,039,L,07.4,N,,,,*76
$IIDPT,012.6,-1.0,*45
$IIGLL,5450.943,N,00931.299,E,091716,A,A*5B
$IIHDG,276,,,,*54
$IIMTW,+21.0,C*3B
$GPRMB,A,2.00,R,003,004,4917.24,N,12309.57,W,001.3,052.5,000.5,V*3C
$IIMWV,321,R,07.4,N,A*10
$IIMWV,281,T,04.6,N,A*1C
$IIRMC,091717,A,5450.943,N,00931.296,E,04.5,282,010813,,,A*4E
$IIVHW,,,274,M,04.8,N,,*69
$IIVLW,01330,N,000.1,N*53
$IIVWR,037,L,07.3,N,,,,*7F
$IIDPT,012.6,-1.0,*45
$IIGLL,5450.943,N,00931.296,E,091717,A,A*55
$IIHDG,274,,,,*56
$IIMTW,+21.0,C*3B
$IIMWV,323,R,07.3,N,A*15
$IIMWV,283,T,04.4,N,A*1C
$IIRMC,091718,A,5450.943,N,00931.294,E,04.6,277,010813,,,A*4A
$IIVHW,,,270,M,04.8,N,,*6D
$IIVLW,01330,N,000.1,N*53
$IIVWR,037,L,07.3,N,,,,*7F
$IIDPT,012.6,-1.0,*45
$IIGLL,5450.943,N,00931.294,E,091718,A,A*58
$IIHDG,270,,,,*52
$IIMTW,+21.0,C*3B
$IIMWV,324,R,07.9,N,A*18
$IIMWV,283,T,04.4,N,A*1C
$IIRMC,091719,A,5450.944,N,00931.292,E,04.5,275,010813,,,A*4B
$IIVHW,,,267,M,04.8,N,,*6B
$IIVLW,01330,N,000.1,N*53
$IIVWR,036,L,07.9,N,,,,*74
$IIDPT,012.6,-1.0,*45
$GPRMB,A,3.00,R,003,004,4917.24,N,12309.57,W,001.3,052.5,000.5,V*3D
$GPRMB,A,3.0944,N,00931.292,E,091719,A,A*3F
$IIHDG,266,,,,*55
$IIMTW,+21.0,C*3B
$IIMWV,006,R,00.0,N,A*15
$IIMWV,288,T,04.8,N,A*1B
$IIRMC,091720,A,5450.944,N,00931.290,E,04.4,275,010813,,,A*42
$IIVHW,,,266,M,04.8,N,,*6A
$IIVLW,01330,N,000.1,N*53
$IIVWR,006,R,00.0,N,,,,*67
$IIDPT,012.6,-1.0,*45
$IIGLL,5450.944,N,00931.287,E,091721,A,A*57
$IIHDG,264,,,,*57
$IIMTW,+18.0,C*31
$IIMWV,321,R,08.0,N,A*1B
$IIMWV,006,T,04.9,N,A*1E
$IIRMC,091721,A,5450.944,N,00931.287,E,04.5,262,010813,,,A*42
$IIVHW,,,264,M,04.8,N,,*68
$IIVLW,01330,N,000.1,N*53
$IIVWR,039,L,08.0,N,,,,*7D
$IIDPT,012.6,-1.0,*45
$IIGLL,5450.944,N,00931.287,E,091721,A,A*57
$IIHDG,261,,,,*52
$IIMTW,+20.5,C*3F
$IIMWV,322,R,08.7,N,A*1F
$IIMWV,285,T,05.1,N,A*1E
$IIRMC,091721,A,5450.944,N,00931.287,E,04.5,262,010813,,,A*42
$IIVHW,,,261,M,04.9,N,,*6C
$GPRMB,A,4.00,R,003,004,4917.24,N,12309.57,W,001.3,052.5,000.5,V*3A
$GPVLW,01330,N,000.1,N*44
$IIVWR,034,L,08.6,N,,,,*76
$IIDPT,012.5,-1.0,*46
$IIGLL,5450.944,N,00931.283,E,091723,A,A*51
$IIHDG,257,,,,*57
$IIMTW,+17.5,C*3B
$IIMWV,326,R,08.6,N,A*1A
$IIMWV,290,T,05.6,N,A*1D
$IIRMC,091723,A,5450.944,N,00931.283,E,04.5,264,010813,,,A*42
$IIVHW,,,257,M,04.9,N,,*69
$IIVLW,01330,N,000.1,N*53
$IIVWR,033,L,09.4,N,,,,*72
$IIDPT,012.5,-1.0,*46
$IIGLL,5450.944,N,00931.280,E,091724,A,A*55
$IIHDG,255,,,,*55
$IIMTW,+20.5,C*3F
$IIMWV,327,R,09.4,N,A*18
$IIMWV,294,T,05.2,N,A*1D
$IIRMC,091724,A,5450.944,N,00931.280,E,05.1,265,010813,,,A*42
$IIVHW,,,250,M,05.0,N,,*66
$IIVLW,01330,N,000.1,N*53
$IIVWR,035,L,09.5,N,,,,*75
$IIDPT,012.5,-1.0,*46
$IIGLL,5450.943,N,00931.278,E,091725,A,A*54
$IIHDG,250,,,,*50
$IIMTW,+18.0,C*31
$IIMWV,325,R,09.5,N,A*1B
$IIMWV,299,T,05.7,N,A*15
$GPRMB,A,5.00,R,003,004,4917.24,N,12309.57,W,001.3,052.5,000.5,V*3B
$IIRMC,091726,A,5450.943,N,00931.275,E,04.9,255,010813,,,A*47
$IIVHW,,,248,M,05.0,N,,*6F
$IIVLW,01330,N,000.1,N*53
$IIVWR,035,L,09.8,N,,,,*78
$IIDPT,012.5,-1.0,*46
$IIGLL,5450.943,N,00931.275,E,091726,A,A*5A
$IIHDG,248,,,,*59
$IIMTW,+20.0,C*3A
$IIMWV,325,R,09.8,N,A*16
$IIMWV,298,T,06.2,N,A*12
$IIRMC,091727,A,5450.942,N,00931.272,E,04.9,254,010813,,,A*41
$IIVHW,,,245,M,05.1,N,,*63
$IIVLW,01330,N,000.1,N*53
$IIVWR,033,L,10.4,N,,,,*7A
$IIDPT,013.7,-1.0,*45
$IIGLL,5450.942,N,00931.272,E,091727,A,A*5D
$IIHDG,245,,,,*54
$IIMTW,+18.0,C*31
$IIMWV,329,R,10.3,N,A*19
$IIMWV,303,T,06.6,N,A*15
$IIRMC,091728,A,5450.942,N,00931.270,E,04.7,253,010813,,,A*45
$IIVHW,,,243,M,05.1,N,,*65
$IIVLW,01330,N,000.1,N*53
$IIVWR,031,L,10.3,N,,,,*7F
$IIDPT,015.3,-1.0,*47
$GPRMB,A,6.00,R,003,004,4917.24,N,12309.57,W,001.3,052.5,000.5,V*38
$GPRMB,A,6.00,R,003,004,4917.2491728,A,A*50
$IIHDG,243,,,,*52
$IIMTW,+17.5,C*3B
$IIMWV,329,R,10.7,N,A*1D
$IIMWV,305,T,06.4,N,A*11
$IIRMC,091729,A,5450.941,N,00931.268,E,04.6,251,010813,,,A*4D
$IIVHW,,,242,M,05.1,N,,*64
$IIVLW,01330,N,000.1,N*53
$IIVWR,031,L,10.7,N,,,,*7B
$IIDPT,015.3,-1.0,*47
$IIGLL,5450.941,N,00931.268,E,091729,A,A*5B
$IIHDG,241,,,,*50
$IIMTW,+20.5,C*3F
$IIMWV,328,R,10.5,N,A*1E
$IIMWV,306,T,06.8,N,A*1E
$IIRMC,091730,A,5450.941,N,00931.265,E,04.8,250,010813,,,A*47
$IIVHW,,,241,M,05.2,N,,*64
$IIVLW,01330,N,000.1,N*53
$IIVWR,032,L,10.5,N,,,,*7A
$IIDPT,017.4,-1.0,*42
$IIGLL,5450.940,N,00931.263,E,091731,A,A*58
$IIHDG,240,,,,*51
$IIMTW,+17.5,C*3B
$IIMWV,326,R,10.7,N,A*12
$IIMWV,304,T,06.6,N,A*12
$IIRMC,091731,A,5450.940,N,00931.263,E,04.7,249,010813,,,A*46
$IIVHW,,,240,M,05.2,N,,*65
$IIVLW,01330,N,000.1,N*53
$GPRMB,A,7.00,R,003,004,4917.24,N,12309.57,W,001.3,052.5,000.5,V*39
$IIVWR,034,L,10.7,N,,,,*7E
$IIDPT,015.1,-1.0,*45
$IIGLL,5450.940,N,00931.260,E,091732,A,A*58
$IIHDG,237,,,,*51
$IIMTW,+20.0,C*3A
$IIMWV,323,R,10.8,N,A*18
$IIMWV,301,T,06.8,N,A*19
$IIRMC,091732,A,5450.940,N,00931.260,E,04.9,247,010813,,,A*46
$IIVHW,,,237,M,05.3,N,,*64
$IIVLW,01330,N,000.1,N*53
$IIVWR,040,L,11.4,N,,,,*7F
$IIDPT,013.3,-1.0,*41
$IIGLL,5450.940,N,00931.260,E,091732,A,A*58
$IIHDG,236,,,,*50
$IIMTW,+20.0,C*3A
$IIMWV,320,R,11.4,N,A*16
$IIMWV,297,T,07.2,N,A*1C
$IIRMC,091732,A,5450.940,N,00931.260,E,04.9,247,010813,,,A*46
$IIVHW,,,236,M,05.3,N,,*65
$IIVLW,01330,N,000.1,N*53
$IIVWR,040,L,11.3,N,,,,*78
$IIDPT,012.2,-1.0,*41
$IIGLL,5450.938,N,00931.256,E,091734,A,A*54
$IIHDG,236,,,,*50
$IIMTW,+17.5,C*3B
$IIMWV,320,R,11.3,N,A*11
$IIMWV,295,T,07.9,N,A*15
$GPRMB,A,8.00,R,003,004,4917.24,N,12309.57,W,001.3,052.5,000.5,V*36
$GPRMB,A,8.00,R,003,004,4917.24,N,1230,05.0,243,010813,,,A*41
$IIVHW,,,236,M,05.4,N,,*62
$IIVLW,01330,N,000.1,N*53
$IIVWR,038,L,11.2,N,,,,*76
$IIDPT,012.2,-1.0,*41
$IIGLL,5450.938,N,00931.254,E,091735,A,A*57
$IIHDG,236,,,,*50
$IIMTW,+17.5,C*3B
$IIMWV,322,R,11.2,N,A*12
$IIMWV,295,T,07.9,N,A*15
$IIRMC,091736,A,5450.937,N,00931.252,E,05.1,242,010813,,,A*4F
$IIVHW,,,237,M,05.4,N,,*63
$IIVLW,01330,N,000.1,N*53
$IIVWR,038,L,10.7,N,,,,*72
$IIDPT,011.9,-1.0,*49
$IIGLL,5450.937,N,00931.252,E,091736,A,A*5D
$IIHDG,237,,,,*51
$IIMTW,+20.0,C*3A
$IIMWV,322,R,10.7,N,A*16
$IIMWV,294,T,07.2,N,A*1F
$IIRMC,091737,A,5450.937,N,00931.250,E,05.0,239,010813,,,A*41
$IIVHW,,,237,M,05.4,N,,*63
$IIVLW,01330,N,000.1,N*53
$IIVWR,032,L,10.4,N,,,,*7B
$IIDPT,011.6,-1.0,*46
$IIGLL,5450.937,N,00931.250,E,091737,A,A*5E
$GPRMB,A,9.00,R,003,004,4917.24,N,12309.57,W,001.3,052.5,000.5,V*37
$GPRMB,A,9.,,,*30
$IIMTW,+20.0,C*3A
$IIMWV,331,R,09.8,N,A*13
$IIMWV,301,T,06.4,N,A*15
$IIRMC,091738,A,5450.936,N,00931.248,E,05.1,242,010813,,,A*4B
$IIVHW,,,236,M,05.4,N,,*62
$IIVLW,01330,N,000.1,N*53
$IIVWR,029,L,09.8,N,,,,*75
$IIDPT,011.3,-1.0,*43
$IIGLL,5450.936,N,00931.248,E,091738,A,A*59
$IIHDG,236,,,,*50
$IIMTW,+19.5,C*35
$IIMWV,332,R,09.5,N,A*1D
$IIMWV,303,T,05.5,N,A*15
$IIRMC,091739,A,5450.936,N,00931.245,E,05.0,242,010813,,,A*46
$IIVHW,,,236,M,05.4,N,,*62
$IIVLW,01330,N,000.1,N*53
$IIVWR,028,L,09.5,N,,,,*79
$IIDPT,011.3,-1.0,*43
$IIGLL,5450.936,N,00931.245,E,091739,A,A*55
$IIHDG,237,,,,*51
$IIMTW,+19.5,C*35
$IIMWV,334,R,09.5,N,A*1B
$IIMWV,303,T,05.2,N,A*12
$IIRMC,091740,A,5450.935,N,00931.243,E,05.0,242,010813,,,A*4D
$IIVHW,,,237,M,05.4,N,,*63
$IIVLW,01330,N,000.1,N*53
$IIVWR,026,L,09.5,N,,,,*77
$GPRMB,A,0.00,R,003,004,4917.24,N,12309.57,W,001.3,052.5,000.5,V*3E
$GPRMB,A,0.00,R,0,*5B
$IIGLL,5450.934,N,00931.241,E,091741,A,A*5C
$IIHDG,237,,,,*51
$IIMTW,+20.0,C*3A
$IIMWV,335,R,08.9,N,A*17
$IIMWV,306,T,05.0,N,A*15
$IIRMC,091741,A,5450.934,N,00931.241,E,04.8,244,010813,,,A*40
$IIVHW,,,237,M,05.4,N,,*63
$IIVLW,01330,N,000.1,N*53
$IIVWR,025,L,08.9,N,,,,*79
$IIDPT,011.5,-1.0,*45
$IIGLL,5450.934,N,00931.239,E,091742,A,A*50
$IIHDG,236,,,,*50
$IIMTW,+17.5,C*3B
$IIMWV,335,R,09.2,N,A*1D
$IIMWV,304,T,04.4,N,A*12
$IIRMC,091742,A,5450.934,N,00931.239,E,04.6,245,010813,,,A*43
$IIVHW,,,236,M,05.4,N,,*62
$IIVLW,01330,N,000.1,N*53
$IIVWR,026,L,09.4,N,,,,*76
$IIDPT,011.9,-1.0,*49
$IIGLL,5450.933,N,00931.237,E,091743,A,A*58
$IIHDG,236,,,,*50
$IIMTW,+17.5,C*3B
$IIMWV,334,R,09.4,N,A*1A
$IIMWV,307,T,04.7,N,A*12
$IIRMC,091743,A,5450.933,N,00931.237,E,04.9,242,010813,,,A*43
$GPRMB,A,1.00,R,003,004,4917.24,N,12309.57,W,001.3,052.5,000.5,V*3F
$GPVHW,,,236,M,05.4,N,,*75
$IIVLW,01330,N,000.1,N*53
$IIVWR,028,L,09.5,N,,,,*79
$IIDPT,013.9,-1.0,*4B
$IIGLL,5450.933,N,00931.235,E,091744,A,A*5D
$IIHDG,235,,,,*53
$IIMTW,+19.5,C*35
$IIMWV,332,R,09.5,N,A*1D
$IIMWV,305,T,05.0,N,A*16
$IIRMC,091744,A,5450.933,N,00931.235,E,04.9,244,010813,,,A*40
$IIVHW,,,234,M,05.4,N,,*60
$IIVLW,01330,N,000.1,N*53
$IIVWR,033,L,09.5,N,,,,*73
$IIDPT,014.3,-1.0,*46
$IIGLL,5450.932,N,00931.232,E,091745,A,A*5A
$IIHDG,234,,,,*52
$IIMTW,+20.5,C*3F
$IIMWV,327,R,09.5,N,A*19
$IIMWV,303,T,05.2,N,A*12
$IIRMC,091746,A,5450.931,N,00931.230,E,04.8,237,010813,,,A*40
$IIVHW,,,234,M,05.4,N,,*60
$IIVLW,01330,N,000.1,N*53
$IIVWR,037,L,09.4,N,,,,*76
$IIDPT,014.3,-1.0,*46
$IIGLL,5450.931,N,00931.230,E,091746,A,A*58
$IIHDG,234,,,,*52
$IIMTW,+17.5,C*3B
$GPRMB,A,2.00,R,003,004,4917.24,N,12309.57,W,001.3,052.5,000.5,V*3C
$IIMWV,323,R,09.4,N,A*1C
$IIMWV,291,T,05.9,N,A*13
$IIRMC,091747,A,5450.930,N,00931.228,E,04.8,238,010813,,,A*46
$IIVHW,,,234,M,05.4,N,,*60
$IIVLW,01330,N,000.1,N*53
$IIVWR,035,L,09.2,N,,,,*72
$IIDPT,020.2,-1.0,*40
$IIGLL,5450.930,N,00931.228,E,091747,A,A*51
$IIHDG,234,,,,*52
$IIMTW,+17.5,C*3B
$IIMWV,324,R,09.8,N,A*17
$IIMWV,292,T,05.6,N,A*1F
$IIRMC,091748,A,5450.930,N,00931.226,E,04.9,241,010813,,,A*48
$IIVHW,,,235,M,05.4,N,,*61
$IIVLW,01330,N,000.1,N*53
$IIVWR,036,L,09.8,N,,,,*7B
$IIDPT,020.2,-1.0,*40
$IIGLL,5450.930,N,00931.226,E,091748,A,A*50
$IIHDG,235,,,,*53
$IIMTW,+18.0,C*31
$IIMWV,323,R,10.2,N,A*12
$IIMWV,293,T,06.1,N,A*1A
$IIRMC,091749,A,5450.929,N,00931.224,E,05.0,241,010813,,,A*4B
$IIVHW,,,234,M,05.4,N,,*60
$IIVLW,01330,N,000.1,N*53
$IIVWR,037,L,10.2,N,,,,*78
$IIDPT,020.2,-1.0,*40
$GPRMB,A,3.00,R,003,004,4917.24,N,12309.57,W,001.3,052.5,000.5,V*3D
$GPRMB,A,3..929,N,00931.224,E,091749,A,A*22
$IIHDG,234,,,,*52
$IIMTW,+17.5,C*3B
$IIMWV,326,R,10.9,N,A*1C
$IIMWV,293,T,06.6,N,A*1D
$IIRMC,091750,A,5450.928,N,00931.222,E,04.9,239,010813,,,A*43
$IIVHW,,,234,M,05.4,N,,*60
$IIVLW,01330,N,000.1,N*53
$IIVWR,034,L,10.9,N,,,,*70
$IIDPT,020.2,-1.0,*40
$IIGLL,5450.927,N,00931.220,E,091751,A,A*58
$IIHDG,233,,,,*55
$IIMTW,+17.5,C*3B
$IIMWV,326,R,11.3,N,A*17
$IIMWV,300,T,07.0,N,A*11
$IIRMC,091751,A,5450.927,N,00931.220,E,05.0,234,010813,,,A*4A
$IIVHW,,,233,M,05.5,N,,*66
$IIVLW,01330,N,000.1,N*53
$IIVWR,034,L,11.3,N,,,,*7B
$IIDPT,020.9,-1.0,*4B
$IIGLL,5450.927,N,00931.218,E,091752,A,A*50
$IIHDG,233,,,,*55
$IIMTW,+17.5,C*3B
$IIMWV,332,R,10.7,N,A*17
$IIMWV,301,T,07.3,N,A*13
$IIRMC,091752,A,5450.927,N,00931.218,E,05.0,237,010813,,,A*41
$IIVHW,,,233,M,05.5,N,,*66
$GPRMB,A,4.00,R,003,004,4917.24,N,12309.57,W,001.3,052.5,000.5,V*3A
$GPRLW,01330,N,000.1,N*40
$IIVWR,026,L,10.5,N,,,,*7F
$IIDPT,013.3,-1.0,*41
$IIGLL,5450.926,N,00931.216,E,091753,A,A*5E
$IIHDG,233,,,,*55
$IIMTW,+17.5,C*3B
$IIMWV,334,R,10.5,N,A*13
$IIMWV,308,T,06.3,N,A*1B
$IIRMC,091753,A,5450.926,N,00931.216,E,05.0,238,010813,,,A*40
$IIVHW,,,233,M,05.5,N,,*66
$IIVLW,01330,N,000.1,N*53
$IIVWR,024,L,09.7,N,,,,*77
$IIDPT,013.3,-1.0,*41
$IIGLL,5450.925,N,00931.214,E,091754,A,A*58
$IIHDG,233,,,,*55
$IIMTW,+17.5,C*3B
$IIMWV,336,R,09.7,N,A*1B
$IIMWV,310,T,06.0,N,A*11
$IIRMC,091754,A,5450.925,N,00931.214,E,05.1,239,010813,,,A*46
$IIVHW,,,233,M,05.4,N,,*67
$IIVLW,01330,N,000.1,N*53
$IIVWR,022,L,08.9,N,,,,*7E
$IIDPT,012.8,-1.0,*4B
$IIGLL,5450.925,N,00931.212,E,091755,A,A*5F
$IIHDG,233,,,,*55
$IIMTW,+17.5,C*3B
$IIMWV,338,R,08.9,N,A*1A
$IIMWV,310,T,05.1,N,A*13
$GPRMB,A,5.00,R,003,004,4917.24,N,12309.57,W,001.3,052.5,000.5,V*3B
$IIRMC,091756,A,5450.924,N,00931.210,E,05.5,237,010813,,,A*4B
$IIVHW,,,233,M,05.4,N,,*67
$IIVLW,01330,N,000.1,N*53
$IIVWR,022,L,08.6,N,,,,*71
$IIDPT,012.6,-1.0,*45
$IIGLL,5450.924,N,00931.210,E,091756,A,A*5F
$IIHDG,233,,,,*55
$IIMTW,+17.5,C*3B
$IIMWV,338,R,08.6,N,A*15
$IIMWV,309,T,03.9,N,A*15
$IIRMC,091757,A,5450.923,N,00931.208,E,04.9,239,010813,,,A*47
$IIVHW,,,233,M,05.4,N,,*67
$IIVLW,01330,N,000.1,N*53
$IIVWR,028,L,08.5,N,,,,*78
$IIDPT,012.5,-1.0,*46
$IIGLL,5450.923,N,00931.208,E,091757,A,A*50
$IIHDG,233,,,,*55
$IIMTW,+17.5,C*3B
$IIMWV,331,R,08.1,N,A*1B
$IIMWV,297,T,04.3,N,A*1E
$IIRMC,091758,A,5450.922,N,00931.206,E,04.8,239,010813,,,A*46
$IIVHW,,,232,M,05.4,N,,*66
$IIVLW,01330,N,000.1,N*53
$IIVWR,029,L,08.1,N,,,,*7D
$IIDPT,012.5,-1.0,*46
$GPRMB,A,6.00,R,003,004,4917.24,N,12309.57,W,001.3,052.5,000.5,V*38
$GPRMB,A,6.00,R,003,004,4917.2491758,A,A*57
$IIHDG,232,,,,*54
$IIMTW,+18.0,C*31
$IIMWV,329,R,08.4,N,A*17
$IIMWV,293,T,04.1,N,A*18
$IIRMC,091759,A,5450.922,N,00931.203,E,04.7,238,010813,,,A*4C
$IIVHW,,,232,M,05.3,N,,*61
$IIVLW,01330,N,000.1,N*53
$IIVWR,031,L,08.4,N,,,,*71
$IIDPT,012.5,-1.0,*46
$IIGLL,5450.922,N,00931.203,E,091759,A,A*54
$IIHDG,230,,,,*56
$IIMTW,+18.0,C*31
$IIMWV,330,R,08.5,N,A*1E
$IIMWV,293,T,04.6,N,A*1F
$IIRMC,091800,A,5450.921,N,00931.201,E,04.8,235,010813,,,A*4C
$IIVHW,,,230,M,05.3,N,,*63
$IIVLW,01330,N,000.1,N*53
$IIVWR,030,L,08.5,N,,,,*71
$IIDPT,012.5,-1.0,*46
$IIGLL,5450.921,N,00931.199,E,091801,A,A*55
$IIHDG,231,,,,*57
$IIMTW,+18.0,C*31
$IIMWV,330,R,09.2,N,A*18
$IIMWV,294,T,04.6,N,A*18
$IIRMC,091801,A,5450.921,N,00931.199,E,05.2,235,010813,,,A*44
$IIVHW,,,231,M,05.3,N,,*62
$IIVLW,01330,N,000.1,N*53
$GPRMB,A,7.00,R,003,004,4917.24,N,12309.57,W,001.3,052.5,000.5,V*39
$IIVWR,030,L,09.2,N,,,,*77
$IIDPT,012.6,-1.0,*45
$IIGLL,5450.920,N,00931.197,E,091802,A,A*59
$IIHDG,232,,,,*54
$IIMTW,+18.0,C*31
$IIMWV,331,R,09.4,N,A*1F
$IIMWV,301,T,05.3,N,A*11
$IIRMC,091802,A,5450.920,N,00931.197,E,04.8,233,010813,,,A*45
$IIVHW,,,232,M,05.3,N,,*61
$IIVLW,01330,N,000.1,N*53
$IIVWR,029,L,08.8,N,,,,*74
$IIDPT,013.0,-1.0,*42
$IIGLL,5450.919,N,00931.195,E,091803,A,A*50
$IIHDG,234,,,,*52
$IIMTW,+19.5,C*35
$IIMWV,331,R,08.8,N,A*12
$IIMWV,302,T,05.3,N,A*12
$IIRMC,091803,A,5450.919,N,00931.195,E,05.0,238,010813,,,A*4E
$IIVHW,,,234,M,05.3,N,,*67
$IIVLW,01330,N,000.1,N*53
$IIVWR,029,L,08.6,N,,,,*7A
$IIDPT,012.8,-1.0,*4B
$IIGLL,5450.919,N,00931.193,E,091804,A,A*51
$IIHDG,236,,,,*50
$IIMTW,+21.0,C*3B
$IIMWV,331,R,08.6,N,A*1C
$IIMWV,299,T,04.7,N,A*14
$GPRMB,A,8.00,R,003,004,4917.24,N,12309.57,W,001.3,052.5,000.5,V*36
$GPRMB,A,8.00,R,003,004,4917.24,N,1230904.8,240,010813,,,A*5E
$IIVHW,,,235,M,05.2,N,,*67
$IIVLW,01330,N,000.1,N*53
$IIVWR,028,L,08.5,N,,,,*78
$IIDPT,012.8,-1.0,*4B
$IIGLL,5450.919,N,00931.193,E,091804,A,A*51
$IIHDG,235,,,,*53
$IIMTW,+20.5,C*3F
$IIMWV,332,R,08.5,N,A*1C
$IIMWV,297,T,04.6,N,A*1B
$IIRMC,091806,A,5450.918,N,00931.189,E,04.6,243,010813,,,A*4C
$IIVHW,,,236,M,05.2,N,,*64
$IIVLW,01330,N,000.1,N*53
$IIVWR,024,L,07.1,N,,,,*7F
$IIDPT,013.1,-1.0,*43
$IIGLL,5450.918,N,00931.189,E,091806,A,A*59
$IIHDG,236,,,,*50
$IIMTW,+20.5,C*3F
$IIMWV,336,R,07.1,N,A*13
$IIMWV,293,T,03.1,N,A*1F
$IIRMC,091807,A,5450.917,N,00931.187,E,04.4,243,010813,,,A*4E
$IIVHW,,,236,M,05.1,N,,*67
$IIVLW,01330,N,000.1,N*53
$IIVWR,023,L,07.3,N,,,,*7A
$IIDPT,012.7,-1.0,*44
$IIGLL,5450.917,N,00931.187,E,091807,A,A*59
$GPRMB,A,9.00,R,003,004,4917.24,N,12309.57,W,001.3,052.5,000.5,V*37
$GPRMB,A,9.,,,*30
$IIMTW,+20.5,C*3F
$IIMWV,339,R,06.6,N,A*1A
$IIMWV,298,T,03.1,N,A*14
$IIRMC,091808,A,5450.916,N,00931.185,E,04.5,243,010813,,,A*43
$IIVHW,,,237,M,05.1,N,,*66
$IIVLW,01330,N,000.1,N*53
$IIVWR,021,L,06.6,N,,,,*7C
$IIDPT,013.1,-1.0,*43
$IIGLL,5450.916,N,00931.185,E,091808,A,A*55
$IIHDG,237,,,,*51
$IIMTW,+18.0,C*31
$IIMWV,342,R,07.1,N,A*10
$IIMWV,293,T,02.5,N,A*1A
$IIRMC,091809,A,5450.916,N,00931.183,E,04.5,244,010813,,,A*43
$IIVHW,,,238,M,05.0,N,,*68
$IIVLW,01330,N,000.1,N*53
$IIVWR,018,L,07.1,N,,,,*70
$IIDPT,012.7,-1.0,*44
$IIGLL,5450.916,N,00931.183,E,091809,A,A*52
$IIHDG,241,,,,*50
$IIMTW,+20.0,C*3A
$IIMWV,006,R,00.0,N,A*15
$IIMWV,306,T,02.7,N,A*15
$IIRMC,091810,A,5450.915,N,00931.181,E,04.6,247,010813,,,A*4A
$IIVHW,,,241,M,05.0,N,,*66
$IIVLW,01330,N,000.1,N*53
$IIVWR,006,R,00.0,N,,,,*67
$GPRMB,A,0.00,R,003,004,4917.24,N,12309.57,W,001.3,052.5,000.5,V*3E
$GPRMB,A,0.00,R.0,*59
$IIGLL,5450.915,N,00931.179,E,091811,A,A*5D
$IIHDG,243,,,,*52
$IIMTW,+20.0,C*3A
$IIMWV,332,R,06.5,N,A*12
$IIMWV,006,T,05.0,N,A*16
$IIRMC,091811,A,5450.915,N,00931.179,E,04.3,247,010813,,,A*49
$IIVHW,,,243,M,04.9,N,,*6C
$IIVLW,01330,N,000.1,N*53
$IIVWR,028,L,06.5,N,,,,*76
$IIDPT,014.0,-1.0,*45
$IIGLL,5450.914,N,00931.177,E,091812,A,A*51
$IIHDG,245,,,,*54
$IIMTW,+18.0,C*31
$IIMWV,336,R,06.3,N,A*10
$IIMWV,283,T,03.0,N,A*1F
$IIRMC,091812,A,5450.914,N,00931.177,E,04.4,253,010813,,,A*47
$IIVHW,,,245,M,04.9,N,,*6A
$IIVLW,01330,N,000.1,N*53
$IIVWR,028,L,06.4,N,,,,*77
$IIDPT,014.1,-1.0,*44
$IIGLL,5450.914,N,00931.175,E,091813,A,A*52
$IIHDG,247,,,,*56
$IIMTW,+20.5,C*3F
$IIMWV,332,R,06.4,N,A*13
$IIMWV,286,T,02.5,N,A*1E
$IIRMC,091813,A,5450.914,N,00931.175,E,04.5,254,010813,,,A*42
$GPRMB,A,1.00,R,003,004,4917.24,N,12309.57,W,001.3,052.5,000.5,V*3F
$GIVHW,,,247,M,04.9,N,,*66
$IIVLW,01330,N,000.1,N*53
$IIVWR,035,L,06.4,N,,,,*7B
$IIDPT,012.8,-1.0,*4B
$IIGLL,5450.914,N,00931.173,E,091814,A,A*53
$IIHDG,247,,,,*56
$IIMTW,+20.5,C*3F
$IIMWV,325,R,06.4,N,A*15
$IIMWV,283,T,03.0,N,A*1F
$IIRMC,091814,A,5450.914,N,00931.173,E,04.3,255,010813,,,A*44
$IIVHW,,,247,M,04.8,N,,*69
$IIVLW,01330,N,000.1,N*53
$IIVWR,038,L,05.9,N,,,,*78
$IIDPT,012.8,-1.0,*4B
$IIGLL,5450.913,N,00931.171,E,091815,A,A*57
$IIHDG,247,,,,*56
$IIMTW,+20.5,C*3F
$IIMWV,322,R,05.9,N,A*1C
$IIMWV,275,T,03.6,N,A*10
$IIRMC,091816,A,5450.913,N,00931.168,E,04.4,254,010813,,,A*4D
$IIVHW,,,248,M,04.7,N,,*69
$IIVLW,01330,N,000.1,N*53
$IIVWR,038,L,06.2,N,,,,*70
$IIDPT,012.8,-1.0,*4B
$IIGLL,5450.913,N,00931.168,E,091816,A,A*5C
$IIHDG,248,,,,*59
$IIMTW,+21.0,C*3B
$GPRMB,A,2.00,R,003,004,4917.24,N,12309.57,W,001.3,052.5,000.5,V*3C
$IIMWV,322,R,06.2,N,A*14
$IIMWV,270,T,03.8,N,A*1B
$IIRMC,091817,A,5450.913,N,00931.166,E,04.1,255,010813,,,A*46
$IIVHW,,,248,M,04.7,N,,*69
$IIVLW,01330,N,000.1,N*53
$IIVWR,039,L,05.9,N,,,,*79
$IIDPT,012.8,-1.0,*4B
$IIGLL,5450.913,N,00931.166,E,091817,A,A*53
$IIHDG,248,,,,*59
$IIMTW,+21.0,C*3B
$IIMWV,323,R,06.2,N,A*15
$IIMWV,267,T,03.7,N,A*12
$IIRMC,091818,A,5450.913,N,00931.164,E,04.3,257,010813,,,A*4B
$IIVHW,,,248,M,04.7,N,,*69
$IIVLW,01330,N,000.1,N*53
$IIVWR,037,L,06.2,N,,,,*7F
$IIDPT,012.8,-1.0,*4B
$IIGLL,5450.913,N,00931.164,E,091818,A,A*5E
$IIHDG,248,,,,*59
$IIMTW,+21.0,C*3B
$IIMWV,324,R,06.3,N,A*13
$IIMWV,273,T,03.7,N,A*17
$IIRMC,091819,A,5450.913,N,00931.162,E,04.2,256,010813,,,A*4C
$IIVHW,,,248,M,04.7,N,,*69
$IIVLW,01330,N,000.1,N*53
$IIVWR,036,L,06.3,N,,,,*7F
$IIDPT,012.8,-1.0,*4B
$GPRMB,A,3.00,R,003,004,4917.24,N,12309.57,W,001.3,052.5,000.5,V*3D
$GPRMB,A,3..913,N,00931.162,E,091819,A,A*20
$IIHDG,247,,,,*56
$IIMTW,+21.0,C*3B
$IIMWV,326,R,06.4,N,A*16
$IIMWV,276,T,03.7,N,A*12
$IIRMC,091820,A,5450.912,N,00931.160,E,04.1,258,010813,,,A*48
$IIVHW,,,247,M,04.6,N,,*67
$IIVLW,01330,N,000.1,N*53
$IIVWR,034,L,06.4,N,,,,*7A
$IIDPT,012.8,-1.0,*4B
$IIGLL,5450.912,N,00931.158,E,091821,A,A*5A
$IIHDG,248,,,,*59
$IIMTW,+21.0,C*3B
$IIMWV,329,R,06.1,N,A*1C
$IIMWV,280,T,03.5,N,A*19
$IIRMC,091821,A,5450.912,N,00931.158,E,04.3,255,010813,,,A*4D
$IIVHW,,,248,M,04.6,N,,*68
$IIVLW,01330,N,000.1,N*53
$IIVWR,031,L,06.1,N,,,,*7A
$IIDPT,012.8,-1.0,*4B
$IIGLL,5450.912,N,00931.156,E,091822,A,A*57
$IIHDG,248,,,,*59
$IIMTW,+21.0,C*3B
$IIMWV,332,R,06.2,N,A*15
$IIMWV,279,T,03.1,N,A*1B
$IIRMC,091822,A,5450.912,N,00931.156,E,03.9,256,010813,,,A*4E
$IIVHW,,,248,M,04.6,N,,*68
$GPRMB,A,4.00,R,003,004,4917.24,N,12309.57,W,001.3,052.5,000.5,V*3A
$GPVLW,01330,N,000.1,N*44
$IIVWR,029,L,06.0,N,,,,*72
$IIDPT,012.8,-1.0,*4B
$IIGLL,5450.912,N,00931.155,E,091823,A,A*55
$IIHDG,247,,,,*56
$IIMTW,+17.5,C*3B
$IIMWV,331,R,06.0,N,A*14
$IIMWV,285,T,03.0,N,A*19
$IIRMC,091823,A,5450.912,N,00931.155,E,04.1,257,010813,,,A*42
$IIVHW,,,247,M,04.6,N,,*67
$IIVLW,01330,N,000.1,N*53
$IIVWR,031,L,06.2,N,,,,*79
$IIDPT,012.8,-1.0,*4B
$IIGLL,5450.912,N,00931.153,E,091824,A,A*54
$IIHDG,247,,,,*56
$IIMTW,+17.5,C*3B
$IIMWV,329,R,06.2,N,A*1F
$IIMWV,282,T,02.8,N,A*17
$IIRMC,091824,A,5450.912,N,00931.153,E,03.9,254,010813,,,A*4F
$IIVHW,,,248,M,04.5,N,,*6B
$IIVLW,01330,N,000.1,N*53
$IIVWR,034,L,06.0,N,,,,*7E
$IIDPT,012.8,-1.0,*4B
$IIGLL,5450.912,N,00931.151,E,091825,A,A*57
$IIHDG,248,,,,*59
$IIMTW,+20.0,C*3A
$IIMWV,326,R,06.0,N,A*12
$IIMWV,282,T,03.2,N,A*1C
$GPRMB,A,5.00,R,003,004,4917.24,N,12309.57,W,001.3,052.5,000.5,V*3B
$IIRMC,091826,A,5450.911,N,00931.149,E,04.0,257,010813,,,A*48
$IIVHW,,,248,M,04.5,N,,*6B
$IIVLW,01330,N,000.1,N*53
$IIVWR,036,L,06.2,N,,,,*7E
$IIDPT,012.8,-1.0,*4B
$IIGLL,5450.911,N,00931.149,E,091826,A,A*5E
$IIHDG,248,,,,*59
$IIMTW,+17.5,C*3B
$IIMWV,324,R,06.2,N,A*12
$IIMWV,276,T,03.6,N,A*13
$IIRMC,091827,A,5450.911,N,00931.147,E,04.0,255,010813,,,A*45
$IIVHW,,,248,M,04.5,N,,*6B
$IIVLW,01330,N,000.1,N*53
$IIVWR,039,L,05.9,N,,,,*79
$IIDPT,012.8,-1.0,*4B
$IIGLL,5450.911,N,00931.147,E,091827,A,A*51
$IIHDG,248,,,,*59
$IIMTW,+19.5,C*35
$IIMWV,317,R,06.1,N,A*11
$IIMWV,271,T,03.7,N,A*15
$IIRMC,091828,A,5450.911,N,00931.145,E,04.0,256,010813,,,A*4B
$IIVHW,,,247,M,04.5,N,,*64
$IIVLW,01330,N,000.2,N*50
$IIVWR,043,L,06.1,N,,,,*7F
$IIDPT,013.2,-1.0,*40
$GPRMB,A,6.00,R,003,004,4917.24,N,12309.57,W,001.3,052.5,000.5,V*38
$GPRMB,A,6.00,R,003,004,4917.2491828,A,A*5F
$IIHDG,247,,,,*56
$IIMTW,+21.0,C*3B
$IIMWV,314,R,06.7,N,A*14
$IIMWV,269,T,04.1,N,A*1D
$IIRMC,091829,A,5450.911,N,00931.144,E,03.8,256,010813,,,A*44
$IIVHW,,,247,M,04.5,N,,*64
$IIVLW,01330,N,000.2,N*50
$IIVWR,046,L,06.7,N,,,,*7C
$IIDPT,013.2,-1.0,*40
$IIGLL,5450.911,N,00931.144,E,091829,A,A*5C
$IIHDG,247,,,,*56
$IIMTW,+21.0,C*3B
$IIMWV,314,R,06.7,N,A*14
$IIMWV,271,T,04.8,N,A*1D
$IIRMC,091830,A,5450.911,N,00931.142,E,03.8,254,010813,,,A*48
$IIVHW,,,247,M,04.4,N,,*65
$IIVLW,01330,N,000.2,N*50
$IIVWR,046,L,06.7,N,,,,*7C
$IIDPT,012.8,-1.0,*4B
$IIGLL,5450.911,N,00931.140,E,091831,A,A*51
$IIHDG,246,,,,*57
$IIMTW,+17.5,C*3B
$IIMWV,316,R,06.6,N,A*17
$IIMWV,271,T,04.8,N,A*1D
$IIRMC,091831,A,5450.911,N,00931.140,E,03.8,253,010813,,,A*4C
$IIVHW,,,246,M,04.4,N,,*64
$IIVLW,01330,N,000.2,N*50
$GPRMB,A,7.00,R,003,004,4917.24,N,12309.57,W,001.3,052.5,000.5,V*39
$IIVWR,044,L,06.6,N,,,,*7F
$IIDPT,012.7,-1.0,*44
$IIGLL,5450.910,N,00931.138,E,091832,A,A*5C
$IIHDG,246,,,,*57
$IIMTW,+19.5,C*35
$IIMWV,320,R,06.6,N,A*12
$IIMWV,273,T,04.5,N,A*12
$IIRMC,091832,A,5450.910,N,00931.138,E,04.0,256,010813,,,A*4B
$IIVHW,,,246,M,04.4,N,,*64
$IIVLW,01330,N,000.2,N*50
$IIVWR,037,L,06.6,N,,,,*7B
$IIDPT,012.5,-1.0,*46
$IIGLL,5450.910,N,00931.136,E,091833,A,A*53
$IIHDG,245,,,,*54
$IIMTW,+20.0,C*3A
$IIMWV,323,R,06.6,N,A*11
$IIMWV,278,T,04.2,N,A*1E
$IIRMC,091833,A,5450.910,N,00931.136,E,04.0,256,010813,,,A*44
$IIVHW,,,245,M,04.4,N,,*67
$IIVLW,01330,N,000.2,N*50
$IIVWR,034,L,06.7,N,,,,*79
$IIDPT,012.4,-1.0,*47
$IIGLL,5450.909,N,00931.134,E,091834,A,A*5E
$IIHDG,245,,,,*54
$IIMTW,+17.5,C*3B
$IIMWV,326,R,06.7,N,A*15
$IIMWV,282,T,03.9,N,A*17
$GPRMB,A,8.00,R,003,004,4917.24,N,12309.57,W,001.3,052.5,000.5,V*36
$GPRMB,A,8.00,R,003,004,4917.24,N,1230,04.3,248,010813,,,A*48
$IIVHW,,,245,M,04.3,N,,*60
$IIVLW,01330,N,000.2,N*50
$IIVWR,006,R,00.0,N,,,,*67
$IIDPT,012.4,-1.0,*47
$IIGLL,5450.909,N,00931.132,E,091835,A,A*59
$IIHDG,245,,,,*54
$IIMTW,+17.5,C*3B
$IIMWV,006,R,00.0,N,A*15
$IIMWV,287,T,03.8,N,A*13
$IIRMC,091836,A,5450.909,N,00931.130,E,04.1,253,010813,,,A*4B
$IIVHW,,,245,M,04.3,N,,*60
$IIVLW,01330,N,000.2,N*50
$IIVWR,033,L,06.9,N,,,,*70
$IIDPT,012.4,-1.0,*47
$IIGLL,5450.909,N,00931.130,E,091836,A,A*58
$IIHDG,245,,,,*54
$IIMTW,+20.5,C*3F
$IIMWV,327,R,06.9,N,A*1A
$IIMWV,291,T,03.9,N,A*15
$IIRMC,091837,A,5450.908,N,00931.128,E,04.2,253,010813,,,A*41
$IIVHW,,,245,M,04.3,N,,*60
$IIVLW,01330,N,000.2,N*50
$IIVWR,033,L,06.8,N,,,,*71
$IIDPT,012.4,-1.0,*47
$IIGLL,5450.908,N,00931.128,E,091837,A,A*51
$GPRMB,A,9.00,R,003,004,4917.24,N,12309.57,W,001.3,052.5,000.5,V*37
$GPRMB,A,9.,,,*30
$IIMTW,+20.5,C*3F
$IIMWV,328,R,06.1,N,A*1D
$IIMWV,291,T,03.8,N,A*14
$IIRMC,091838,A,5450.908,N,00931.126,E,04.1,255,010813,,,A*45
$IIVHW,,,246,M,04.2,N,,*62
$IIVLW,01330,N,000.2,N*50
$IIVWR,032,L,06.1,N,,,,*79
$IIDPT,012.4,-1.0,*47
$IIGLL,5450.908,N,00931.126,E,091838,A,A*50
$IIHDG,246,,,,*57
$IIMTW,+17.5,C*3B
$IIMWV,329,R,06.3,N,A*1E
$IIMWV,284,T,03.2,N,A*1A
$IIRMC,091839,A,5450.908,N,00931.125,E,03.8,256,010813,,,A*4A
$IIVHW,,,247,M,04.2,N,,*63
$IIVLW,01330,N,000.2,N*50
$IIVWR,031,L,06.3,N,,,,*78
$IIDPT,012.6,-1.0,*45
$IIGLL,5450.908,N,00931.125,E,091839,A,A*52
$IIHDG,247,,,,*56
$IIMTW,+20.5,C*3F
$IIMWV,327,R,06.3,N,A*10
$IIMWV,289,T,03.3,N,A*16
$IIRMC,091840,A,5450.908,N,00931.123,E,03.9,256,010813,,,A*43
$IIVHW,,,247,M,04.2,N,,*63
$IIVLW,01330,N,000.2,N*50
$IIVWR,033,L,06.3,N,,,,*7A
$GPRMB,A,0.00,R,003,004,4917.24,N,12309.57,W,001.3,052.5,000.5,V*3E
$GPRMB,A,0.00,R,0,*5B
$IIGLL,5450.907,N,00931.121,E,091841,A,A*56
$IIHDG,245,,,,*54
$IIMTW,+21.0,C*3B
$IIMWV,326,R,06.9,N,A*1B
$IIMWV,285,T,03.5,N,A*1C
$IIRMC,091841,A,5450.907,N,00931.121,E,03.9,257,010813,,,A*4E
$IIVHW,,,245,M,04.2,N,,*61
$IIVLW,01330,N,000.2,N*50
$IIVWR,034,L,06.9,N,,,,*77
$IIDPT,012.8,-1.0,*4B
$IIGLL,5450.907,N,00931.119,E,091842,A,A*5E
$IIHDG,245,,,,*54
$IIMTW,+21.0,C*3B
$IIMWV,323,R,06.9,N,A*1E
$IIMWV,291,T,04.0,N,A*1B
$IIRMC,091842,A,5450.907,N,00931.119,E,03.8,254,010813,,,A*44
$IIVHW,,,245,M,04.2,N,,*61
$IIVLW,01330,N,000.2,N*50
$IIVWR,041,L,06.6,N,,,,*7A
$IIDPT,012.8,-1.0,*4B
$IIGLL,5450.907,N,00931.118,E,091843,A,A*5E
$IIHDG,246,,,,*57
$IIMTW,+17.5,C*3B
$IIMWV,319,R,06.6,N,A*18
$IIMWV,287,T,04.3,N,A*1F
$IIRMC,091843,A,5450.907,N,00931.118,E,03.9,254,010813,,,A*45
$GPRMB,A,1.00,R,003,004,4917.24,N,12309.57,W,001.3,052.5,000.5,V*3F
$GIVHW,,,246,M,04.2,N,,*6C
$IIVLW,01330,N,000.2,N*50
$IIVWR,043,L,07.1,N,,,,*7E
$IIDPT,012.8,-1.0,*4B
$IIGLL,5450.907,N,00931.116,E,091844,A,A*57
$IIHDG,246,,,,*57
$IIMTW,+21.0,C*3B
$IIMWV,317,R,07.1,N,A*10
$IIMWV,279,T,04.3,N,A*1E
$IIRMC,091844,A,5450.907,N,00931.116,E,03.7,255,010813,,,A*43
$IIVHW,,,246,M,04.1,N,,*61
$IIVLW,01330,N,000.2,N*50
$IIVWR,047,L,06.9,N,,,,*73
$IIDPT,012.8,-1.0,*4B
$IIGLL,5450.906,N,00931.114,E,091845,A,A*55
$IIHDG,246,,,,*57
$IIMTW,+21.0,C*3B
$IIMWV,313,R,06.9,N,A*1D
$IIMWV,281,T,04.8,N,A*12
$IIRMC,091846,A,5450.906,N,00931.113,E,03.7,254,010813,,,A*44
$IIVHW,,,245,M,04.1,N,,*62
$IIVLW,01330,N,000.2,N*50
$IIVWR,049,L,06.1,N,,,,*75
$IIDPT,012.8,-1.0,*4B
$IIGLL,5450.906,N,00931.113,E,091846,A,A*51
$IIHDG,245,,,,*54
$IIMTW,+17.5,C*3B
$GPRMB,A,2.00,R,003,004,4917.24,N,12309.57,W,001.3,052.5,000.5,V*3C
$IIMWV,311,R,06.1,N,A*17
$IIMWV,269,T,04.5,N,A*19
$IIRMC,091847,A,5450.906,N,00931.111,E,03.9,253,010813,,,A*4E
$IIVHW,,,245,M,04.1,N,,*62
$IIVLW,01330,N,000.2,N*50
$IIVWR,049,L,06.3,N,,,,*77
$IIDPT,012.8,-1.0,*4B
$IIGLL,5450.906,N,00931.111,E,091847,A,A*52
$IIHDG,245,,,,*54
$IIMTW,+20.5,C*3F
$IIMWV,313,R,06.5,N,A*11
$IIMWV,270,T,04.7,N,A*13
$IIRMC,091848,A,5450.905,N,00931.109,E,03.9,253,010813,,,A*4B
$IIVHW,,,245,M,04.1,N,,*62
$IIVLW,01330,N,000.2,N*50
$IIVWR,047,L,06.5,N,,,,*7F
$IIDPT,012.8,-1.0,*4B
$IIGLL,5450.905,N,00931.109,E,091848,A,A*57
$IIHDG,245,,,,*54
$IIMTW,+20.5,C*3F
$IIMWV,316,R,06.0,N,A*11
$IIMWV,274,T,04.7,N,A*17
$IIRMC,091849,A,5450.905,N,00931.107,E,04.0,250,010813,,,A*49
$IIVHW,,,245,M,04.1,N,,*62
$IIVLW,01330,N,000.2,N*50
$IIVWR,044,L,06.0,N,,,,*79
$IIDPT,012.8,-1.0,*4B
$GPRMB,A,3.00,R,003,004,4917.24,N,12309.57,W,001.3,052.5,000.5,V*3D
$GPRMB,A,3..905,N,00931.107,E,091849,A,A*21
$IIHDG,245,,,,*54
$IIMTW,+20.5,C*3F
$IIMWV,319,R,06.1,N,A*1F
$IIMWV,273,T,04.1,N,A*16
$IIRMC,091850,A,5450.904,N,00931.106,E,03.9,252,010813,,,A*4D
$IIVHW,,,245,M,04.0,N,,*63
$IIVLW,01330,N,000.2,N*50
$IIVWR,041,L,06.1,N,,,,*7D
$IIDPT,012.8,-1.0,*4B
$IIGLL,5450.904,N,00931.104,E,091851,A,A*53
$IIHDG,244,,,,*55
$IIMTW,+20.5,C*3F
$IIMWV,321,R,06.2,N,A*17
$IIMWV,276,T,04.0,N,A*12
$IIRMC,091851,A,5450.904,N,00931.104,E,03.8,249,010813,,,A*45
$IIVHW,,,244,M,04.0,N,,*62
$IIVLW,01330,N,000.2,N*50
$IIVWR,039,L,06.2,N,,,,*71
$IIDPT,012.8,-1.0,*4B
$IIGLL,5450.904,N,00931.103,E,091852,A,A*57
$IIHDG,244,,,,*55
$IIMTW,+18.0,C*31
$IIMWV,322,R,07.2,N,A*15
$IIMWV,280,T,03.9,N,A*15
$IIRMC,091852,A,5450.904,N,00931.103,E,03.7,251,010813,,,A*47
$IIVHW,,,244,M,04.0,N,,*62
$GPRMB,A,4.00,R,003,004,4917.24,N,12309.57,W,001.3,052.5,000.5,V*3A
$GIVLW,01330,N,000.2,N*5E
$IIVWR,038,L,06.9,N,,,,*7B
$IIDPT,012.8,-1.0,*4B
$IIGLL,5450.903,N,00931.101,E,091853,A,A*53
$IIHDG,243,,,,*52
$IIMTW,+21.0,C*3B
$IIMWV,322,R,06.9,N,A*1F
$IIMWV,290,T,04.6,N,A*1C
$IIRMC,091853,A,5450.903,N,00931.101,E,03.6,251,010813,,,A*42
$IIVHW,,,243,M,04.0,N,,*65
$IIVLW,01330,N,000.2,N*50
$IIVWR,038,L,06.8,N,,,,*7A
$IIDPT,012.8,-1.0,*4B
$IIGLL,5450.903,N,00931.100,E,091854,A,A*55
$IIHDG,243,,,,*52
$IIMTW,+21.0,C*3B
$IIMWV,322,R,06.8,N,A*1E
$IIMWV,288,T,04.4,N,A*17
$IIRMC,091854,A,5450.903,N,00931.100,E,03.6,250,010813,,,A*45
$IIVHW,,,243,M,03.9,N,,*6B
$IIVLW,01330,N,000.2,N*50
$IIVWR,037,L,06.5,N,,,,*78
$IIDPT,012.7,-1.0,*44
$IIGLL,5450.903,N,00931.098,E,091855,A,A*54
$IIHDG,243,,,,*52
$IIMTW,+21.0,C*3B
$IIMWV,323,R,06.5,N,A*12
$IIMWV,287,T,04.3,N,A*1F
$GPRMB,A,5.00,R,003,004,4917.24,N,12309.57,W,001.3,052.5,000.5,V*3B
$IIRMC,091856,A,5450.902,N,00931.097,E,03.6,249,010813,,,A*41
$IIVHW,,,242,M,03.9,N,,*6A
$IIVLW,01330,N,000.2,N*50
$IIVWR,035,L,07.0,N,,,,*7E
$IIDPT,012.7,-1.0,*44
$IIGLL,5450.902,N,00931.097,E,091856,A,A*59
$IIHDG,242,,,,*53
$IIMTW,+21.0,C*3B
$IIMWV,325,R,07.0,N,A*10
$IIMWV,293,T,04.2,N,A*1B
$IIRMC,091857,A,5450.902,N,00931.095,E,03.6,248,010813,,,A*43
$IIVHW,,,242,M,03.9,N,,*6A
$IIVLW,01330,N,000.2,N*50
$IIVWR,033,L,06.8,N,,,,*71
$IIDPT,012.7,-1.0,*44
$IIGLL,5450.902,N,00931.095,E,091857,A,A*5A
$IIHDG,242,,,,*53
$IIMTW,+20.5,C*3F
$IIMWV,326,R,07.3,N,A*10
$IIMWV,297,T,04.0,N,A*1D
$IIRMC,091858,A,5450.901,N,00931.094,E,03.7,249,010813,,,A*4E
$IIVHW,,,241,M,03.9,N,,*69
$IIVLW,01330,N,000.2,N*50
$IIVWR,034,L,07.3,N,,,,*7C
$IIDPT,012.7,-1.0,*44
$GPRMB,A,6.00,R,003,004,4917.24,N,12309.57,W,001.3,052.5,000.5,V*38
$GPRMB,A,6.00,R,003,004,4917.2091858,A,A*5C
$IIHDG,241,,,,*50
$IIMTW,+21.0,C*3B
$IIMWV,326,R,06.9,N,A*1B
$IIMWV,298,T,04.5,N,A*17
$IIRMC,091859,A,5450.901,N,00931.092,E,03.4,252,010813,,,A*40
$IIVHW,,,241,M,03.8,N,,*68
$IIVLW,01330,N,000.2,N*50
$IIVWR,034,L,06.9,N,,,,*77
$IIDPT,012.7,-1.0,*44
$IIGLL,5450.901,N,00931.092,E,091859,A,A*50
$GPRMB,A,7.00,R,003,004,4917.24,N,12309.57,W,001.3,052.5,000.5,V*39
$IIHDG,241,,,,*50
$IIMTW,+21.0,C*3B
$IIMWV,326,R,06.5,N,A*17
$IIMWV,295,T,04.2,N,A*1D
$IIRMC,091900,A,5450.901,N,00931.091,E,03.5,247,010813,,,A*4B
$IIVHW,,,241,M,03.8,N,,*68
$IIVLW,01330,N,000.2,N*50
$IIVWR,034,L,06.5,N,,,,*7B
$IIDPT,012.7,-1.0,*44
$IIGLL,5450.899,N,00931.086,E,091903,A,A*5B
$IIHDG,241,,,,*50
$IIMTW,+21.0,C*3B
$IIMWV,329,R,05.7,N,A*19
$IIMWV,297,T,03.4,N,A*1E
$IIRMC,091903,A,5450.899,N,00931.086,E,03.5,248,010813,,,A*41
$IIVHW,,,241,M,03.7,N,,*67
$IIVLW,01330,N,000.2,N*50
$IIVWR,031,L,05.7,N,,,,*7F
$IIDPT,012.7,-1.0,*44
$IIGLL,5450.899,N,00931.085,E,091904,A,A*5F
$IIHDG,242,,,,*53
$IIMTW,+18.0,C*31
$IIMWV,327,R,06.1,N,A*12
$IIMWV,291,T,03.1,N,A*1D
$IIRMC,091904,A,5450.899,N,00931.085,E,03.4,249,010813,,,A*45
$IIVHW,,,242,M,03.7,N,,*64
$GPRMB,A,8.00,R,003,004,4917.24,N,12309.57,W,001.3,052.5,000.5,V*36
$IIVLW,01330,N,000.2,N*50
$IIVWR,034,L,06.5,N,,,,*7B
$IIDPT,012.7,-1.0,*44
$IIGLL,5450.899,N,00931.083,E,091905,A,A*58
$IIHDG,242,,,,*53
$IIMTW,+20.5,C*3F
$IIMWV,326,R,06.5,N,A*17
$IIMWV,292,T,03.4,N,A*1B
$IIRMC,091905,A,5450.899,N,00931.083,E,03.7,250,010813,,,A*49
$IIVHW,,,242,M,03.7,N,,*64
$IIVLW,01330,N,000.2,N*50
$IIVWR,038,L,05.9,N,,,,*78
$IIDPT,012.7,-1.0,*44
$IIGLL,5450.898,N,00931.082,E,091906,A,A*5B
$IIHDG,242,,,,*53
$IIMTW,+21.0,C*3B
$IIMWV,322,R,05.9,N,A*1C
$IIMWV,293,T,03.9,N,A*17
$IIRMC,091906,A,5450.898,N,00931.082,E,03.8,248,010813,,,A*4C
$IIVHW,,,243,M,03.7,N,,*65
$IIVLW,01330,N,000.2,N*50
$IIVWR,039,L,06.1,N,,,,*72
$IIDPT,012.6,-1.0,*45
$IIGLL,5450.898,N,00931.080,E,091907,A,A*58
$IIHDG,243,,,,*52
$IIMTW,+21.0,C*3B
$IIMWV,321,R,06.1,N,A*14
$IIMWV,284,T,03.7,N,A*1F
$GPRMB,A,9.00,R,003,004,4917.24,N,12309.57,W,001.3,052.5,000.5,V*37
$IIRMC,091908,A,5450.897,N,00931.078,E,03.6,251,010813,,,A*4E
$IIVHW,,,244,M,03.7,N,,*62
$IIVLW,01330,N,000.2,N*50
$IIVWR,037,L,06.4,N,,,,*79
$IIDPT,012.5,-1.0,*46
$IIGLL,5450.897,N,00931.078,E,091908,A,A*5F
$IIHDG,244,,,,*55
$IIMTW,+21.0,C*3B
$IIMWV,323,R,06.4,N,A*13
$IIMWV,290,T,04.0,N,A*1A
$IIRMC,091909,A,5450.897,N,00931.077,E,03.6,250,010813,,,A*41
$IIVHW,,,243,M,03.7,N,,*65
$IIVLW,01330,N,000.2,N*50
$IIVWR,039,L,05.7,N,,,,*77
$IIDPT,012.4,-1.0,*47
$IIGLL,5450.897,N,00931.077,E,091909,A,A*51
$IIHDG,243,,,,*52
$IIMTW,+17.5,C*3B
$IIMWV,321,R,06.1,N,A*14
$IIMWV,281,T,03.5,N,A*18
$IIRMC,091910,A,5450.897,N,00931.075,E,03.4,253,010813,,,A*4A
$IIVHW,,,243,M,03.7,N,,*65
$IIVLW,01330,N,000.2,N*50
$IIVWR,039,L,06.1,N,,,,*72
$IIDPT,012.3,-1.0,*40
$GPRMB,A,0.00,R,003,004,4917.24,N,12309.57,W,001.3,052.5,000.5,V*3E
$GPRMB,A,0.00,R,003,004,4917.,091910,A,A*49
$IIHDG,243,,,,*52
$IIMTW,+18.0,C*31
$IIMWV,321,R,06.4,N,A*11
$IIMWV,285,T,03.9,N,A*10
$IIRMC,091911,A,5450.897,N,00931.074,E,03.3,251,010813,,,A*4F
$IIVHW,,,243,M,03.7,N,,*65
$IIVLW,01330,N,000.2,N*50
$IIVWR,039,L,06.4,N,,,,*77
$IIDPT,012.3,-1.0,*40
$IIGLL,5450.897,N,00931.074,E,091911,A,A*5B
$IIHDG,244,,,,*55
$IIMTW,+20.0,C*3A
$IIMWV,322,R,06.6,N,A*10
$IIMWV,287,T,04.1,N,A*1D
$IIRMC,091912,A,5450.896,N,00931.072,E,03.4,255,010813,,,A*48
$IIVHW,,,244,M,03.6,N,,*63
$IIVLW,01330,N,000.2,N*50
$IIVWR,038,L,06.6,N,,,,*74
$GPRMB,A,1.00,R,003,004,4917.24,N,12309.57,W,001.3,052.5,000.5,V*3F
$GPRMB,A,1.00,R,0,*5A
$IIGLL,5450.896,N,00931.069,E,091914,A,A*53
$IIHDG,244,,,,*55
$IIMTW,+18.0,C*31
$IIMWV,331,R,06.3,N,A*17
$IIMWV,297,T,03.3,N,A*19
$IIRMC,091914,A,5450.896,N,00931.069,E,03.3,254,010813,,,A*42
$IIVHW,,,244,M,03.6,N,,*63
$IIVLW,01330,N,000.2,N*50
$IIVWR,029,L,06.3,N,,,,*71
$IIDPT,012.1,-1.0,*42
$IIGLL,5450.895,N,00931.067,E,091915,A,A*5F
$IIHDG,243,,,,*52
$IIMTW,+20.5,C*3F
$IIMWV,327,R,06.6,N,A*15
$IIMWV,300,T,03.4,N,A*11
$IIRMC,091915,A,5450.895,N,00931.067,E,03.3,252,010813,,,A*48
$IIVHW,,,243,M,03.6,N,,*64
$IIVLW,01330,N,000.2,N*50
$IIVWR,036,L,06.7,N,,,,*7B
$IIDPT,012.2,-1.0,*41
$IIGLL,5450.895,N,00931.066,E,091916,A,A*5D
$IIHDG,243,,,,*52
$IIMTW,+20.5,C*3F
$IIMWV,324,R,06.7,N,A*17
$IIMWV,297,T,03.9,N,A*13
$IIRMC,091916,A,5450.895,N,00931.066,E,03.4,251,010813,,,A*4E
$GPRMB,A,2.00,R,003,004,4917.24,N,12309.57,W,001.3,052.5,000.5,V*3C
$IIVHW,,,243,M,03.6,N,,*64
$IIVLW,01330,N,000.2,N*50
$IIVWR,040,L,07.0,N,,,,*7C
$IIDPT,012.5,-1.0,*46
$IIGLL,5450.895,N,00931.064,E,091917,A,A*5E
$IIHDG,243,,,,*52
$IIMTW,+21.0,C*3B
$IIMWV,320,R,07.0,N,A*15
$IIMWV,293,T,04.2,N,A*1B
$IIRMC,091917,A,5450.895,N,00931.064,E,03.2,252,010813,,,A*48
$IIVHW,,,244,M,03.6,N,,*63
$IIVLW,01330,N,000.2,N*50
$IIVWR,043,L,06.7,N,,,,*79
$IIDPT,012.7,-1.0,*44
$IIGLL,5450.894,N,00931.063,E,091918,A,A*57
$IIHDG,244,,,,*55
$IIMTW,+20.5,C*3F
$IIMWV,317,R,06.7,N,A*17
$IIMWV,290,T,04.6,N,A*1C
$IIRMC,091919,A,5450.894,N,00931.061,E,03.2,251,010813,,,A*41
$IIVHW,,,243,M,03.6,N,,*64
$IIVLW,01330,N,000.2,N*50
$IIVWR,042,L,06.5,N,,,,*7A
$IIDPT,012.7,-1.0,*44
$IIGLL,5450.894,N,00931.061,E,091919,A,A*54
$IIHDG,243,,,,*52
$IIMTW,+18.0,C*31
$GPRMB,A,3.00,R,003,004,4917.24,N,12309.57,W,001.3,052.5,000.5,V*3D
$IIMWV,318,R,06.5,N,A*1A
$IIMWV,285,T,04.4,N,A*1A
$IIRMC,091920,A,5450.893,N,00931.060,E,03.3,251,010813,,,A*4C
$IIVHW,,,243,M,03.6,N,,*64
$IIVLW,01330,N,000.2,N*50
$IIVWR,039,L,06.5,N,,,,*76
$IIDPT,012.7,-1.0,*44
$IIGLL,5450.893,N,00931.060,E,091920,A,A*58
$IIHDG,243,,,,*52
$IIMTW,+20.5,C*3F
$IIMWV,323,R,06.0,N,A*17
$IIMWV,289,T,04.2,N,A*10
$IIRMC,091921,A,5450.893,N,00931.059,E,03.4,252,010813,,,A*43
$IIVHW,,,243,M,03.6,N,,*64
$IIVLW,01330,N,000.2,N*50
$IIVWR,037,L,06.0,N,,,,*7D
$IIDPT,012.7,-1.0,*44
$IIGLL,5450.893,N,00931.059,E,091921,A,A*53
$IIHDG,243,,,,*52
$IIMTW,+18.0,C*31
$IIMWV,326,R,06.1,N,A*13
$IIMWV,288,T,03.7,N,A*13
$IIRMC,091922,A,5450.893,N,00931.057,E,03.2,253,010813,,,A*49
$IIVHW,,,244,M,03.6,N,,*63
$IIVLW,01330,N,000.2,N*50
$IIVWR,034,L,06.1,N,,,,*7F
$IIDPT,012.7,-1.0,*44
$GPRMB,A,4.00,R,003,004,4917.24,N,12309.57,W,001.3,052.5,000.5,V*3A
$GPRMB,A,40.893,N,00931.057,E,091922,A,A*3E
$IIHDG,244,,,,*55
$IIMTW,+17.5,C*3B
$IIMWV,326,R,07.1,N,A*12
$IIMWV,292,T,03.6,N,A*19
$IIRMC,091923,A,5450.892,N,00931.056,E,03.3,251,010813,,,A*4B
$IIVHW,,,244,M,03.6,N,,*63
$IIVLW,01330,N,000.2,N*50
$IIVWR,034,L,07.1,N,,,,*7E
$IIDPT,012.7,-1.0,*44
$IIGLL,5450.892,N,00931.054,E,091924,A,A*5A
$IIHDG,244,,,,*55
$IIMTW,+21.0,C*3B
$IIMWV,329,R,06.7,N,A*1A
$IIMWV,300,T,04.4,N,A*16
$IIRMC,091924,A,5450.892,N,00931.054,E,03.4,250,010813,,,A*48
$IIVHW,,,244,M,03.6,N,,*63
$IIVLW,01330,N,000.2,N*50
$IIVWR,031,L,06.7,N,,,,*7C
$IIDPT,012.8,-1.0,*4B
$IIGLL,5450.892,N,00931.052,E,091925,A,A*5D
$IIHDG,244,,,,*55
$IIMTW,+17.5,C*3B
$IIMWV,333,R,07.9,N,A*1E
$IIMWV,302,T,03.9,N,A*1E
$IIRMC,091925,A,5450.892,N,00931.052,E,03.3,253,010813,,,A*4B
$IIVHW,,,244,M,03.6,N,,*63
$GPRMB,A,5.00,R,003,004,4917.24,N,12309.57,W,001.3,052.5,000.5,V*3B
$GIVLW,01330,N,000.2,N*5E
$IIVWR,030,L,07.7,N,,,,*7C
$IIDPT,012.8,-1.0,*4B
$IIGLL,5450.891,N,00931.051,E,091926,A,A*5E
$IIHDG,243,,,,*52
$IIMTW,+20.5,C*3F
$IIMWV,330,R,07.7,N,A*13
$IIMWV,314,T,04.8,N,A*1F
$IIRMC,091926,A,5450.891,N,00931.051,E,03.2,249,010813,,,A*42
$IIVHW,,,243,M,03.5,N,,*67
$IIVLW,01330,N,000.2,N*50
$IIVWR,032,L,08.3,N,,,,*75
$IIDPT,012.8,-1.0,*4B
$IIGLL,5450.891,N,00931.049,E,091927,A,A*56
$IIHDG,242,,,,*53
$IIMTW,+21.0,C*3B
$IIMWV,328,R,08.3,N,A*11
$IIMWV,308,T,04.8,N,A*12
$IIRMC,091927,A,5450.891,N,00931.049,E,03.4,250,010813,,,A*44
$IIVHW,,,241,M,03.5,N,,*65
$IIVLW,01330,N,000.2,N*50
$IIVWR,028,L,08.0,N,,,,*7D
$IIDPT,012.8,-1.0,*4B
$IIGLL,5450.891,N,00931.048,E,091928,A,A*58
$IIHDG,241,,,,*50
$IIMTW,+17.5,C*3B
$IIMWV,332,R,08.0,N,A*19
$IIMWV,308,T,05.4,N,A*1F
$GPRMB,A,6.00,R,003,004,4917.24,N,12309.57,W,001.3,052.5,000.5,V*38
$IIRMC,091929,A,5450.891,N,00931.046,E,03.1,251,010813,,,A*41
$IIVHW,,,240,M,03.5,N,,*64
$IIVLW,01330,N,000.2,N*50
$IIVWR,025,L,08.3,N,,,,*73
$IIDPT,012.8,-1.0,*4B
$IIGLL,5450.891,N,00931.046,E,091929,A,A*57
$IIHDG,240,,,,*51
$IIMTW,+20.0,C*3A
$IIMWV,335,R,08.3,N,A*1D
$IIMWV,319,T,05.1,N,A*1A
$IIRMC,091930,A,5450.891,N,00931.045,E,03.3,251,010813,,,A*48
$IIVHW,,,241,M,03.5,N,,*65
$IIVLW,01330,N,000.2,N*50
$IIVWR,025,L,08.0,N,,,,*70
$IIDPT,012.8,-1.0,*4B
$IIGLL,5450.891,N,00931.045,E,091930,A,A*5C
$IIHDG,241,,,,*50
$IIMTW,+20.5,C*3F
$IIMWV,332,R,08.3,N,A*1A
$IIMWV,318,T,04.8,N,A*13
$IIRMC,091931,A,5450.891,N,00931.043,E,03.1,252,010813,,,A*4E
$IIVHW,,,240,M,03.5,N,,*64
$IIVLW,01330,N,000.2,N*50
$IIVWR,028,L,08.3,N,,,,*7E
$IIDPT,012.8,-1.0,*4B
$GPRMB,A,7.00,R,003,004,4917.24,N,12309.57,W,001.3,052.5,000.5,V*39
$GPRMB,A,7.00,R,003,004,4917.2091931,A,A*53
$IIHDG,240,,,,*51
$IIMTW,+20.5,C*3F
$IIMWV,329,R,08.4,N,A*17
$IIMWV,313,T,05.3,N,A*12
$IIRMC,091932,A,5450.890,N,00931.042,E,03.2,253,010813,,,A*4F
$IIVHW,,,240,M,03.5,N,,*64
$IIVLW,01330,N,000.2,N*50
