$IIRMB,A,1.00,R,,VIDY,,,,,003.16,281,,V,A*65
$IIRMB,A,2.00,R,,VIDY,,,,,003.16,281,,V,A*66
$IIRMB,A,3.00,R,,VIDY,,,,,003.16,281,,V,A*67
$IIRMB,A,4.00,R,,VIDY,,,,,003.16,281,,V,A*60
$IIRMB,A,5.00,R,,VIDY,,,,,003.16,281,,V,A*61
$IIRMB,A,6.00,R,,VIDY,,,,,003.16,281,,V,A*62
$IIRMB,A,7.00,R,,VIDY,,,,,003.16,281,,V,A*63
$IIMWV,225,R,01.6,N,A*4C
$IIVHW,,,062,M,,,,*49
$IIVWR,135,L,01.6,N,,,,*53
$IIHDG,062,,,,*4B
$IIMTW,+00.0,C*4E
$IIMWV,255,R,05.7,N,A*4C
$IIVHW,,,062,M,00.0,N,,*49
$IIVLW,01330,N,000.0,N*4D
$IIVWR,105,L,05.7,N,,,,*53
$IIHDG,061,,,,*4B
$IIMTW,+20.5,C*4E
$IIMWV,266,R,05.0,N,A*4C
$IIMWV,255,T,05.7,N,A*4C
$IIVHW,,,061,M,00.0,N,,*49
$IIVLW,01330,N,000.0,N*4D
$IIVWR,094,L,05.0,N,,,,*53
$IIRMB,A,8.00,R,,VIDY,,,,,003.16,281,,V,A*6C
$IIMTW,+20.5,C*4E
$IIMWV,263,R,05.4,N,A*4C
$IIMWV,266,T,05.0,N,A*4C
$IIVHW,,,061,M,00.0,N,,*49
$IIVLW,01330,N,000.0,N*4D
$IIVWR,097,L,05.4,N,,,,*53
$IIDPT,002.7,-1.0,*40
$IIHDG,061,,,,*4B
$IIMTW,+20.5,C*4E
$IIMWV,257,R,04.9,N,A*4C
$IIMWV,263,T,05.4,N,A*4C
$IIVHW,,,061,M,00.0,N,,*49
$IIVLW,01330,N,000.0,N*4D
$IIVWR,103,L,04.9,N,,,,*53
$IIDPT,002.7,-1.0,*40
$IIHDG,061,,,,*4B
$IIMTW,+20.5,C*4E
$IIMWV,258,R,05.1,N,A*4C
$IIMWV,257,T,04.9,N,A*4C
$IIVHW,,,061,M,00.0,N,,*49
$IIVLW,01330,N,000.0,N*4D
$IIVWR,102,L,05.1,N,,,,*53
$IIDPT,002.7,-1.0,*40
$IIRMB,A,9.00,R,,VIDY,,,,,003.16,281,,V,A*6D
$IIMTW,+20.5,C*4E
$IIMWV,259,R,06.1,N,A*4C
$IIMWV,258,T,05.1,N,A*4C
$IIVHW,,,061,M,00.0,N,,*49
$IIVLW,01330,N,000.0,N*4D
$IIVWR,101,L,06.1,N,,,,*53
$IIDPT,002.7,-1.0,*40
$IIHDG,061,,,,*4B
$IIMTW,+20.5,C*4E
$IIMWV,257,R,05.6,N,A*4C
$IIMWV,259,T,06.1,N,A*4C
$IIVHW,,,061,M,00.0,N,,*49
$IIVLW,01330,N,000.0,N*4D
$IIVWR,103,L,05.6,N,,,,*53
$IIDPT,002.7,-1.0,*40
$IIHDG,061,,,,*4B
$IIMTW,+20.5,C*4E
$IIMWV,262,R,05.0,N,A*4C
$IIMWV,257,T,05.6,N,A*4C
$IIVHW,,,061,M,00.0,N,,*49
$IIVLW,01330,N,000.0,N*4D
$IIVWR,098,L,05.0,N,,,,*53
$IIDPT,002.7,-1.0,*40
$IIRMB,A,0.00,R,,VIDY,,,,,003.16,281,,V,A*64
$IIHDG,061,,,,*4B
$IIMTW,+20.5,C*4E
$IIMWV,262,R,06.6,N,A*4C
$IIMWV,262,T,05.0,N,A*4C
$IIRMC,192604,A,5450.264,N,00931.382,E,00.2,004,310713,,,A*5C
$IIVHW,,,061,M,00.0,N,,*49
$IIVLW,01330,N,000.0,N*4D
$IIVWR,098,L,06.6,N,,,,*53
$IIDPT,002.7,-1.0,*40
$IIGLL,5450.264,N,00931.382,E,192605,A,A*47
$IIHDG,061,,,,*4B
$IIMTW,+20.5,C*4E
$IIMWV,256,R,05.4,N,A*4C
$IIMWV,262,T,06.6,N,A*4C
$IIRMC,192605,A,5450.264,N,00931.382,E,00.2,013,310713,,,A*5C
$IIVHW,,,061,M,00.0,N,,*49
$IIVLW,01330,N,000.0,N*4D
$IIVWR,103,L,05.0,N,,,,*53
$IIDPT,002.7,-1.0,*40
$IIGLL,5450.264,N,00931.382,E,192606,A,A*47
$IIHDG,061,,,,*4B
$IIMTW,+20.5,C*4E
$IIMWV,257,R,05.0,N,A*4C
$IIMWV,256,T,05.4,N,A*4C
$IIRMC,192606,A,5450.264,N,00931.382,E,00.3,022,310713,,,A*5C
$IIVHW,,,061,M,00.0,N,,*49
$IIRMB,A,1.00,R,,VIDY,,,,,003.16,281,,V,A*65
$IIVWR,099,L,05.3,N,,,,*53
$IIDPT,002.7,-1.0,*40
$IIGLL,5450.264,N,00931.382,E,192606,A,A*47
$IIHDG,061,,,,*4B
$IIMTW,+20.5,C*4E
$IIMWV,261,R,05.3,N,A*4C
$IIMWV,257,T,05.0,N,A*4C
$IIRMC,192606,A,5450.264,N,00931.382,E,00.3,022,310713,,,A*5C
$IIVHW,,,061,M,00.0,N,,*49
$IIVLW,01330,N,000.0,N*4D
$IIVWR,097,L,04.9,N,,,,*53
$IIDPT,002.7,-1.0,*40
$IIGLL,5450.264,N,00931.383,E,192608,A,A*47
$IIHDG,061,,,,*4B
$IIMTW,+20.5,C*4E
$IIMWV,263,R,04.9,N,A*4C
$IIMWV,261,T,05.3,N,A*4C
$IIRMC,192609,A,5450.264,N,00931.383,E,00.2,027,310713,,,A*5C
$IIVHW,,,061,M,00.0,N,,*49
$IIVLW,01330,N,000.0,N*4D
$IIVWR,099,L,05.2,N,,,,*53
$IIDPT,002.7,-1.0,*40
$IIGLL,5450.264,N,00931.383,E,192609,A,A*47
$IIHDG,061,,,,*4B
$IIMTW,+20.5,C*4E
$IIMWV,261,R,05.2,N,A*4C
$IIRMB,A,2.00,R,,VIDY,,,,,003.16,281,,V,A*66
$IIRMC,192610,A,5450.264,N,00931.383,E,00.2,037,310713,,,A*5C
$IIVHW,,,061,M,00.0,N,,*49
$IIVLW,01330,N,000.0,N*4D
$IIVWR,096,L,04.9,N,,,,*53
$IIDPT,002.7,-1.0,*40
$IIGLL,5450.264,N,00931.383,E,192610,A,A*47
$IIHDG,061,,,,*4B
$IIMTW,+20.5,C*4E
$IIMWV,261,R,05.6,N,A*4C
$IIMWV,264,T,04.9,N,A*4C
$IIRMC,192611,A,5450.264,N,00931.383,E,00.2,037,310713,,,A*5C
$IIVHW,,,061,M,00.0,N,,*49
$IIVLW,01330,N,000.0,N*4D
$IIVWR,099,L,05.6,N,,,,*53
$IIDPT,002.7,-1.0,*40
$IIGLL,5450.264,N,00931.383,E,192611,A,A*47
$IIHDG,061,,,,*4B
$IIMTW,+21.0,C*4E
$IIMWV,270,R,05.9,N,A*4C
$IIMWV,261,T,05.6,N,A*4C
$IIRMC,192612,A,5450.264,N,00931.383,E,00.2,045,310713,,,A*5C
$IIVHW,,,061,M,00.0,N,,*49
$IIVLW,01330,N,000.0,N*4D
$IIVWR,090,L,05.9,N,,,,*53
$IIDPT,002.7,-1.0,*40
$IIGLL,5450.264,N,00931.383,E,192612,A,A*47
$IIRMB,A,3.00,R,,VIDY,,,,,003.16,281,,V,A*67
$IIMTW,+21.0,C*4E
$IIMWV,262,R,05.4,N,A*4C
$IIMWV,270,T,05.9,N,A*4C
$IIRMC,192613,A,5450.264,N,00931.383,E,00.3,041,310713,,,A*5C
$IIVHW,,,061,M,00.0,N,,*49
$IIVLW,01330,N,000.0,N*4D
$IIVWR,098,L,05.4,N,,,,*53
$IIDPT,002.7,-1.0,*40
$IIGLL,5450.264,N,00931.382,E,192614,A,A*47
$IIHDG,061,,,,*4B
$IIMTW,+21.0,C*4E
$IIMWV,256,R,04.4,N,A*4C
$IIMWV,262,T,05.4,N,A*4C
$IIRMC,192614,A,5450.264,N,00931.382,E,00.4,035,310713,,,A*5C
$IIVHW,,,061,M,00.0,N,,*49
$IIVLW,01330,N,000.0,N*4D
$IIVWR,104,L,04.4,N,,,,*53
$IIDPT,002.7,-1.0,*40
$IIGLL,5450.264,N,00931.382,E,192615,A,A*47
$IIHDG,061,,,,*4B
$IIMTW,+21.0,C*4E
$IIMWV,254,R,04.4,N,A*4C
$IIMWV,256,T,04.4,N,A*4C
$IIRMC,192615,A,5450.264,N,00931.382,E,00.3,025,310713,,,A*5C
$IIVHW,,,061,M,00.0,N,,*49
$IIVLW,01330,N,000.0,N*4D
$IIRMB,A,4.00,R,,VIDY,,,,,003.16,281,,V,A*60
$IIDPT,002.7,-1.0,*40
$IIGLL,5450.264,N,00931.381,E,192616,A,A*47
$IIHDG,061,,,,*4B
$IIMTW,+21.0,C*4E
$IIMWV,264,R,04.2,N,A*4C
$IIMWV,254,T,04.4,N,A*4C
$IIRMC,192616,A,5450.264,N,00931.381,E,00.6,020,310713,,,A*5C
$IIVHW,,,061,M,00.0,N,,*49
$IIVLW,01330,N,000.0,N*4D
$IIVWR,086,L,04.0,N,,,,*53
$IIDPT,002.7,-1.0,*40
$IIGLL,5450.263,N,00931.381,E,192617,A,A*47
$IIHDG,061,,,,*4B
$IIMTW,+21.0,C*4E
$IIMWV,274,R,04.0,N,A*4C
$IIMWV,264,T,04.2,N,A*4C
$IIRMC,192617,A,5450.263,N,00931.381,E,00.6,020,310713,,,A*5C
$IIVHW,,,061,M,00.0,N,,*49
$IIVLW,01330,N,000.0,N*4D
$IIVWR,091,L,04.1,N,,,,*53
$IIDPT,002.7,-1.0,*40
$IIGLL,5450.262,N,00931.382,E,192618,A,A*47
$IIHDG,061,,,,*4B
$IIMTW,+21.0,C*4E
$IIMWV,269,R,04.1,N,A*4C
$IIMWV,274,T,04.0,N,A*4C
$IIRMB,A,5.00,R,,VIDY,,,,,003.16,281,,V,A*61
$IIVHW,,,061,M,00.0,N,,*49
$IIVLW,01330,N,000.0,N*4D
$IIVWR,094,L,04.2,N,,,,*53
$IIDPT,002.7,-1.0,*40
$IIGLL,5450.261,N,00931.382,E,192619,A,A*47
$IIHDG,061,,,,*4B
$IIMTW,+21.0,C*4E
$IIMWV,266,R,04.2,N,A*4C
$IIMWV,266,T,04.2,N,A*4C
$IIRMC,192620,A,5450.261,N,00931.382,E,00.4,000,310713,,,A*5C
$IIVHW,,,061,M,00.0,N,,*49
$IIVLW,01330,N,000.0,N*4D
$IIVWR,093,L,04.3,N,,,,*53
$IIDPT,002.7,-1.0,*40
$IIGLL,5450.261,N,00931.382,E,192620,A,A*47
$IIHDG,061,,,,*4B
$IIMTW,+21.0,C*4E
$IIMWV,271,R,04.3,N,A*4C
$IIMWV,267,T,04.3,N,A*4C
$IIRMC,192621,A,5450.260,N,00931.381,E,00.3,349,310713,,,A*5C
$IIVHW,,,061,M,00.0,N,,*49
$IIVLW,01330,N,000.0,N*4D
$IIVWR,089,L,04.3,N,,,,*53
$IIDPT,002.7,-1.0,*40
$IIGLL,5450.260,N,00931.381,E,192621,A,A*47
$IIHDG,061,,,,*4B
$IIRMB,A,6.00,R,,VIDY,,,,,003.16,281,,V,A*62
$IIMTW,+21.0,C*4E
$IIMWV,268,R,04.1,N,A*4C
$IIMWV,271,T,04.3,N,A*4C
$IIRMC,192622,A,5450.260,N,00931.381,E,00.3,349,310713,,,A*5C
$IIVHW,,,061,M,00.0,N,,*49
$IIVLW,01330,N,000.0,N*4D
$IIVWR,092,L,04.1,N,,,,*53
$IIDPT,002.7,-1.0,*40
$IIGLL,5450.260,N,00931.381,E,192622,A,A*47
$IIHDG,061,,,,*4B
$IIMTW,+21.0,C*4E
$IIMWV,271,R,04.0,N,A*4C
$IIMWV,268,T,04.1,N,A*4C
$IIRMC,192623,A,5450.261,N,00931.381,E,00.2,347,310713,,,A*5C
$IIVHW,,,061,M,00.0,N,,*49
$IIVLW,01330,N,000.0,N*4D
$IIVWR,089,L,04.0,N,,,,*53
$IIDPT,002.7,-1.0,*40
$IIGLL,5450.261,N,00931.381,E,192624,A,A*47
$IIHDG,061,,,,*4B
$IIMTW,+21.0,C*4E
$IIMWV,278,R,04.1,N,A*4C
$IIMWV,271,T,04.0,N,A*4C
$IIRMC,192624,A,5450.261,N,00931.381,E,00.2,347,310713,,,A*5C
$IIVHW,,,061,M,00.0,N,,*49
$IIVLW,01330,N,000.0,N*4D
$IIVWR,082,L,04.1,N,,,,*53
$IIRMB,A,7.00,R,,VIDY,,,,,003.16,281,,V,A*63
$IIGLL,5450.261,N,00931.381,E,192625,A,A*47
$IIHDG,061,,,,*4B
$IIMTW,+20.5,C*4E
$IIMWV,280,R,04.2,N,A*4C
$IIMWV,278,T,04.1,N,A*4C
$IIRMC,192625,A,5450.261,N,00931.381,E,00.2,347,310713,,,A*5C
$IIVHW,,,061,M,00.0,N,,*49
$IIVLW,01330,N,000.0,N*4D
$IIVWR,078,L,04.3,N,,,,*53
$IIDPT,002.7,-1.0,*40
$IIGLL,5450.261,N,00931.382,E,192626,A,A*47
$IIHDG,061,,,,*4B
$IIMTW,+20.5,C*4E
$IIMWV,282,R,04.3,N,A*4C
$IIMWV,280,T,04.2,N,A*4C
$IIRMC,192626,A,5450.261,N,00931.382,E,00.3,357,310713,,,A*5C
$IIVHW,,,061,M,00.0,N,,*49
$IIVLW,01330,N,000.0,N*4D
$IIVWR,080,L,04.4,N,,,,*53
$IIDPT,002.7,-1.0,*40
$IIGLL,5450.261,N,00931.382,E,192627,A,A*47
$IIHDG,061,,,,*4B
$IIMTW,+20.5,C*4E
$IIMWV,280,R,04.4,N,A*4C
$IIMWV,282,T,04.3,N,A*4C
$IIRMC,192627,A,5450.261,N,00931.382,E,00.2,358,310713,,,A*5C
$IIRMB,A,8.00,R,,VIDY,,,,,003.16,281,,V,A*6C
$IIVLW,01330,N,000.0,N*4D
$IIVWR,079,L,04.7,N,,,,*53
$IIDPT,002.7,-1.0,*40
$IIGLL,5450.262,N,00931.382,E,192628,A,A*47
$IIHDG,061,,,,*4B
$IIMTW,+20.5,C*4E
$IIMWV,281,R,04.7,N,A*4C
$IIMWV,280,T,04.4,N,A*4C
$IIRMC,192629,A,5450.262,N,00931.382,E,00.4,358,310713,,,A*5C
$IIVHW,,,061,M,00.0,N,,*49
$IIVLW,01330,N,000.0,N*4D
$IIVWR,071,L,04.9,N,,,,*53
$IIDPT,002.7,-1.0,*40
$IIGLL,5450.262,N,00931.382,E,192629,A,A*47
$IIHDG,061,,,,*4B
$IIMTW,+20.5,C*4E
$IIMWV,289,R,04.9,N,A*4C
$IIMWV,289,T,04.9,N,A*4C
$IIRMC,192630,A,5450.262,N,00931.382,E,00.3,359,310713,,,A*5C
$IIVHW,,,061,M,00.0,N,,*49
$IIVLW,01330,N,000.0,N*4D
$IIVWR,064,L,04.9,N,,,,*53
$IIDPT,002.7,-1.0,*40
$IIGLL,5450.262,N,00931.382,E,192630,A,A*47
$IIHDG,061,,,,*4B
$IIMTW,+20.5,C*4E
$IIRMB,A,9.00,R,,VIDY,,,,,003.16,281,,V,A*6D
$IIMWV,297,R,04.6,N,A*4C
$IIMWV,296,T,04.9,N,A*4C
$IIRMC,192631,A,5450.262,N,00931.381,E,00.3,359,310713,,,A*5C
$IIVHW,,,061,M,00.0,N,,*49
$IIVLW,01330,N,000.0,N*4D
$IIVWR,063,L,04.6,N,,,,*53
$IIDPT,002.7,-1.0,*40
$IIGLL,5450.262,N,00931.381,E,192631,A,A*47
$IIHDG,061,,,,*4B
$IIMTW,+20.5,C*4E
$IIMWV,290,R,04.6,N,A*4C
$IIMWV,297,T,04.6,N,A*4C
$IIRMC,192632,A,5450.262,N,00931.382,E,00.3,359,310713,,,A*5C
$IIVHW,,,060,M,00.0,N,,*49
$IIVLW,01330,N,000.0,N*4D
$IIVWR,070,L,04.6,N,,,,*53
$IIDPT,002.7,-1.0,*40
$IIGLL,5450.262,N,00931.382,E,192632,A,A*47
$IIHDG,060,,,,*4B
$IIMTW,+20.5,C*4E
$IIMWV,284,R,04.2,N,A*4C
$IIMWV,290,T,04.6,N,A*4C
$IIRMC,192633,A,5450.262,N,00931.382,E,00.2,000,310713,,,A*5C
$IIVHW,,,060,M,00.0,N,,*49
$IIVLW,01330,N,000.0,N*4D
$IIVWR,076,L,04.2,N,,,,*53
$IIDPT,002.7,-1.0,*40
$IIRMB,A,0.00,R,,VIDY,,,,,003.16,281,,V,A*64
$IIGLL,5450.263,N,00931.381,E,192634,A,A*47
$IIHDG,060,,,,*4B
$IIMTW,+20.5,C*4E
$IIMWV,277,R,04.1,N,A*4C
$IIMWV,284,T,04.2,N,A*4C
$IIRMC,192634,A,5450.263,N,00931.381,E,00.3,358,310713,,,A*5C
$IIVHW,,,060,M,00.0,N,,*49
$IIVLW,01330,N,000.0,N*4D
$IIVWR,083,L,04.1,N,,,,*53
$IIDPT,002.6,-1.0,*40
$IIGLL,5450.266,N,00931.382,E,192635,A,A*47
$IIHDG,061,,,,*4B
$IIMTW,+20.5,C*4E
$IIMWV,271,R,03.9,N,A*4C
$IIMWV,277,T,04.1,N,A*4C
$IIRMC,192635,A,5450.266,N,00931.382,E,00.6,001,310713,,,A*5C
$IIVHW,,,061,M,00.0,N,,*49
$IIVLW,01330,N,000.0,N*4D
$IIVWR,093,L,03.6,N,,,,*53
$IIDPT,002.6,-1.0,*40
$IIGLL,5450.266,N,00931.382,E,192636,A,A*47
$IIHDG,062,,,,*4B
$IIMTW,+20.5,C*4E
$IIMWV,267,R,03.6,N,A*4C
$IIMWV,271,T,03.9,N,A*4C
$IIRMC,192636,A,5450.266,N,00931.382,E,00.6,001,310713,,,A*5C
$IIVHW,,,062,M,00.0,N,,*49
$IIRMB,A,1.00,R,,VIDY,,,,,003.16,281,,V,A*65
$IIVLW,01330,N,000.0,N*4D
$IIVWR,098,L,03.5,N,,,,*53
$IIDPT,002.6,-1.0,*40
$IIGLL,5450.266,N,00931.382,E,192637,A,A*47
$IIHDG,061,,,,*4B
$IIMTW,+20.5,C*4E
$IIMWV,262,R,03.5,N,A*4C
$IIMWV,267,T,03.6,N,A*4C
$IIRMC,192637,A,5450.266,N,00931.382,E,00.6,001,310713,,,A*5C
$IIVHW,,,060,M,00.0,N,,*49
$IIVLW,01330,N,000.0,N*4D
$IIVWR,098,L,03.5,N,,,,*53
$IIDPT,002.6,-1.0,*40
$IIGLL,5450.267,N,00931.381,E,192638,A,A*47
$IIHDG,060,,,,*4B
$IIMTW,+20.5,C*4E
$IIMWV,262,R,03.5,N,A*4C
$IIMWV,262,T,03.5,N,A*4C
$IIRMC,192639,A,5450.267,N,00931.381,E,00.6,001,310713,,,A*5C
$IIVHW,,,060,M,00.0,N,,*49
$IIVLW,01330,N,000.0,N*4D
$IIVWR,101,L,03.5,N,,,,*53
$IIDPT,002.6,-1.0,*40
$IIGLL,5450.267,N,00931.381,E,192639,A,A*47
$IIHDG,060,,,,*4B
$IIMTW,+20.5,C*4E
$IIMWV,259,R,03.5,N,A*4C
$IIRMB,A,2.00,R,,VIDY,,,,,003.16,281,,V,A*66
$IIMWV,259,T,03.5,N,A*4C
$IIRMC,192640,A,5450.267,N,00931.381,E,00.6,001,310713,,,A*5C
$IIVHW,,,060,M,00.0,N,,*49
$IIVLW,01330,N,000.0,N*4D
$IIVWR,103,L,03.4,N,,,,*53
$IIDPT,002.6,-1.0,*40
$IIGLL,5450.267,N,00931.381,E,192640,A,A*47
$IIHDG,060,,,,*4B
$IIMTW,+20.5,C*4E
$IIMWV,259,R,03.4,N,A*4C
$IIMWV,257,T,03.4,N,A*4C
$IIRMC,192641,A,5450.266,N,00931.381,E,00.6,001,310713,,,A*5C
$IIVHW,,,061,M,00.0,N,,*49
$IIVLW,01330,N,000.0,N*4D
$IIVWR,101,L,03.4,N,,,,*53
$IIDPT,002.6,-1.0,*40
$IIGLL,5450.266,N,00931.381,E,192641,A,A*47
$IIHDG,061,,,,*4B
$IIMTW,+20.5,C*4E
$IIMWV,264,R,03.4,N,A*4C
$IIMWV,259,T,03.4,N,A*4C
$IIRMC,192642,A,5450.266,N,00931.381,E,00.6,001,310713,,,A*5C
$IIVHW,,,061,M,00.0,N,,*49
$IIVLW,01330,N,000.0,N*4D
$IIVWR,096,L,03.4,N,,,,*53
$IIDPT,002.6,-1.0,*40
$IIGLL,5450.266,N,00931.381,E,192642,A,A*47
$IIRMB,A,3.00,R,,VIDY,,,,,003.16,281,,V,A*67
$IIHDG,060,,,,*4B
$IIMTW,+20.5,C*4E
$IIMWV,268,R,03.2,N,A*4C
$IIMWV,264,T,03.4,N,A*4C
$IIRMC,192643,A,5450.266,N,00931.381,E,00.6,001,310713,,,A*5C
$IIVHW,,,060,M,00.0,N,,*49
$IIVLW,01330,N,000.0,N*4D
$IIVWR,092,L,03.2,N,,,,*53
$IIDPT,002.6,-1.0,*40
$IIGLL,5450.266,N,00931.381,E,192644,A,A*47
$IIHDG,060,,,,*4B
$IIMTW,+20.5,C*4E
$IIMWV,268,R,03.4,N,A*4C
$IIMWV,268,T,03.2,N,A*4C
$IIRMC,192644,A,5450.266,N,00931.381,E,00.6,001,310713,,,A*5C
$IIVHW,,,060,M,00.0,N,,*49
$IIVLW,01330,N,000.0,N*4D
$IIVWR,092,L,03.4,N,,,,*53
$IIRMB,A,4.00,R,,VIDY,,,,,003.16,281,,V,A*60
$IIDPT,002.6,-1.0,*40
$IIGLL,5450.267,N,00931.382,E,192646,A,A*47
$IIHDG,061,,,,*4B
$IIMTW,+20.5,C*4E
$IIMWV,257,R,03.5,N,A*4C
$IIMWV,260,T,03.2,N,A*4C
$IIRMC,192646,A,5450.267,N,00931.382,E,00.6,001,310713,,,A*5C
$IIVHW,,,061,M,00.0,N,,*49
$IIVLW,01330,N,000.0,N*4D
$IIVWR,106,L,03.7,N,,,,*53
$IIDPT,002.6,-1.0,*40
$IIGLL,5450.267,N,00931.382,E,192647,A,A*47
$IIHDG,061,,,,*4B
$IIMTW,+20.5,C*4E
$IIMWV,254,R,03.7,N,A*4C
$IIMWV,257,T,03.5,N,A*4C
$IIRMC,192647,A,5450.267,N,00931.382,E,00.6,001,310713,,,A*5C
$IIVHW,,,061,M,00.0,N,,*49
$IIVLW,01330,N,000.0,N*4D
$IIVWR,111,L,03.9,N,,,,*53
$IIDPT,002.6,-1.0,*40
$IIGLL,5450.267,N,00931.381,E,192648,A,A*47
$IIHDG,060,,,,*4B
$IIMTW,+20.5,C*4E
$IIMWV,249,R,03.9,N,A*4C
$IIMWV,254,T,03.7,N,A*4C
$IIRMC,192648,A,5450.267,N,00931.381,E,00.6,001,310713,,,A*5C
$IIRMB,A,5.00,R,,VIDY,,,,,003.16,281,,V,A*61
$IIVHW,,,060,M,00.0,N,,*49
$IIVLW,01330,N,000.0,N*4D
$IIVWR,118,L,03.8,N,,,,*53
$IIDPT,002.6,-1.0,*40
$IIGLL,5450.267,N,00931.381,E,192649,A,A*47
$IIHDG,060,,,,*4B
$IIMTW,+20.5,C*4E
$IIMWV,242,R,03.8,N,A*4C
$IIMWV,249,T,03.9,N,A*4C
$IIRMC,192650,A,5450.267,N,00931.381,E,00.6,001,310713,,,A*5C
$IIVHW,,,061,M,00.0,N,,*49
$IIVLW,01330,N,000.0,N*4D
$IIVWR,121,L,04.0,N,,,,*53
$IIDPT,002.6,-1.0,*40
$IIGLL,5450.267,N,00931.381,E,192650,A,A*47
$IIHDG,061,,,,*4B
$IIMTW,+20.5,C*4E
$IIMWV,239,R,04.0,N,A*4C
$IIMWV,239,T,04.0,N,A*4C
$IIRMC,192651,A,5450.267,N,00931.381,E,00.6,001,310713,,,A*5C
$IIVHW,,,061,M,00.0,N,,*49
$IIVLW,01330,N,000.0,N*4D
$IIVWR,128,L,04.1,N,,,,*53
$IIDPT,002.6,-1.0,*40
$IIGLL,5450.267,N,00931.381,E,192651,A,A*47
$IIHDG,061,,,,*4B
$IIMTW,+20.5,C*4E
$IIRMB,A,6.00,R,,VIDY,,,,,003.16,281,,V,A*62
$IIMWV,227,R,04.3,N,A*4C
$IIMWV,232,T,04.1,N,A*4C
$IIRMC,192652,A,5450.267,N,00931.381,E,00.6,001,310713,,,A*5C
$IIVHW,,,061,M,00.0,N,,*49
$IIVLW,01330,N,000.0,N*4D
$IIVWR,133,L,04.3,N,,,,*53
$IIDPT,002.6,-1.0,*40
$IIGLL,5450.267,N,00931.381,E,192652,A,A*47
$IIHDG,061,,,,*4B
$IIMTW,+20.5,C*4E
$IIMWV,224,R,04.1,N,A*4C
$IIMWV,227,T,04.3,N,A*4C
$IIRMC,192653,A,5450.267,N,00931.381,E,00.6,001,310713,,,A*5C
$IIVHW,,,060,M,00.0,N,,*49
$IIVLW,01330,N,000.0,N*4D
$IIVWR,136,L,04.1,N,,,,*53
$IIDPT,002.6,-1.0,*40
$IIGLL,5450.267,N,00931.381,E,192653,A,A*47
$IIHDG,061,,,,*4B
$IIMTW,+20.5,C*4E
$IIMWV,225,R,04.1,N,A*4C
$IIMWV,224,T,04.1,N,A*4C
$IIRMC,192654,A,5450.267,N,00931.381,E,00.6,001,310713,,,A*5C
$IIVHW,,,061,M,00.0,N,,*49
$IIVLW,01330,N,000.0,N*4D
$IIVWR,135,L,04.1,N,,,,*53
$IIDPT,002.6,-1.0,*40
$IIRMB,A,7.00,R,,VIDY,,,,,003.16,281,,V,A*63
$IIGLL,5450.266,N,00931.381,E,192655,A,A*47
$IIHDG,061,,,,*4B
$IIMTW,+20.5,C*4E
$IIMWV,227,R,04.2,N,A*4C
$IIMWV,225,T,04.1,N,A*4C
$IIRMC,192655,A,5450.266,N,00931.381,E,00.6,001,310713,,,A*5C
$IIVHW,,,061,M,00.0,N,,*49
$IIVLW,01330,N,000.0,N*4D
$IIVWR,133,L,04.2,N,,,,*53
$IIDPT,002.6,-1.0,*40
$IIGLL,5450.266,N,00931.381,E,192656,A,A*47
$IIHDG,061,,,,*4B
$IIMTW,+20.5,C*4E
$IIMWV,227,R,04.3,N,A*4C
$IIMWV,227,T,04.2,N,A*4C
$IIRMC,192656,A,5450.266,N,00931.381,E,00.6,001,310713,,,A*5C
$IIVHW,,,061,M,00.0,N,,*49
$IIVLW,01330,N,000.0,N*4D
$IIVWR,133,L,04.3,N,,,,*53
$IIDPT,002.6,-1.0,*40
$IIGLL,5450.266,N,00931.381,E,192657,A,A*47
$IIHDG,062,,,,*4B
$IIMTW,+20.5,C*4E
$IIMWV,227,R,04.3,N,A*4C
$IIMWV,227,T,04.3,N,A*4C
$IIRMC,192657,A,5450.266,N,00931.381,E,00.6,001,310713,,,A*5C
$IIVHW,,,062,M,00.0,N,,*49
$IIRMB,A,8.00,R,,VIDY,,,,,003.16,281,,V,A*6C
$IIVLW,01330,N,000.0,N*4D
$IIVWR,128,L,04.7,N,,,,*53
$IIDPT,002.6,-1.0,*40
$IIGLL,5450.266,N,00931.381,E,192658,A,A*47
$IIHDG,062,,,,*4B
$IIMTW,+20.5,C*4E
$IIMWV,232,R,04.7,N,A*4C
$IIMWV,227,T,04.3,N,A*4C
$IIRMC,192658,A,5450.266,N,00931.381,E,00.6,001,310713,,,A*5C
$IIVHW,,,062,M,00.0,N,,*49
$IIVLW,01330,N,000.0,N*4D
$IIVWR,130,L,04.3,N,,,,*53
$IIDPT,002.6,-1.0,*40
$IIGLL,5450.267,N,00931.381,E,192659,A,A*47
$IIHDG,062,,,,*4B
$IIMTW,+20.5,C*4E
$IIMWV,230,R,04.3,N,A*4C
$IIMWV,232,T,04.7,N,A*4C
$IIRMC,192700,A,5450.267,N,00931.381,E,00.6,001,310713,,,A*5C
$IIVHW,,,061,M,00.0,N,,*49
$IIVLW,01330,N,000.0,N*4D
$IIVWR,134,L,04.0,N,,,,*53
$IIDPT,002.6,-1.0,*40
$IIGLL,5450.267,N,00931.381,E,192700,A,A*47
$IIHDG,061,,,,*4B
$IIMTW,+20.5,C*4E
$IIMWV,226,R,04.0,N,A*4C
$IIRMB,A,9.00,R,,VIDY,,,,,003.16,281,,V,A*6D
$IIMWV,226,T,04.0,N,A*4C
$IIRMC,192701,A,5450.267,N,00931.381,E,00.6,001,310713,,,A*5C
$IIVHW,,,061,M,00.0,N,,*49
$IIVLW,01330,N,000.0,N*4D
$IIVWR,138,L,03.8,N,,,,*53
$IIDPT,002.6,-1.0,*40
$IIGLL,5450.267,N,00931.381,E,192701,A,A*47
$IIHDG,061,,,,*4B
$IIMTW,+20.5,C*4E
$IIMWV,226,R,03.5,N,A*4C
$IIMWV,222,T,03.8,N,A*4C
$IIRMC,192702,A,5450.267,N,00931.381,E,00.6,001,310713,,,A*5C
$IIVHW,,,060,M,00.0,N,,*49
$IIVLW,01330,N,000.0,N*4D
$IIVWR,134,L,03.5,N,,,,*53
$IIDPT,002.6,-1.0,*40
$IIGLL,5450.267,N,00931.381,E,192702,A,A*47
$IIHDG,060,,,,*4B
$IIMTW,+20.5,C*4E
$IIMWV,248,R,03.2,N,A*4C
$IIMWV,226,T,03.5,N,A*4C
$IIRMC,192703,A,5450.267,N,00931.381,E,00.6,001,310713,,,A*5C
$IIVHW,,,060,M,00.0,N,,*49
$IIVLW,01330,N,000.0,N*4D
$IIVWR,112,L,03.2,N,,,,*53
$IIDPT,002.6,-1.0,*40
$IIGLL,5450.267,N,00931.381,E,192703,A,A*47
$IIRMB,A,0.00,R,,VIDY,,,,,003.16,281,,V,A*64
$IIHDG,061,,,,*4B
$IIMTW,+20.5,C*4E
$IIMWV,268,R,02.9,N,A*4C
$IIMWV,248,T,03.2,N,A*4C
$IIRMC,192704,A,5450.267,N,00931.381,E,00.6,001,310713,,,A*5C
$IIVHW,,,061,M,00.0,N,,*49
$IIVLW,01330,N,000.0,N*4D
$IIVWR,092,L,02.9,N,,,,*53
$IIDPT,002.6,-1.0,*40
$IIGLL,5450.267,N,00931.381,E,192705,A,A*47
$IIHDG,061,,,,*4B
$IIMTW,+21.0,C*4E
$IIMWV,274,R,02.2,N,A*4C
$IIMWV,268,T,02.9,N,A*4C
$IIRMC,192705,A,5450.267,N,00931.381,E,00.6,001,310713,,,A*5C
$IIVHW,,,061,M,00.0,N,,*49
$IIVLW,01330,N,000.0,N*4D
$IIVWR,086,L,02.2,N,,,,*53
$IIDPT,002.6,-1.0,*40
$IIGLL,5450.267,N,00931.381,E,192706,A,A*47
$IIHDG,062,,,,*4B
$IIMTW,+21.0,C*4E
$IIMWV,283,R,02.1,N,A*4C
$IIMWV,274,T,02.2,N,A*4C
$IIRMC,192706,A,5450.267,N,00931.381,E,00.6,001,310713,,,A*5C
$IIVHW,,,062,M,00.0,N,,*49
$IIVLW,01330,N,000.0,N*4D
$IIRMB,A,1.00,R,,VIDY,,,,,003.16,281,,V,A*65
$IIVWR,071,L,02.1,N,,,,*53
$IIDPT,002.6,-1.0,*40
$IIGLL,5450.267,N,00931.381,E,192707,A,A*47
$IIHDG,062,,,,*4B
$IIMTW,+21.0,C*4E
$IIMWV,289,R,02.1,N,A*4C
$IIMWV,283,T,02.1,N,A*4C
$IIRMC,192707,A,5450.267,N,00931.381,E,00.6,001,310713,,,A*5C
$IIVHW,,,062,M,00.0,N,,*49
$IIVLW,01330,N,000.0,N*4D
$IIVWR,065,L,02.4,N,,,,*53
$IIDPT,002.6,-1.0,*40
$IIGLL,5450.267,N,00931.381,E,192708,A,A*47
$IIHDG,062,,,,*4B
$IIMTW,+21.0,C*4E
$IIMWV,295,R,02.4,N,A*4C
$IIMWV,289,T,02.1,N,A*4C
$IIRMC,192708,A,5450.267,N,00931.381,E,00.6,001,310713,,,A*5C
$IIVHW,,,061,M,00.0,N,,*49
$IIVLW,01330,N,000.0,N*4D
$IIVWR,062,L,02.7,N,,,,*53
$IIDPT,002.6,-1.0,*40
$IIGLL,5450.267,N,00931.381,E,192709,A,A*47
$IIHDG,061,,,,*4B
$IIMTW,+21.0,C*4E
$IIMWV,298,R,02.7,N,A*4C
$IIMWV,295,T,02.4,N,A*4C
$IIRMB,A,2.00,R,,VIDY,,,,,003.16,281,,V,A*66
$IIRMC,192710,A,5450.267,N,00931.381,E,00.6,001,310713,,,A*5C
$IIVHW,,,060,M,00.0,N,,*49
$IIVLW,01330,N,000.0,N*4D
$IIVWR,062,L,03.2,N,,,,*53
$IIDPT,002.6,-1.0,*40
$IIGLL,5450.267,N,00931.381,E,192710,A,A*47
$IIHDG,060,,,,*4B
$IIMTW,+21.0,C*4E
$IIMWV,298,R,03.2,N,A*4C
$IIMWV,298,T,03.2,N,A*4C
$IIRMC,192711,A,5450.267,N,00931.381,E,00.6,001,310713,,,A*5C
$IIVHW,,,060,M,00.0,N,,*49
$IIVLW,01330,N,000.0,N*4D
$IIVWR,065,L,03.0,N,,,,*53
$IIDPT,002.6,-1.0,*40
$IIGLL,5450.267,N,00931.381,E,192711,A,A*47
$IIHDG,060,,,,*4B
$IIMTW,+21.0,C*4E
$IIMWV,289,R,03.3,N,A*4C
$IIMWV,295,T,03.0,N,A*4C
$IIRMC,192712,A,5450.267,N,00931.381,E,00.6,001,310713,,,A*5C
$IIVHW,,,060,M,00.0,N,,*49
$IIVLW,01330,N,000.0,N*4D
$IIVWR,071,L,03.3,N,,,,*53
$IIDPT,002.6,-1.0,*40
$IIGLL,5450.267,N,00931.381,E,192712,A,A*47
$IIHDG,060,,,,*4B
$IIRMB,A,3.00,R,,VIDY,,,,,003.16,281,,V,A*67
$IIMTW,+21.0,C*4E
$IIMWV,285,R,03.7,N,A*4C
$IIMWV,289,T,03.3,N,A*4C
$IIRMC,192713,A,5450.267,N,00931.381,E,00.6,001,310713,,,A*5C
$IIVHW,,,061,M,00.0,N,,*49
$IIVLW,01330,N,000.0,N*4D
$IIVWR,075,L,03.7,N,,,,*53
$IIDPT,002.6,-1.0,*40
$IIGLL,5450.267,N,00931.381,E,192713,A,A*47
$IIHDG,062,,,,*4B
$IIMTW,+21.0,C*4E
$IIMWV,280,R,04.6,N,A*4C
$IIMWV,285,T,03.7,N,A*4C
$IIRMC,192714,A,5450.267,N,00931.381,E,00.6,001,310713,,,A*5C
$IIVHW,,,062,M,00.0,N,,*49
$IIVLW,01330,N,000.0,N*4D
$IIVWR,080,L,04.6,N,,,,*53
$IIDPT,002.6,-1.0,*40
$IIRMB,A,4.00,R,,VIDY,,,,,003.16,281,,V,A*60
$IIHDG,062,,,,*4B
$IIMTW,+21.0,C*4E
$IIMWV,275,R,05.4,N,A*4C
$IIMWV,280,T,04.6,N,A*4C
$IIRMC,192715,A,5450.267,N,00931.381,E,00.6,001,310713,,,A*5C
$IIVHW,,,062,M,00.0,N,,*49
$IIVLW,01330,N,000.0,N*4D
$IIVWR,085,L,05.4,N,,,,*53
$IIDPT,002.6,-1.0,*40
$IIGLL,5450.267,N,00931.381,E,192717,A,A*47
$IIHDG,061,,,,*4B
$IIMTW,+18.0,C*4E
$IIMWV,271,R,05.5,N,A*4C
$IIMWV,273,T,05.5,N,A*4C
$IIRMC,192717,A,5450.267,N,00931.381,E,00.6,001,310713,,,A*5C
$IIVHW,,,061,M,00.0,N,,*49
$IIVLW,01330,N,000.0,N*4D
$IIVWR,092,L,05.5,N,,,,*53
$IIDPT,002.6,-1.0,*40
$IIGLL,5450.267,N,00931.381,E,192718,A,A*47
$IIHDG,061,,,,*4B
$IIMTW,+20.5,C*4E
$IIMWV,268,R,05.5,N,A*4C
$IIMWV,271,T,05.5,N,A*4C
$IIRMC,192718,A,5450.267,N,00931.381,E,00.6,001,310713,,,A*5C
$IIVHW,,,061,M,00.0,N,,*49
$IIRMB,A,5.00,R,,VIDY,,,,,003.16,281,,V,A*61
$IIVLW,01330,N,000.0,N*4D
$IIVWR,092,L,05.5,N,,,,*53
$IIDPT,002.6,-1.0,*40
$IIGLL,5450.267,N,00931.381,E,192719,A,A*47
$IIHDG,061,,,,*4B
$IIMTW,+20.5,C*4E
$IIMWV,268,R,05.5,N,A*4C
$IIMWV,268,T,05.5,N,A*4C
$IIRMC,192719,A,5450.267,N,00931.381,E,00.6,001,310713,,,A*5C
$IIVHW,,,061,M,00.0,N,,*49
$IIVLW,01330,N,000.0,N*4D
$IIVWR,091,L,05.2,N,,,,*53
$IIDPT,002.6,-1.0,*40
$IIGLL,5450.267,N,00931.381,E,192720,A,A*47
$IIHDG,061,,,,*4B
$IIMTW,+20.5,C*4E
$IIMWV,269,R,05.2,N,A*4C
$IIMWV,268,T,05.5,N,A*4C
$IIRMC,192721,A,5450.267,N,00931.380,E,00.6,001,310713,,,A*5C
$IIVHW,,,060,M,00.0,N,,*49
$IIVLW,01330,N,000.0,N*4D
$IIVWR,098,L,05.0,N,,,,*53
$IIDPT,002.6,-1.0,*40
$IIGLL,5450.267,N,00931.380,E,192721,A,A*47
$IIHDG,060,,,,*4B
$IIMTW,+20.5,C*4E
$IIMWV,262,R,05.0,N,A*4C
$IIRMB,A,6.00,R,,VIDY,,,,,003.16,281,,V,A*62
$IIMWV,262,T,05.0,N,A*4C
$IIRMC,192722,A,5450.267,N,00931.380,E,00.6,001,310713,,,A*5C
$IIVHW,,,061,M,00.0,N,,*49
$IIVLW,01330,N,000.0,N*4D
$IIVWR,106,L,04.5,N,,,,*53
$IIDPT,002.6,-1.0,*40
$IIGLL,5450.267,N,00931.380,E,192722,A,A*47
$IIHDG,061,,,,*4B
$IIMTW,+20.5,C*4E
$IIMWV,257,R,04.5,N,A*4C
$IIMWV,254,T,04.5,N,A*4C
$IIRMC,192723,A,5450.267,N,00931.380,E,00.6,001,310713,,,A*5C
$IIVHW,,,061,M,00.0,N,,*49
$IIVLW,01330,N,000.0,N*4D
$IIVWR,103,L,04.5,N,,,,*53
$IIDPT,002.6,-1.0,*40
$IIGLL,5450.267,N,00931.380,E,192723,A,A*47
$IIHDG,061,,,,*4B
$IIMTW,+20.5,C*4E
$IIMWV,249,R,04.2,N,A*4C
$IIMWV,257,T,04.5,N,A*4C
$IIRMC,192724,A,5450.267,N,00931.380,E,00.6,001,310713,,,A*5C
$IIVHW,,,062,M,00.0,N,,*49
$IIVLW,01330,N,000.0,N*4D
$IIVWR,111,L,04.2,N,,,,*53
$IIDPT,002.6,-1.0,*40
$IIGLL,5450.267,N,00931.380,E,192724,A,A*47
$IIRMB,A,7.00,R,,VIDY,,,,,003.16,281,,V,A*63
$IIHDG,061,,,,*4B
$IIMTW,+20.5,C*4E
$IIMWV,248,R,03.9,N,A*4C
$IIMWV,249,T,04.2,N,A*4C
$IIRMC,192725,A,5450.266,N,00931.380,E,00.6,001,310713,,,A*5C
$IIVHW,,,061,M,00.0,N,,*49
$IIVLW,01330,N,000.0,N*4D
$IIVWR,112,L,03.9,N,,,,*53
$IIDPT,002.6,-1.0,*40
$IIGLL,5450.266,N,00931.380,E,192726,A,A*47
$IIHDG,061,,,,*4B
$IIMTW,+20.5,C*4E
$IIMWV,247,R,03.5,N,A*4C
$IIMWV,248,T,03.9,N,A*4C
$IIRMC,192726,A,5450.266,N,00931.380,E,00.6,001,310713,,,A*5C
$IIVHW,,,061,M,00.0,N,,*49
$IIVLW,01330,N,000.0,N*4D
$IIVWR,113,L,03.5,N,,,,*53
$IIDPT,002.6,-1.0,*40
$IIGLL,5450.266,N,00931.380,E,192727,A,A*47
$IIHDG,061,,,,*4B
$IIMTW,+20.5,C*4E
$IIMWV,243,R,03.4,N,A*4C
$IIMWV,247,T,03.5,N,A*4C
$IIRMC,192727,A,5450.266,N,00931.380,E,00.6,001,310713,,,A*5C
$IIVHW,,,061,M,00.0,N,,*49
$IIVLW,01330,N,000.0,N*4D
$IIRMB,A,8.00,R,,VIDY,,,,,003.16,281,,V,A*6C
$IIVWR,119,L,03.5,N,,,,*53
$IIDPT,002.6,-1.0,*40
$IIGLL,5450.266,N,00931.380,E,192728,A,A*47
$IIHDG,060,,,,*4B
$IIMTW,+20.5,C*4E
$IIMWV,241,R,03.5,N,A*4C
$IIMWV,243,T,03.4,N,A*4C
$IIRMC,192728,A,5450.266,N,00931.380,E,00.6,001,310713,,,A*5C
$IIVHW,,,060,M,00.0,N,,*49
$IIVLW,01330,N,000.0,N*4D
$IIVWR,126,L,03.8,N,,,,*53
$IIDPT,002.6,-1.0,*40
$IIGLL,5450.266,N,00931.380,E,192729,A,A*47
$IIHDG,060,,,,*4B
$IIMTW,+20.5,C*4E
$IIMWV,234,R,03.8,N,A*4C
$IIMWV,241,T,03.5,N,A*4C
$IIRMC,192729,A,5450.266,N,00931.380,E,00.6,001,310713,,,A*5C
$IIVHW,,,061,M,00.0,N,,*49
$IIVLW,01330,N,000.0,N*4D
$IIVWR,132,L,03.4,N,,,,*53
$IIDPT,002.6,-1.0,*40
$IIGLL,5450.266,N,00931.380,E,192730,A,A*47
$IIHDG,061,,,,*4B
$IIMTW,+20.5,C*4E
$IIMWV,228,R,03.4,N,A*4C
$IIMWV,234,T,03.8,N,A*4C
$IIRMB,A,9.00,R,,VIDY,,,,,003.16,281,,V,A*6D
$IIRMC,192731,A,5450.266,N,00931.380,E,00.6,001,310713,,,A*5C
$IIVHW,,,061,M,00.0,N,,*49
$IIVLW,01330,N,000.0,N*4D
$IIVWR,138,L,03.1,N,,,,*53
$IIDPT,002.6,-1.0,*40
$IIGLL,5450.266,N,00931.380,E,192731,A,A*47
$IIHDG,061,,,,*4B
$IIMTW,+20.5,C*4E
$IIMWV,222,R,03.1,N,A*4C
$IIMWV,222,T,03.1,N,A*4C
$IIRMC,192732,A,5450.266,N,00931.380,E,00.6,001,310713,,,A*5C
$IIVHW,,,061,M,00.0,N,,*49
$IIVLW,01330,N,000.0,N*4D
$IIVWR,141,L,02.8,N,,,,*53
$IIDPT,002.6,-1.0,*40
$IIGLL,5450.266,N,00931.380,E,192732,A,A*47
$IIHDG,061,,,,*4B
$IIMTW,+20.5,C*4E
$IIMWV,219,R,02.3,N,A*4C
$IIMWV,219,T,02.8,N,A*4C
$IIRMC,192733,A,5450.266,N,00931.380,E,00.6,001,310713,,,A*5C
$IIVHW,,,062,M,00.0,N,,*49
$IIVLW,01330,N,000.0,N*4D
$IIVWR,141,L,02.3,N,,,,*53
$IIDPT,002.6,-1.0,*40
$IIGLL,5450.266,N,00931.380,E,192733,A,A*47
$IIHDG,062,,,,*4B
$IIRMB,A,0.00,R,,VIDY,,,,,003.16,281,,V,A*64
$IIMTW,+20.5,C*4E
$IIMWV,213,R,02.0,N,A*4C
$IIMWV,219,T,02.3,N,A*4C
$IIRMC,192734,A,5450.266,N,00931.380,E,00.6,001,310713,,,A*5C
$IIVHW,,,062,M,00.0,N,,*49
$IIVLW,01330,N,000.0,N*4D
$IIVWR,147,L,02.0,N,,,,*53
$IIDPT,002.6,-1.0,*40
$IIGLL,5450.266,N,00931.380,E,192734,A,A*47
$IIHDG,062,,,,*4B
$IIMTW,+20.5,C*4E
$IIMWV,207,R,01.4,N,A*4C
$IIMWV,213,T,02.0,N,A*4C
$IIRMC,192735,A,5450.266,N,00931.380,E,00.6,001,310713,,,A*5C
$IIVHW,,,062,M,00.0,N,,*49
$IIVLW,01330,N,000.0,N*4D
$IIVWR,153,L,01.4,N,,,,*53
$IIDPT,002.6,-1.0,*40
$IIGLL,5450.266,N,00931.380,E,192736,A,A*47
$IIHDG,060,,,,*4B
$IIMTW,+20.5,C*4E
$IIMWV,201,R,02.1,N,A*4C
$IIMWV,207,T,01.4,N,A*4C
$IIRMC,192736,A,5450.266,N,00931.380,E,00.6,001,310713,,,A*5C
$IIVHW,,,060,M,00.0,N,,*49
$IIVLW,01330,N,000.0,N*4D
$IIVWR,159,L,02.1,N,,,,*53
$IIRMB,A,1.00,R,,VIDY,,,,,003.16,281,,V,A*65
$IIDPT,002.6,-1.0,*40
$IIGLL,5450.266,N,00931.380,E,192737,A,A*47
$IIHDG,060,,,,*4B
$IIMTW,+20.5,C*4E
$IIMWV,198,R,01.4,N,A*4C
$IIMWV,201,T,02.1,N,A*4C
$IIRMC,192737,A,5450.266,N,00931.380,E,00.6,001,310713,,,A*5C
$IIVHW,,,060,M,00.0,N,,*49
$IIVLW,01330,N,000.0,N*4D
$IIVWR,165,L,00.9,N,,,,*53
$IIDPT,002.6,-1.0,*40
$IIGLL,5450.266,N,00931.380,E,192738,A,A*47
$IIHDG,060,,,,*4B
$IIMTW,+20.5,C*4E
$IIMWV,195,R,00.9,N,A*4C
$IIMWV,198,T,01.4,N,A*4C
$IIRMC,192738,A,5450.266,N,00931.380,E,00.6,001,310713,,,A*5C
$IIVHW,,,060,M,00.0,N,,*49
$IIVLW,01330,N,000.0,N*4D
$IIVWR,166,L,00.6,N,,,,*53
$IIDPT,002.6,-1.0,*40
$IIGLL,5450.266,N,00931.380,E,192739,A,A*47
$IIHDG,060,,,,*4B
$IIMTW,+20.5,C*4E
$IIMWV,194,R,00.6,N,A*4C
$IIMWV,195,T,00.9,N,A*4C
$IIRMC,192739,A,5450.266,N,00931.380,E,00.6,001,310713,,,A*5C
$IIRMB,A,2.00,R,,VIDY,,,,,003.16,281,,V,A*66
$IIVHW,,,061,M,00.0,N,,*49
$IIVLW,01330,N,000.0,N*4D
$IIVWR,167,L,00.8,N,,,,*53
$IIDPT,002.6,-1.0,*40
$IIGLL,5450.266,N,00931.380,E,192740,A,A*47
$IIHDG,061,,,,*4B
$IIMTW,+20.5,C*4E
$IIMWV,193,R,00.8,N,A*4C
$IIMWV,194,T,00.6,N,A*4C
$IIRMC,192741,A,5450.266,N,00931.380,E,00.6,001,310713,,,A*5C
$IIVHW,,,062,M,00.0,N,,*49
$IIVLW,01330,N,000.0,N*4D
$IIVWR,168,L,00.6,N,,,,*53
$IIDPT,002.6,-1.0,*40
$IIGLL,5450.266,N,00931.380,E,192741,A,A*47
$IIHDG,062,,,,*4B
$IIMTW,+20.5,C*4E
$IIMWV,192,R,00.6,N,A*4C
$IIMWV,192,T,00.6,N,A*4C
$IIRMC,192742,A,5450.266,N,00931.379,E,00.6,001,310713,,,A*5C
$IIVHW,,,062,M,00.0,N,,*49
$IIVLW,01330,N,000.0,N*4D
$IIVWR,168,L,00.4,N,,,,*53
$IIDPT,002.6,-1.0,*40
$IIGLL,5450.266,N,00931.379,E,192742,A,A*47
$IIHDG,062,,,,*4B
$IIMTW,+20.5,C*4E
$IIRMB,A,3.00,R,,VIDY,,,,,003.16,281,,V,A*67
$IIMWV,195,R,00.6,N,A*4C
$IIMWV,192,T,00.4,N,A*4C
$IIRMC,192743,A,5450.266,N,00931.379,E,00.6,001,310713,,,A*5C
$IIVHW,,,062,M,00.0,N,,*49
$IIVLW,01330,N,000.0,N*4D
$IIVWR,165,L,00.6,N,,,,*53
$IIDPT,002.6,-1.0,*40
$IIGLL,5450.266,N,00931.379,E,192743,A,A*47
$IIHDG,062,,,,*4B
$IIMTW,+20.5,C*4E
$IIMWV,190,R,00.4,N,A*4C
$IIMWV,195,T,00.6,N,A*4C
$IIRMC,192744,A,5450.266,N,00931.379,E,00.6,001,310713,,,A*5C
$IIVHW,,,062,M,00.0,N,,*49
$IIVLW,01330,N,000.0,N*4D
$IIVWR,170,L,00.4,N,,,,*53
$IIDPT,002.6,-1.0,*40
$IIGLL,5450.266,N,00931.379,E,192744,A,A*47
$IIHDG,061,,,,*4B
$IIMTW,+20.5,C*4E
$IIMWV,186,R,00.2,N,A*4C
$IIMWV,190,T,00.4,N,A*4C
$IIRMC,192745,A,5450.266,N,00931.379,E,00.6,001,310713,,,A*5C
$IIVHW,,,061,M,00.0,N,,*49
$IIVLW,01330,N,000.0,N*4D
$IIVWR,174,L,00.2,N,,,,*53
$IIDPT,002.6,-1.0,*40
$IIRMB,A,4.00,R,,VIDY,,,,,003.16,281,,V,A*60
$IIGLL,5450.266,N,00931.379,E,192746,A,A*47
$IIHDG,060,,,,*4B
$IIMTW,+20.5,C*4E
$IIMWV,184,R,00.2,N,A*4C
$IIMWV,186,T,00.2,N,A*4C
$IIRMC,192746,A,5450.266,N,00931.379,E,00.6,001,310713,,,A*5C
$IIVHW,,,060,M,00.0,N,,*49
$IIVLW,01330,N,000.0,N*4D
$IIVWR,176,L,00.2,N,,,,*53
$IIDPT,002.6,-1.0,*40
$IIGLL,5450.266,N,00931.379,E,192747,A,A*47
$IIHDG,060,,,,*4B
$IIMTW,+20.5,C*4E
$IIMWV,184,R,00.1,N,A*4C
$IIMWV,184,T,00.2,N,A*4C
$IIRMC,192747,A,5450.266,N,00931.379,E,00.6,001,310713,,,A*5C
$IIVHW,,,060,M,00.0,N,,*49
$IIVLW,01330,N,000.0,N*4D
$IIVWR,173,L,00.1,N,,,,*53
$IIDPT,002.6,-1.0,*40
$IIGLL,5450.266,N,00931.379,E,192748,A,A*47
$IIHDG,060,,,,*4B
$IIMTW,+21.0,C*4E
$IIMWV,187,R,00.1,N,A*4C
$IIMWV,184,T,00.1,N,A*4C
$IIRMC,192748,A,5450.266,N,00931.379,E,00.6,001,310713,,,A*5C
$IIVHW,,,060,M,00.0,N,,*49
$IIRMB,A,5.00,R,,VIDY,,,,,003.16,281,,V,A*61
$IIVLW,01330,N,000.0,N*4D
$IIVWR,173,L,00.0,N,,,,*53
$IIDPT,002.6,-1.0,*40
$IIGLL,5450.266,N,00931.379,E,192749,A,A*47
$IIHDG,061,,,,*4B
$IIMTW,+21.0,C*4E
$IIMWV,187,R,00.0,N,A*4C
$IIMWV,187,T,00.1,N,A*4C
$IIRMC,192749,A,5450.266,N,00931.379,E,00.6,001,310713,,,A*5C
$IIVHW,,,062,M,00.0,N,,*49
$IIVLW,01330,N,000.0,N*4D
$IIVWR,173,L,00.0,N,,,,*53
$IIDPT,002.6,-1.0,*40
$IIGLL,5450.266,N,00931.379,E,192750,A,A*47
$IIHDG,062,,,,*4B
$IIMTW,+21.0,C*4E
$IIMWV,187,R,00.0,N,A*4C
$IIMWV,187,T,00.0,N,A*4C
$IIRMC,192751,A,5450.266,N,00931.379,E,00.6,001,310713,,,A*5C
$IIVHW,,,061,M,00.0,N,,*49
$IIVLW,01330,N,000.0,N*4D
$IIVWR,177,L,00.0,N,,,,*53
$IIDPT,002.6,-1.0,*40
$IIGLL,5450.266,N,00931.379,E,192751,A,A*47
$IIHDG,061,,,,*4B
$IIMTW,+21.0,C*4E
$IIMWV,183,R,00.0,N,A*4C
$IIRMB,A,6.00,R,,VIDY,,,,,003.16,281,,V,A*62
$IIMWV,183,T,00.0,N,A*4C
$IIRMC,192752,A,5450.266,N,00931.379,E,00.6,001,310713,,,A*5C
$IIVHW,,,061,M,00.0,N,,*49
$IIVLW,01330,N,000.0,N*4D
$IIVWR,172,R,00.0,N,,,,*53
$IIDPT,002.6,-1.0,*40
$IIGLL,5450.266,N,00931.379,E,192752,A,A*47
$IIHDG,061,,,,*4B
$IIMTW,+21.0,C*4E
$IIMWV,178,R,00.0,N,A*4C
$IIMWV,172,T,00.0,N,A*4C
$IIRMC,192753,A,5450.266,N,00931.379,E,00.6,001,310713,,,A*5C
$IIVHW,,,060,M,00.0,N,,*49
$IIVLW,01330,N,000.0,N*4D
$IIVWR,178,R,00.0,N,,,,*53
$IIDPT,002.6,-1.0,*40
$IIGLL,5450.266,N,00931.379,E,192753,A,A*47
$IIHDG,060,,,,*4B
$IIMTW,+20.0,C*4E
$IIMWV,207,R,00.0,N,A*4C
$IIMWV,178,T,00.0,N,A*4C
$IIRMC,192754,A,5450.266,N,00931.379,E,00.6,001,310713,,,A*5C
$IIVHW,,,060,M,00.0,N,,*49
$IIVLW,01330,N,000.0,N*4D
$IIVWR,153,L,00.0,N,,,,*53
$IIDPT,002.6,-1.0,*40
$IIGLL,5450.266,N,00931.379,E,192754,A,A*47
$IIRMB,A,7.00,R,,VIDY,,,,,003.16,281,,V,A*63
$IIHDG,060,,,,*4B
$IIMTW,+20.5,C*4E
$IIMWV,206,R,00.0,N,A*4C
$IIMWV,207,T,00.0,N,A*4C
$IIRMC,192755,A,5450.266,N,00931.379,E,00.6,001,310713,,,A*5C
$IIVHW,,,060,M,00.0,N,,*49
$IIVLW,01330,N,000.0,N*4D
$IIVWR,154,L,00.0,N,,,,*53
$IIDPT,002.6,-1.0,*40
$IIGLL,5450.266,N,00931.379,E,192756,A,A*47
$IIHDG,061,,,,*4B
$IIMTW,+20.5,C*4E
$IIMWV,178,R,00.0,N,A*4C
$IIMWV,206,T,00.0,N,A*4C
$IIRMC,192756,A,5450.266,N,00931.379,E,00.6,001,310713,,,A*5C
$IIVHW,,,061,M,00.0,N,,*49
$IIVLW,01330,N,000.0,N*4D
$IIVWR,178,R,00.0,N,,,,*53
$IIDPT,002.6,-1.0,*40
$IIGLL,5450.266,N,00931.379,E,192757,A,A*47
$IIHDG,062,,,,*4B
$IIMTW,+20.5,C*4E
$IIMWV,162,R,00.0,N,A*4C
$IIMWV,178,T,00.0,N,A*4C
$IIRMC,192757,A,5450.266,N,00931.379,E,00.6,001,310713,,,A*5C
$IIVHW,,,062,M,00.0,N,,*49
$IIVLW,01330,N,000.0,N*4D
$IIRMB,A,8.00,R,,VIDY,,,,,003.16,281,,V,A*6C
$IIVWR,178,R,00.0,N,,,,*53
$IIDPT,002.6,-1.0,*40
$IIGLL,5450.266,N,00931.379,E,192758,A,A*47
$IIHDG,061,,,,*4B
$IIMTW,+20.5,C*4E
$IIMWV,178,R,00.0,N,A*4C
$IIMWV,162,T,00.0,N,A*4C
$IIRMC,192758,A,5450.266,N,00931.379,E,00.6,001,310713,,,A*5C
$IIVHW,,,061,M,00.0,N,,*49
$IIVLW,01330,N,000.0,N*4D
$IIVWR,161,L,00.0,N,,,,*53
$IIDPT,002.6,-1.0,*40
$IIGLL,5450.266,N,00931.379,E,192759,A,A*47
$IIHDG,061,,,,*4B
$IIMTW,+20.5,C*4E
$IIMWV,199,R,00.0,N,A*4C
$IIMWV,178,T,00.0,N,A*4C
$IIRMC,192759,A,5450.266,N,00931.379,E,00.6,001,310713,,,A*5C
$IIVHW,,,061,M,00.0,N,,*49
$IIVLW,01330,N,000.0,N*4D
$IIVWR,153,L,00.0,N,,,,*53
$IIDPT,002.6,-1.0,*40
$IIGLL,5450.266,N,00931.379,E,192800,A,A*47
$IIHDG,061,,,,*4B
$IIMTW,+20.5,C*4E
$IIMWV,207,R,00.0,N,A*4C
$IIMWV,199,T,00.0,N,A*4C
$IIRMB,A,9.00,R,,VIDY,,,,,003.16,281,,V,A*6D
$IIRMC,192801,A,5450.266,N,00931.379,E,00.6,001,310713,,,A*5C
$IIVHW,,,061,M,00.0,N,,*49
$IIVLW,01330,N,000.0,N*4D
$IIVWR,173,L,00.0,N,,,,*53
$IIDPT,002.6,-1.0,*40
$IIGLL,5450.266,N,00931.379,E,192801,A,A*47
$IIHDG,061,,,,*4B
$IIMTW,+20.5,C*4E
$IIMWV,187,R,00.0,N,A*4C
$IIMWV,187,T,00.0,N,A*4C
$IIRMC,192802,A,5450.266,N,00931.379,E,00.6,001,310713,,,A*5C
$IIVHW,,,061,M,00.0,N,,*49
$IIVLW,01330,N,000.0,N*4D
$IIVWR,164,R,00.0,N,,,,*53
$IIDPT,002.6,-1.0,*40
$IIGLL,5450.266,N,00931.379,E,192802,A,A*47
$IIHDG,061,,,,*4B
$IIMTW,+20.5,C*4E
$IIMWV,167,R,00.0,N,A*4C
$IIMWV,164,T,00.0,N,A*4C
$IIRMC,192803,A,5450.266,N,00931.379,E,00.6,001,310713,,,A*5C
$IIVHW,,,061,M,00.0,N,,*49
$IIVLW,01330,N,000.0,N*4D
$IIVWR,167,R,00.0,N,,,,*53
$IIDPT,002.6,-1.0,*40
$IIGLL,5450.266,N,00931.379,E,192803,A,A*47
$IIHDG,061,,,,*4B
$IIRMB,A,0.00,R,,VIDY,,,,,003.16,281,,V,A*64
$IIMTW,+20.5,C*4E
$IIMWV,006,R,00.0,N,A*4C
$IIMWV,167,T,00.0,N,A*4C
$IIRMC,192804,A,5450.266,N,00931.379,E,00.6,001,310713,,,A*5C
$IIVHW,,,061,M,00.0,N,,*49
$IIVLW,01330,N,000.0,N*4D
$IIVWR,006,R,00.0,N,,,,*53
$IIDPT,002.6,-1.0,*40
$IIGLL,5450.266,N,00931.379,E,192804,A,A*47
$IIHDG,061,,,,*4B
$IIMTW,+20.5,C*4E
$IIMWV,209,R,00.0,N,A*4C
$IIMWV,006,T,00.0,N,A*4C
$IIRMC,192805,A,5450.266,N,00931.379,E,00.6,001,310713,,,A*5C
$IIVHW,,,061,M,00.0,N,,*49
$IIVLW,01330,N,000.0,N*4D
$IIVWR,151,L,00.0,N,,,,*53
$IIDPT,002.6,-1.0,*40
$IIGLL,5450.266,N,00931.379,E,192806,A,A*47
$IIHDG,061,,,,*4B
$IIMTW,+20.5,C*4E
$IIMWV,217,R,00.6,N,A*4C
$IIMWV,209,T,00.0,N,A*4C
$IIRMC,192806,A,5450.266,N,00931.379,E,00.6,001,310713,,,A*5C
$IIVHW,,,061,M,00.0,N,,*49
$IIVLW,01330,N,000.0,N*4D
$IIVWR,143,L,00.6,N,,,,*53
$IIRMB,A,1.00,R,,VIDY,,,,,003.16,281,,V,A*65
$IIDPT,002.6,-1.0,*40
$IIGLL,5450.266,N,00931.379,E,192807,A,A*47
$IIHDG,060,,,,*4B
$IIMTW,+20.5,C*4E
$IIMWV,231,R,00.5,N,A*4C
$IIMWV,217,T,00.6,N,A*4C
$IIRMC,192807,A,5450.266,N,00931.379,E,00.6,001,310713,,,A*5C
$IIVHW,,,060,M,00.0,N,,*49
$IIVLW,01330,N,000.0,N*4D
$IIVWR,124,L,00.9,N,,,,*53
$IIDPT,002.6,-1.0,*40
$IIGLL,5450.266,N,00931.379,E,192808,A,A*47
$IIHDG,060,,,,*4B
$IIMTW,+20.5,C*4E
$IIMWV,236,R,00.9,N,A*4C
$IIMWV,231,T,00.5,N,A*4C
$IIRMC,192808,A,5450.266,N,00931.379,E,00.6,001,310713,,,A*5C
$IIVHW,,,060,M,00.0,N,,*49
$IIVLW,01330,N,000.0,N*4D
$IIVWR,140,L,00.7,N,,,,*53
$IIDPT,002.6,-1.0,*40
$IIGLL,5450.266,N,00931.379,E,192809,A,A*47
$IIHDG,060,,,,*4B
$IIMTW,+20.5,C*4E
$IIMWV,220,R,00.7,N,A*4C
$IIMWV,236,T,00.9,N,A*4C
$IIRMC,192809,A,5450.266,N,00931.379,E,00.6,001,310713,,,A*5C
$IIRMB,A,2.00,R,,VIDY,,,,,003.16,281,,V,A*66
$IIVHW,,,061,M,00.0,N,,*49
$IIVLW,01330,N,000.0,N*4D
$IIVWR,165,L,01.1,N,,,,*53
$IIDPT,002.6,-1.0,*40
$IIGLL,5450.266,N,00931.379,E,192810,A,A*47
$IIHDG,061,,,,*4B
$IIMTW,+20.5,C*4E
$IIMWV,195,R,01.1,N,A*4C
$IIMWV,220,T,00.7,N,A*4C
$IIRMC,192811,A,5450.266,N,00931.379,E,00.6,001,310713,,,A*5C
$IIVHW,,,062,M,00.0,N,,*49
$IIVLW,01330,N,000.0,N*4D
$IIVWR,178,R,00.8,N,,,,*53
$IIDPT,002.6,-1.0,*40
$IIGLL,5450.266,N,00931.379,E,192811,A,A*47
$IIHDG,062,,,,*4B
$IIMTW,+20.5,C*4E
$IIMWV,178,R,00.8,N,A*4C
$IIMWV,178,T,00.8,N,A*4C
$IIRMC,192812,A,5450.266,N,00931.379,E,00.6,001,310713,,,A*5C
$IIVHW,,,061,M,00.0,N,,*49
$IIVLW,01330,N,000.0,N*4D
$IIVWR,180,R,01.2,N,,,,*53
$IIDPT,002.6,-1.0,*40
$IIGLL,5450.266,N,00931.379,E,192812,A,A*47
$IIHDG,061,,,,*4B
$IIMTW,+20.5,C*4E
$IIRMB,A,3.00,R,,VIDY,,,,,003.16,281,,V,A*67
$IIMWV,179,R,01.1,N,A*4C
$IIMWV,180,T,01.2,N,A*4C
$IIRMC,192813,A,5450.266,N,00931.379,E,00.6,001,310713,,,A*5C
$IIVHW,,,061,M,00.0,N,,*49
$IIVLW,01330,N,000.0,N*4D
$IIVWR,179,R,01.1,N,,,,*53
$IIDPT,002.6,-1.0,*40
$IIGLL,5450.266,N,00931.379,E,192813,A,A*47
$IIHDG,061,,,,*4B
$IIMTW,+20.5,C*4E
$IIMWV,174,R,01.4,N,A*4C
$IIMWV,179,T,01.1,N,A*4C
$IIRMC,192814,A,5450.266,N,00931.379,E,00.6,001,310713,,,A*5C
$IIVHW,,,061,M,00.0,N,,*49
$IIVLW,01330,N,000.0,N*4D
$IIVWR,174,R,01.4,N,,,,*53
$IIDPT,002.6,-1.0,*40
$IIGLL,5450.266,N,00931.379,E,192814,A,A*47
$IIHDG,061,,,,*4B
$IIMTW,+20.5,C*4E
$IIMWV,171,R,01.6,N,A*4C
$IIMWV,174,T,01.4,N,A*4C
$IIRMC,192815,A,5450.266,N,00931.379,E,00.6,001,310713,,,A*5C
$IIVHW,,,061,M,00.0,N,,*49
$IIVLW,01330,N,000.0,N*4D
$IIVWR,171,R,01.6,N,,,,*53
$IIDPT,002.6,-1.0,*40
$IIRMB,A,4.00,R,,VIDY,,,,,003.16,281,,V,A*60
$IIGLL,5450.266,N,00931.379,E,192816,A,A*47
$IIHDG,061,,,,*4B
$IIMTW,+20.5,C*4E
$IIMWV,169,R,01.8,N,A*4C
$IIMWV,171,T,01.6,N,A*4C
$IIRMC,192816,A,5450.266,N,00931.379,E,00.6,001,310713,,,A*5C
$IIVHW,,,061,M,00.0,N,,*49
$IIVLW,01330,N,000.0,N*4D
$IIVWR,169,R,01.8,N,,,,*53
$IIDPT,002.6,-1.0,*40
$IIGLL,5450.266,N,00931.379,E,192817,A,A*47
$IIHDG,061,,,,*4B
$IIMTW,+20.5,C*4E
$IIMWV,170,R,01.7,N,A*4C
$IIMWV,169,T,01.8,N,A*4C
$IIRMC,192817,A,5450.266,N,00931.379,E,00.6,001,310713,,,A*5C
$IIVHW,,,061,M,00.0,N,,*49
$IIVLW,01330,N,000.0,N*4D
$IIVWR,173,R,01.7,N,,,,*53
$IIDPT,002.6,-1.0,*40
$IIGLL,5450.266,N,00931.379,E,192818,A,A*47
$IIHDG,062,,,,*4B
$IIMTW,+20.5,C*4E
$IIMWV,173,R,01.7,N,A*4C
$IIMWV,170,T,01.7,N,A*4C
$IIRMC,192818,A,5450.266,N,00931.379,E,00.6,001,310713,,,A*5C
$IIVHW,,,062,M,00.0,N,,*49
$IIRMB,A,5.00,R,,VIDY,,,,,003.16,281,,V,A*61
$IIVLW,01330,N,000.0,N*4D
$IIVWR,178,R,01.9,N,,,,*53
$IIDPT,002.6,-1.0,*40
$IIGLL,5450.266,N,00931.379,E,192819,A,A*47
$IIHDG,061,,,,*4B
$IIMTW,+20.5,C*4E
$IIMWV,178,R,01.9,N,A*4C
$IIMWV,173,T,01.7,N,A*4C
$IIRMC,192819,A,5450.266,N,00931.379,E,00.6,001,310713,,,A*5C
$IIVHW,,,061,M,00.0,N,,*49
$IIVLW,01330,N,000.0,N*4D
$IIVWR,172,R,01.9,N,,,,*53
$IIDPT,002.6,-1.0,*40
$IIGLL,5450.266,N,00931.379,E,192820,A,A*47
$IIHDG,061,,,,*4B
$IIMTW,+20.5,C*4E
$IIMWV,172,R,01.9,N,A*4C
$IIMWV,178,T,01.9,N,A*4C
$IIRMC,192821,A,5450.266,N,00931.379,E,00.6,001,310713,,,A*5C
$IIVHW,,,061,M,00.0,N,,*49
$IIVLW,01330,N,000.0,N*4D
$IIVWR,168,R,01.5,N,,,,*53
$IIDPT,002.6,-1.0,*40
$IIGLL,5450.266,N,00931.379,E,192821,A,A*47
$IIHDG,061,,,,*4B
$IIMTW,+20.5,C*4E
$IIMWV,168,R,01.5,N,A*4C
$IIRMB,A,6.00,R,,VIDY,,,,,003.16,281,,V,A*62
$IIMWV,168,T,01.5,N,A*4C
$IIRMC,192822,A,5450.266,N,00931.379,E,00.6,001,310713,,,A*5C
$IIVHW,,,061,M,00.0,N,,*49
$IIVLW,01330,N,000.0,N*4D
$IIVWR,167,R,01.1,N,,,,*53
$IIDPT,002.6,-1.0,*40
$IIGLL,5450.266,N,00931.379,E,192822,A,A*47
$IIHDG,061,,,,*4B
$IIMTW,+20.5,C*4E
$IIMWV,167,R,01.1,N,A*4C
$IIMWV,167,T,01.1,N,A*4C
$IIRMC,192823,A,5450.266,N,00931.379,E,00.6,001,310713,,,A*5C
$IIVHW,,,060,M,00.0,N,,*49
$IIVLW,01330,N,000.0,N*4D
$IIVWR,167,R,01.1,N,,,,*53
$IIDPT,002.6,-1.0,*40
$IIGLL,5450.266,N,00931.379,E,192823,A,A*47
$IIHDG,060,,,,*4B
$IIMTW,+20.5,C*4E
$IIMWV,170,R,01.1,N,A*4C
$IIMWV,167,T,01.1,N,A*4C
$IIRMC,192824,A,5450.266,N,00931.379,E,00.6,001,310713,,,A*5C
$IIVHW,,,061,M,00.0,N,,*49
$IIVLW,01330,N,000.0,N*4D
$IIVWR,170,R,01.1,N,,,,*53
$IIDPT,002.6,-1.0,*40
$IIGLL,5450.266,N,00931.379,E,192824,A,A*47
$IIRMB,A,7.00,R,,VIDY,,,,,003.16,281,,V,A*63
$IIHDG,061,,,,*4B
$IIMTW,+20.5,C*4E
$IIMWV,180,R,00.8,N,A*4C
$IIMWV,170,T,01.1,N,A*4C
$IIRMC,192825,A,5450.266,N,00931.379,E,00.6,001,310713,,,A*5C
$IIVHW,,,061,M,00.0,N,,*49
$IIVLW,01330,N,000.0,N*4D
$IIVWR,180,R,00.8,N,,,,*53
$IIDPT,002.6,-1.0,*40
$IIGLL,5450.266,N,00931.379,E,192826,A,A*47
$IIHDG,062,,,,*4B
$IIMTW,+20.5,C*4E
$IIMWV,192,R,00.6,N,A*4C
$IIMWV,180,T,00.8,N,A*4C
$IIRMC,192826,A,5450.266,N,00931.379,E,00.6,001,310713,,,A*5C
$IIVHW,,,062,M,00.0,N,,*49
$IIVLW,01330,N,000.0,N*4D
$IIVWR,168,L,00.6,N,,,,*53
$IIDPT,002.6,-1.0,*40
$IIGLL,5450.266,N,00931.379,E,192827,A,A*47
$IIHDG,061,,,,*4B
$IIMTW,+20.5,C*4E
$IIMWV,194,R,00.5,N,A*4C
$IIMWV,192,T,00.6,N,A*4C
$IIRMC,192827,A,5450.266,N,00931.379,E,00.6,001,310713,,,A*5C
$IIVHW,,,061,M,00.0,N,,*49
$IIVLW,01330,N,000.0,N*4D
$IIRMB,A,8.00,R,,VIDY,,,,,003.16,281,,V,A*6C
$IIVWR,164,L,00.3,N,,,,*53
$IIDPT,002.6,-1.0,*40
$IIGLL,5450.267,N,00931.379,E,192828,A,A*47
$IIHDG,060,,,,*4B
$IIMTW,+21.0,C*4E
$IIMWV,196,R,00.3,N,A*4C
$IIMWV,194,T,00.5,N,A*4C
$IIRMC,192828,A,5450.267,N,00931.379,E,00.6,001,310713,,,A*5C
$IIVHW,,,060,M,00.0,N,,*49
$IIVLW,01330,N,000.0,N*4D
$IIVWR,151,L,00.3,N,,,,*53
$IIDPT,002.6,-1.0,*40
$IIGLL,5450.267,N,00931.379,E,192829,A,A*47
$IIHDG,061,,,,*4B
$IIMTW,+21.0,C*4E
$IIMWV,209,R,00.3,N,A*4C
$IIMWV,196,T,00.3,N,A*4C
$IIRMC,192829,A,5450.267,N,00931.379,E,00.6,001,310713,,,A*5C
$IIVHW,,,061,M,00.0,N,,*49
$IIVLW,01330,N,000.0,N*4D
$IIVWR,141,L,00.2,N,,,,*53
$IIDPT,002.6,-1.0,*40
$IIGLL,5450.267,N,00931.379,E,192830,A,A*47
$IIHDG,061,,,,*4B
$IIMTW,+21.0,C*4E
$IIMWV,219,R,00.2,N,A*4C
$IIMWV,209,T,00.3,N,A*4C
$IIRMB,A,9.00,R,,VIDY,,,,,003.16,281,,V,A*6D
$IIRMC,192831,A,5450.267,N,00931.379,E,00.6,001,310713,,,A*5C
$IIVHW,,,061,M,00.0,N,,*49
$IIVLW,01330,N,000.0,N*4D
$IIVWR,138,L,00.1,N,,,,*53
$IIDPT,002.6,-1.0,*40
$IIGLL,5450.267,N,00931.379,E,192831,A,A*47
$IIHDG,061,,,,*4B
$IIMTW,+21.0,C*4E
$IIMWV,222,R,00.1,N,A*4C
$IIMWV,222,T,00.1,N,A*4C
$IIRMC,192832,A,5450.267,N,00931.379,E,00.6,001,310713,,,A*5C
$IIVHW,,,062,M,00.0,N,,*49
$IIVLW,01330,N,000.0,N*4D
$IIVWR,146,L,00.1,N,,,,*53
$IIDPT,002.6,-1.0,*40
$IIGLL,5450.267,N,00931.379,E,192832,A,A*47
$IIHDG,062,,,,*4B
$IIMTW,+21.0,C*4E
$IIMWV,198,R,00.1,N,A*4C
$IIMWV,214,T,00.1,N,A*4C
$IIRMC,192833,A,5450.267,N,00931.379,E,00.6,001,310713,,,A*5C
$IIVHW,,,062,M,00.0,N,,*49
$IIVLW,01330,N,000.0,N*4D
$IIVWR,162,L,00.1,N,,,,*53
$IIDPT,002.6,-1.0,*40
$IIGLL,5450.267,N,00931.379,E,192833,A,A*47
$IIHDG,062,,,,*4B
$IIRMB,A,0.00,R,,VIDY,,,,,003.16,281,,V,A*64
$IIMTW,+21.0,C*4E
$IIMWV,183,R,00.0,N,A*4C
$IIMWV,198,T,00.1,N,A*4C
$IIRMC,192834,A,5450.267,N,00931.379,E,00.6,001,310713,,,A*5C
$IIVHW,,,061,M,00.0,N,,*49
$IIVLW,01330,N,000.0,N*4D
$IIVWR,177,L,00.0,N,,,,*53
$IIDPT,002.6,-1.0,*40
$IIGLL,5450.267,N,00931.379,E,192834,A,A*47
$IIHDG,060,,,,*4B
$IIMTW,+21.0,C*4E
$IIMWV,172,R,00.0,N,A*4C
$IIMWV,183,T,00.0,N,A*4C
$IIRMC,192835,A,5450.267,N,00931.379,E,00.6,001,310713,,,A*5C
$IIVHW,,,060,M,00.0,N,,*49
$IIVLW,01330,N,000.0,N*4D
$IIVWR,172,R,00.0,N,,,,*53
$IIDPT,002.6,-1.0,*40
$IIGLL,5450.267,N,00931.379,E,192836,A,A*47
$IIHDG,060,,,,*4B
$IIMTW,+21.0,C*4E
$IIMWV,161,R,00.0,N,A*4C
$IIMWV,172,T,00.0,N,A*4C
$IIRMC,192836,A,5450.267,N,00931.379,E,00.6,001,310713,,,A*5C
$IIVHW,,,060,M,00.0,N,,*49
$IIVLW,01330,N,000.0,N*4D
$IIVWR,161,R,00.0,N,,,,*53
$IIRMB,A,1.00,R,,VIDY,,,,,003.16,281,,V,A*65
$IIDPT,002.6,-1.0,*40
$IIGLL,5450.266,N,00931.379,E,192837,A,A*47
$IIHDG,061,,,,*4B
$IIMTW,+21.0,C*4E
$IIMWV,163,R,00.0,N,A*4C
$IIMWV,161,T,00.0,N,A*4C
$IIRMC,192837,A,5450.266,N,00931.379,E,00.6,001,310713,,,A*5C
$IIVHW,,,061,M,00.0,N,,*49
$IIVLW,01330,N,000.0,N*4D
$IIVWR,165,R,00.0,N,,,,*53
$IIDPT,002.6,-1.0,*40
$IIGLL,5450.266,N,00931.379,E,192838,A,A*47
$IIHDG,062,,,,*4B
$IIMTW,+21.0,C*4E
$IIMWV,165,R,00.0,N,A*4C
$IIMWV,163,T,00.0,N,A*4C
$IIRMC,192838,A,5450.266,N,00931.379,E,00.6,001,310713,,,A*5C
$IIVHW,,,062,M,00.0,N,,*49
$IIVLW,01330,N,000.0,N*4D
$IIVWR,163,R,00.0,N,,,,*53
$IIDPT,002.6,-1.0,*40
$IIGLL,5450.266,N,00931.380,E,192839,A,A*47
$IIHDG,062,,,,*4B
$IIMTW,+21.0,C*4E
$IIMWV,163,R,00.0,N,A*4C
$IIMWV,165,T,00.0,N,A*4C
$IIRMC,192839,A,5450.266,N,00931.380,E,00.6,001,310713,,,A*5C
$IIRMB,A,2.00,R,,VIDY,,,,,003.16,281,,V,A*66
$IIVHW,,,062,M,00.0,N,,*49
$IIVLW,01330,N,000.0,N*4D
$IIVWR,158,R,00.6,N,,,,*53
$IIDPT,002.6,-1.0,*40
$IIGLL,5450.266,N,00931.380,E,192840,A,A*47
$IIHDG,062,,,,*4B
$IIMTW,+21.0,C*4E
$IIMWV,158,R,00.6,N,A*4C
$IIMWV,163,T,00.0,N,A*4C
$IIRMC,192841,A,5450.266,N,00931.380,E,00.6,001,310713,,,A*5C
$IIVHW,,,060,M,00.0,N,,*49
$IIVLW,01330,N,000.0,N*4D
$IIVWR,159,R,01.1,N,,,,*53
$IIDPT,002.6,-1.0,*40
$IIGLL,5450.266,N,00931.380,E,192841,A,A*47
$IIHDG,060,,,,*4B
$IIMTW,+21.0,C*4E
$IIMWV,159,R,01.1,N,A*4C
$IIMWV,159,T,01.1,N,A*4C
$IIRMC,192842,A,5450.266,N,00931.380,E,00.6,001,310713,,,A*5C
$IIVHW,,,060,M,00.0,N,,*49
$IIVLW,01330,N,000.0,N*4D
$IIVWR,167,R,01.5,N,,,,*53
$IIDPT,002.6,-1.0,*40
$IIGLL,5450.266,N,00931.380,E,192842,A,A*47
$IIHDG,060,,,,*4B
$IIMTW,+21.0,C*4E
$IIRMB,A,3.00,R,,VIDY,,,,,003.16,281,,V,A*67
$IIMWV,170,R,02.3,N,A*4C
$IIMWV,167,T,01.5,N,A*4C
$IIRMC,192843,A,5450.266,N,00931.380,E,00.6,001,310713,,,A*5C
$IIVHW,,,060,M,00.0,N,,*49
$IIVLW,01330,N,000.0,N*4D
$IIVWR,170,R,02.3,N,,,,*53
$IIDPT,002.6,-1.0,*40
$IIGLL,5450.266,N,00931.380,E,192843,A,A*47
$IIHDG,060,,,,*4B
$IIMTW,+20.5,C*4E
$IIMWV,170,R,02.9,N,A*4C
$IIMWV,170,T,02.3,N,A*4C
$IIRMC,192844,A,5450.266,N,00931.380,E,00.6,001,310713,,,A*5C
$IIVHW,,,062,M,00.0,N,,*49
$IIVLW,01330,N,000.0,N*4D
$IIVWR,170,R,02.9,N,,,,*53
$IIDPT,002.6,-1.0,*40
$IIGLL,5450.266,N,00931.380,E,192844,A,A*47
$IIHDG,062,,,,*4B
$IIMTW,+20.5,C*4E
$IIMWV,168,R,03.3,N,A*4C
$IIMWV,170,T,02.9,N,A*4C
$IIRMC,192845,A,5450.266,N,00931.380,E,00.6,001,310713,,,A*5C
$IIVHW,,,062,M,00.0,N,,*49
$IIVLW,01330,N,000.0,N*4D
$IIVWR,168,R,03.3,N,,,,*53
$IIDPT,002.6,-1.0,*40
$IIRMB,A,4.00,R,,VIDY,,,,,003.16,281,,V,A*60
$IIGLL,5450.266,N,00931.380,E,192846,A,A*47
$IIHDG,062,,,,*4B
$IIMTW,+20.5,C*4E
$IIMWV,167,R,03.6,N,A*4C
$IIMWV,168,T,03.3,N,A*4C
$IIRMC,192846,A,5450.266,N,00931.380,E,00.6,001,310713,,,A*5C
$IIVHW,,,062,M,00.0,N,,*49
$IIVLW,01330,N,000.0,N*4D
$IIVWR,167,R,03.6,N,,,,*53
$IIDPT,002.6,-1.0,*40
$IIGLL,5450.266,N,00931.380,E,192847,A,A*47
$IIHDG,061,,,,*4B
$IIMTW,+20.5,C*4E
$IIMWV,171,R,03.9,N,A*4C
$IIMWV,167,T,03.6,N,A*4C
$IIRMC,192847,A,5450.266,N,00931.380,E,00.6,001,310713,,,A*5C
$IIVHW,,,061,M,00.0,N,,*49
$IIVLW,01330,N,000.0,N*4D
$IIVWR,176,R,04.9,N,,,,*53
$IIDPT,002.6,-1.0,*40
$IIGLL,5450.266,N,00931.380,E,192848,A,A*47
$IIHDG,061,,,,*4B
$IIMTW,+20.5,C*4E
$IIMWV,176,R,04.9,N,A*4C
$IIMWV,171,T,03.9,N,A*4C
$IIRMC,192848,A,5450.266,N,00931.380,E,00.6,001,310713,,,A*5C
$IIVHW,,,061,M,00.0,N,,*49
$IIRMB,A,5.00,R,,VIDY,,,,,003.16,281,,V,A*61
$IIVLW,01330,N,000.0,N*4D
$IIVWR,177,R,05.1,N,,,,*53
$IIDPT,002.6,-1.0,*40
$IIGLL,5450.266,N,00931.380,E,192849,A,A*47
$IIHDG,060,,,,*4B
$IIMTW,+20.5,C*4E
$IIMWV,177,R,05.1,N,A*4C
$IIMWV,176,T,04.9,N,A*4C
$IIRMC,192849,A,5450.266,N,00931.380,E,00.6,001,310713,,,A*5C
$IIVHW,,,061,M,00.0,N,,*49
$IIVLW,01330,N,000.0,N*4D
$IIVWR,174,R,05.4,N,,,,*53
$IIDPT,002.6,-1.0,*40
$IIGLL,5450.266,N,00931.380,E,192850,A,A*47
$IIHDG,061,,,,*4B
$IIMTW,+20.5,C*4E
$IIMWV,174,R,05.4,N,A*4C
$IIMWV,177,T,05.1,N,A*4C
$IIRMC,192851,A,5450.266,N,00931.380,E,00.6,001,310713,,,A*5C
$IIVHW,,,061,M,00.0,N,,*49
$IIVLW,01330,N,000.0,N*4D
$IIVWR,168,R,05.7,N,,,,*53
$IIDPT,002.6,-1.0,*40
$IIGLL,5450.266,N,00931.380,E,192851,A,A*47
$IIHDG,061,,,,*4B
$IIMTW,+20.5,C*4E
$IIMWV,168,R,05.7,N,A*4C
$IIRMB,A,6.00,R,,VIDY,,,,,003.16,281,,V,A*62
$IIMWV,168,T,05.7,N,A*4C
$IIRMC,192852,A,5450.266,N,00931.380,E,00.6,001,310713,,,A*5C
$IIVHW,,,062,M,00.0,N,,*49
$IIVLW,01330,N,000.0,N*4D
$IIVWR,163,R,05.9,N,,,,*53
$IIDPT,002.6,-1.0,*40
$IIGLL,5450.266,N,00931.380,E,192852,A,A*47
$IIHDG,062,,,,*4B
$IIMTW,+20.5,C*4E
$IIMWV,161,R,06.0,N,A*4C
$IIMWV,163,T,05.9,N,A*4C
$IIRMC,192853,A,5450.266,N,00931.380,E,00.6,001,310713,,,A*5C
$IIVHW,,,061,M,00.0,N,,*49
$IIVLW,01330,N,000.0,N*4D
$IIVWR,161,R,06.0,N,,,,*53
$IIDPT,002.6,-1.0,*40
$IIGLL,5450.266,N,00931.380,E,192853,A,A*47
$IIHDG,061,,,,*4B
$IIMTW,+20.5,C*4E
$IIMWV,164,R,06.1,N,A*4C
$IIMWV,161,T,06.0,N,A*4C
$IIRMC,192853,A,5450.266,N,00931.380,E,00.6,001,310713,,,A*5C
$IIVHW,,,061,M,00.0,N,,*49
$IIVLW,01330,N,000.0,N*4D
$IIVWR,164,R,06.1,N,,,,*53
$IIDPT,002.6,-1.0,*40
$IIGLL,5450.266,N,00931.380,E,192853,A,A*47
$IIRMB,A,7.00,R,,VIDY,,,,,003.16,281,,V,A*63
$IIHDG,061,,,,*4B
$IIMTW,+20.5,C*4E
$IIMWV,167,R,06.0,N,A*4C
$IIMWV,164,T,06.1,N,A*4C
$IIRMC,192855,A,5450.266,N,00931.380,E,00.6,001,310713,,,A*5C
$IIVHW,,,061,M,00.0,N,,*49
$IIVLW,01330,N,000.0,N*4D
$IIVWR,167,R,06.0,N,,,,*53
$IIDPT,002.6,-1.0,*40
$IIGLL,5450.266,N,00931.380,E,192856,A,A*47
$IIHDG,061,,,,*4B
$IIMTW,+20.5,C*4E
$IIMWV,169,R,06.3,N,A*4C
$IIMWV,167,T,06.0,N,A*4C
$IIRMC,192856,A,5450.266,N,00931.380,E,00.6,001,310713,,,A*5C
$IIVHW,,,061,M,00.0,N,,*49
$IIVLW,01330,N,000.0,N*4D
$IIVWR,169,R,06.3,N,,,,*53
$IIRMB,A,8.00,R,,VIDY,,,,,003.16,281,,V,A*6C
$IIDPT,002.6,-1.0,*40
$IIGLL,5450.266,N,00931.381,E,192858,A,A*47
$IIHDG,061,,,,*4B
$IIMTW,+20.5,C*4E
$IIMWV,172,R,06.8,N,A*4C
$IIMWV,169,T,06.6,N,A*4C
$IIRMC,192858,A,5450.266,N,00931.381,E,00.6,001,310713,,,A*5C
$IIVHW,,,061,M,00.0,N,,*49
$IIVLW,01330,N,000.0,N*4D
$IIVWR,177,R,07.0,N,,,,*53
$IIDPT,002.6,-1.0,*40
$IIGLL,5450.266,N,00931.381,E,192859,A,A*47
$IIHDG,061,,,,*4B
$IIMTW,+20.5,C*4E
$IIMWV,177,R,07.0,N,A*4C
$IIMWV,172,T,06.8,N,A*4C
$IIRMC,192859,A,5450.266,N,00931.381,E,00.6,001,310713,,,A*5C
$IIVHW,,,061,M,00.0,N,,*49
$IIVLW,01330,N,000.0,N*4D
$IIVWR,178,R,06.7,N,,,,*53
$IIDPT,002.6,-1.0,*40
$IIGLL,5450.266,N,00931.381,E,192900,A,A*47
$IIHDG,061,,,,*4B
$IIMTW,+20.5,C*4E
$IIMWV,178,R,06.7,N,A*4C
$IIMWV,177,T,07.0,N,A*4C
$IIRMC,192900,A,5450.266,N,00931.381,E,00.6,001,310713,,,A*5C
$IIRMB,A,9.00,R,,VIDY,,,,,003.16,281,,V,A*6D
$IIVHW,,,062,M,00.0,N,,*49
$IIVLW,01330,N,000.0,N*4D
$IIVWR,175,R,06.4,N,,,,*53
$IIDPT,002.6,-1.0,*40
$IIGLL,5450.266,N,00931.381,E,192901,A,A*47
$IIHDG,062,,,,*4B
$IIMTW,+20.5,C*4E
$IIMWV,175,R,06.4,N,A*4C
$IIMWV,178,T,06.7,N,A*4C
$IIRMC,192902,A,5450.266,N,00931.381,E,00.6,001,310713,,,A*5C
$IIVHW,,,062,M,00.0,N,,*49
$IIVLW,01330,N,000.0,N*4D
$IIVWR,175,R,06.4,N,,,,*53
$IIDPT,002.6,-1.0,*40
$IIGLL,5450.266,N,00931.381,E,192902,A,A*47
$IIHDG,062,,,,*4B
$IIMTW,+20.5,C*4E
$IIMWV,175,R,06.4,N,A*4C
$IIMWV,175,T,06.4,N,A*4C
$IIRMC,192903,A,5450.266,N,00931.381,E,00.6,001,310713,,,A*5C
$IIVHW,,,061,M,00.0,N,,*49
$IIVLW,01330,N,000.0,N*4D
$IIVWR,172,R,06.4,N,,,,*53
$IIDPT,002.6,-1.0,*40
$IIGLL,5450.266,N,00931.381,E,192903,A,A*47
$IIHDG,061,,,,*4B
$IIMTW,+20.5,C*4E
$IIRMB,A,0.00,R,,VIDY,,,,,003.16,281,,V,A*64
$IIMWV,168,R,06.6,N,A*4C
$IIMWV,172,T,06.4,N,A*4C
$IIRMC,192904,A,5450.266,N,00931.381,E,00.6,001,310713,,,A*5C
$IIVHW,,,061,M,00.0,N,,*49
$IIVLW,01330,N,000.0,N*4D
$IIVWR,168,R,06.6,N,,,,*53
$IIDPT,002.6,-1.0,*40
$IIGLL,5450.266,N,00931.381,E,192904,A,A*47
$IIHDG,061,,,,*4B
$IIMTW,+20.5,C*4E
$IIMWV,165,R,06.6,N,A*4C
$IIMWV,168,T,06.6,N,A*4C
$IIRMC,192905,A,5450.266,N,00931.381,E,00.6,001,310713,,,A*5C
$IIVHW,,,061,M,00.0,N,,*49
$IIVLW,01330,N,000.0,N*4D
$IIVWR,165,R,06.6,N,,,,*53
$IIDPT,002.6,-1.0,*40
$IIGLL,5450.266,N,00931.381,E,192905,A,A*47
$IIHDG,062,,,,*4B
$IIMTW,+20.5,C*4E
$IIMWV,163,R,06.6,N,A*4C
$IIMWV,165,T,06.6,N,A*4C
$IIRMC,192906,A,5450.266,N,00931.381,E,00.6,001,310713,,,A*5C
$IIVHW,,,062,M,00.0,N,,*49
$IIVLW,01330,N,000.0,N*4D
$IIVWR,163,R,06.6,N,,,,*53
$IIDPT,002.6,-1.0,*40
$IIRMB,A,1.00,R,,VIDY,,,,,003.16,281,,V,A*65
$IIGLL,5450.266,N,00931.381,E,192907,A,A*47
$IIHDG,061,,,,*4B
$IIMTW,+20.5,C*4E
$IIMWV,161,R,06.6,N,A*4C
$IIMWV,163,T,06.6,N,A*4C
$IIRMC,192907,A,5450.266,N,00931.381,E,00.6,001,310713,,,A*5C
$IIVHW,,,061,M,00.0,N,,*49
$IIVLW,01330,N,000.0,N*4D
$IIVWR,161,R,06.6,N,,,,*53
$IIDPT,002.6,-1.0,*40
$IIGLL,5450.266,N,00931.382,E,192908,A,A*47
$IIHDG,061,,,,*4B
$IIMTW,+20.5,C*4E
$IIMWV,159,R,06.6,N,A*4C
$IIMWV,161,T,06.6,N,A*4C
$IIRMC,192908,A,5450.266,N,00931.382,E,00.6,001,310713,,,A*5C
$IIVHW,,,061,M,00.0,N,,*49
$IIVLW,01330,N,000.0,N*4D
$IIVWR,157,R,06.3,N,,,,*53
$IIDPT,002.6,-1.0,*40
$IIGLL,5450.266,N,00931.381,E,192909,A,A*47
$IIHDG,061,,,,*4B
$IIMTW,+20.5,C*4E
$IIMWV,157,R,06.3,N,A*4C
$IIMWV,159,T,06.6,N,A*4C
$IIRMC,192909,A,5450.266,N,00931.381,E,00.6,001,310713,,,A*5C
$IIVHW,,,061,M,00.0,N,,*49
$IIRMB,A,2.00,R,,VIDY,,,,,003.16,281,,V,A*66
$IIVLW,01330,N,000.0,N*4D
$IIVWR,157,R,06.1,N,,,,*53
$IIDPT,002.6,-1.0,*40
$IIGLL,5450.266,N,00931.381,E,192910,A,A*47
$IIHDG,061,,,,*4B
$IIMTW,+20.5,C*4E
$IIMWV,157,R,06.1,N,A*4C
$IIMWV,157,T,06.3,N,A*4C
$IIRMC,192910,A,5450.266,N,00931.381,E,00.6,001,310713,,,A*5C
$IIVHW,,,060,M,00.0,N,,*49
$IIVLW,01330,N,000.0,N*4D
$IIVWR,158,R,06.4,N,,,,*53
$IIDPT,002.6,-1.0,*40
$IIGLL,5450.266,N,00931.381,E,192911,A,A*47
$IIHDG,060,,,,*4B
$IIMTW,+20.5,C*4E
$IIMWV,158,R,06.4,N,A*4C
$IIMWV,157,T,06.1,N,A*4C
$IIRMC,192912,A,5450.266,N,00931.381,E,00.6,001,310713,,,A*5C
$IIVHW,,,061,M,00.0,N,,*49
$IIVLW,01330,N,000.0,N*4D
$IIVWR,159,R,05.9,N,,,,*53
$IIDPT,002.6,-1.0,*40
$IIGLL,5450.266,N,00931.381,E,192912,A,A*47
$IIHDG,061,,,,*4B
$IIMTW,+20.5,C*4E
$IIMWV,159,R,05.9,N,A*4C
$IIRMB,A,3.00,R,,VIDY,,,,,003.16,281,,V,A*67
$IIMWV,159,T,05.9,N,A*4C
$IIRMC,192913,A,5450.266,N,00931.381,E,00.6,001,310713,,,A*5C
$IIVHW,,,061,M,00.0,N,,*49
$IIVLW,01330,N,000.0,N*4D
$IIVWR,167,R,05.6,N,,,,*53
$IIDPT,002.6,-1.0,*40
$IIGLL,5450.266,N,00931.381,E,192913,A,A*47
$IIHDG,061,,,,*4B
$IIMTW,+20.5,C*4E
$IIMWV,170,R,05.5,N,A*4C
$IIMWV,167,T,05.6,N,A*4C
$IIRMC,192914,A,5450.266,N,00931.381,E,00.6,001,310713,,,A*5C
$IIVHW,,,062,M,00.0,N,,*49
$IIVLW,01330,N,000.0,N*4D
$IIVWR,170,R,05.5,N,,,,*53
$IIDPT,002.6,-1.0,*40
$IIGLL,5450.266,N,00931.381,E,192914,A,A*47
$IIHDG,062,,,,*4B
$IIMTW,+20.5,C*4E
$IIMWV,170,R,05.3,N,A*4C
$IIMWV,170,T,05.5,N,A*4C
$IIRMC,192915,A,5450.266,N,00931.381,E,00.6,001,310713,,,A*5C
$IIVHW,,,062,M,00.0,N,,*49
$IIVLW,01330,N,000.0,N*4D
$IIVWR,170,R,05.3,N,,,,*53
$IIDPT,002.6,-1.0,*40
$IIGLL,5450.266,N,00931.381,E,192915,A,A*47
$IIRMB,A,4.00,R,,VIDY,,,,,003.16,281,,V,A*60
$IIHDG,062,,,,*4B
$IIMTW,+20.5,C*4E
$IIMWV,174,R,05.6,N,A*4C
$IIMWV,170,T,05.3,N,A*4C
$IIRMC,192916,A,5450.266,N,00931.381,E,00.6,001,310713,,,A*5C
$IIVHW,,,062,M,00.0,N,,*49
$IIVLW,01330,N,000.0,N*4D
$IIVWR,174,R,05.6,N,,,,*53
$IIDPT,002.6,-1.0,*40
$IIGLL,5450.266,N,00931.381,E,192917,A,A*47
$IIHDG,062,,,,*4B
$IIMTW,+20.5,C*4E
$IIMWV,181,R,05.8,N,A*4C
$IIMWV,174,T,05.6,N,A*4C
$IIRMC,192917,A,5450.266,N,00931.381,E,00.6,001,310713,,,A*5C
$IIVHW,,,062,M,00.0,N,,*49
$IIVLW,01330,N,000.0,N*4D
$IIVWR,179,L,05.8,N,,,,*53
$IIDPT,002.6,-1.0,*40
$IIGLL,5450.266,N,00931.381,E,192918,A,A*47
$IIHDG,062,,,,*4B
$IIMTW,+20.5,C*4E
$IIMWV,181,R,05.4,N,A*4C
$IIMWV,181,T,05.8,N,A*4C
$IIRMC,192918,A,5450.266,N,00931.381,E,00.6,001,310713,,,A*5C
$IIVHW,,,062,M,00.0,N,,*49
$IIVLW,01330,N,000.0,N*4D
$IIRMB,A,5.00,R,,VIDY,,,,,003.16,281,,V,A*61
$IIVWR,171,L,05.2,N,,,,*53
$IIDPT,002.6,-1.0,*40
$IIGLL,5450.266,N,00931.381,E,192919,A,A*47
$IIHDG,062,,,,*4B
$IIMTW,+20.5,C*4E
$IIMWV,189,R,05.2,N,A*4C
$IIMWV,181,T,05.4,N,A*4C
$IIRMC,192919,A,5450.266,N,00931.381,E,00.6,001,310713,,,A*5C
$IIVHW,,,062,M,00.0,N,,*49
$IIVLW,01330,N,000.0,N*4D
$IIVWR,157,L,04.8,N,,,,*53
$IIDPT,002.6,-1.0,*40
$IIGLL,5450.266,N,00931.381,E,192920,A,A*47
$IIHDG,061,,,,*4B
$IIMTW,+20.5,C*4E
$IIMWV,203,R,04.8,N,A*4C
$IIMWV,189,T,05.2,N,A*4C
$IIRMC,192920,A,5450.266,N,00931.381,E,00.6,001,310713,,,A*5C
$IIVHW,,,061,M,00.0,N,,*49
$IIVLW,01330,N,000.0,N*4D
$IIVWR,146,L,04.4,N,,,,*53
$IIDPT,002.6,-1.0,*40
$IIGLL,5450.266,N,00931.380,E,192921,A,A*47
$IIHDG,061,,,,*4B
$IIMTW,+21.0,C*4E
$IIMWV,214,R,04.4,N,A*4C
$IIMWV,203,T,04.8,N,A*4C
$IIRMB,A,6.00,R,,VIDY,,,,,003.16,281,,V,A*62
$IIRMC,192922,A,5450.266,N,00931.380,E,00.6,001,310713,,,A*5C
$IIVHW,,,061,M,00.0,N,,*49
$IIVLW,01330,N,000.0,N*4D
$IIVWR,137,L,03.8,N,,,,*53
$IIDPT,002.6,-1.0,*40
$IIGLL,5450.266,N,00931.380,E,192922,A,A*47
$IIHDG,061,,,,*4B
$IIMTW,+21.0,C*4E
$IIMWV,223,R,03.8,N,A*4C
$IIMWV,223,T,03.8,N,A*4C
$IIRMC,192922,A,5450.266,N,00931.380,E,00.6,001,310713,,,A*5C
$IIVHW,,,061,M,00.0,N,,*49
$IIVLW,01330,N,000.0,N*4D
$IIVWR,124,L,03.6,N,,,,*53
$IIDPT,002.6,-1.0,*40
$IIGLL,5450.266,N,00931.380,E,192922,A,A*47
$IIHDG,061,,,,*4B
$IIMTW,+21.0,C*4E
$IIMWV,230,R,03.0,N,A*4C
$IIMWV,236,T,03.6,N,A*4C
$IIRMC,192924,A,5450.266,N,00931.380,E,00.6,001,310713,,,A*5C
$IIVHW,,,061,M,00.0,N,,*49
$IIVLW,01330,N,000.0,N*4D
$IIVWR,130,L,03.0,N,,,,*53
$IIDPT,002.6,-1.0,*40
$IIGLL,5450.266,N,00931.380,E,192924,A,A*47
$IIHDG,061,,,,*4B
$IIRMB,A,7.00,R,,VIDY,,,,,003.16,281,,V,A*63
$IIMTW,+20.5,C*4E
$IIMWV,227,R,02.7,N,A*4C
$IIMWV,230,T,03.0,N,A*4C
$IIRMC,192925,A,5450.266,N,00931.380,E,00.6,001,310713,,,A*5C
$IIVHW,,,062,M,00.0,N,,*49
$IIVLW,01330,N,000.0,N*4D
$IIVWR,133,L,02.7,N,,,,*53
$IIDPT,002.6,-1.0,*40
$IIGLL,5450.266,N,00931.380,E,192925,A,A*47
$IIHDG,062,,,,*4B
$IIMTW,+20.5,C*4E
$IIMWV,211,R,02.3,N,A*4C
$IIMWV,227,T,02.7,N,A*4C
$IIRMC,192926,A,5450.266,N,00931.380,E,00.6,001,310713,,,A*5C
$IIVHW,,,062,M,00.0,N,,*49
$IIVLW,01330,N,000.0,N*4D
$IIVWR,149,L,02.3,N,,,,*53
$IIDPT,002.6,-1.0,*40
$IIRMB,A,8.00,R,,VIDY,,,,,003.16,281,,V,A*6C
$IIGLL,5450.266,N,00931.379,E,192927,A,A*47
$IIHDG,062,,,,*4B
$IIMTW,+20.5,C*4E
$IIMWV,187,R,02.5,N,A*4C
$IIMWV,211,T,02.3,N,A*4C
$IIRMC,192927,A,5450.266,N,00931.379,E,00.6,001,310713,,,A*5C
$IIVHW,,,062,M,00.0,N,,*49
$IIVLW,01330,N,000.0,N*4D
$IIVWR,173,L,02.5,N,,,,*53
$IIDPT,002.6,-1.0,*40
$IIGLL,5450.266,N,00931.379,E,192929,A,A*47
$IIHDG,062,,,,*4B
$IIMTW,+20.5,C*4E
$IIMWV,165,R,02.4,N,A*4C
$IIMWV,171,T,02.5,N,A*4C
$IIRMC,192929,A,5450.266,N,00931.379,E,00.6,001,310713,,,A*5C
$IIVHW,,,062,M,00.0,N,,*49
$IIVLW,01330,N,000.0,N*4D
$IIVWR,154,R,02.7,N,,,,*53
$IIDPT,002.6,-1.0,*40
$IIGLL,5450.266,N,00931.379,E,192930,A,A*47
$IIHDG,062,,,,*4B
$IIMTW,+20.5,C*4E
$IIMWV,154,R,02.7,N,A*4C
$IIMWV,165,T,02.4,N,A*4C
$IIRMC,192930,A,5450.266,N,00931.379,E,00.6,001,310713,,,A*5C
$IIVHW,,,062,M,00.0,N,,*49
$IIRMB,A,9.00,R,,VIDY,,,,,003.16,281,,V,A*6D
$IIVLW,01330,N,000.0,N*4D
$IIVWR,147,R,02.6,N,,,,*53
$IIDPT,002.6,-1.0,*40
$IIGLL,5450.266,N,00931.379,E,192931,A,A*47
$IIHDG,061,,,,*4B
$IIMTW,+20.5,C*4E
$IIMWV,147,R,02.6,N,A*4C
$IIMWV,154,T,02.7,N,A*4C
$IIRMC,192931,A,5450.266,N,00931.379,E,00.6,001,310713,,,A*5C
$IIVHW,,,060,M,00.0,N,,*49
$IIVLW,01330,N,000.0,N*4D
$IIVWR,006,R,00.0,N,,,,*53
$IIDPT,002.6,-1.0,*40
$IIGLL,5450.266,N,00931.379,E,192932,A,A*47
$IIHDG,060,,,,*4B
$IIMTW,+20.5,C*4E
$IIMWV,006,R,00.0,N,A*4C
$IIMWV,147,T,02.6,N,A*4C
$IIRMC,192933,A,5450.266,N,00931.379,E,00.6,001,310713,,,A*5C
$IIVHW,,,060,M,00.0,N,,*49
$IIVLW,01330,N,000.0,N*4D
$IIVWR,167,R,02.5,N,,,,*53
$IIDPT,002.6,-1.0,*40
$IIGLL,5450.266,N,00931.379,E,192933,A,A*47
$IIHDG,060,,,,*4B
$IIMTW,+20.5,C*4E
$IIMWV,167,R,02.5,N,A*4C
$IIRMB,A,0.00,R,,VIDY,,,,,003.16,281,,V,A*64
$IIMWV,167,T,02.5,N,A*4C
$IIRMC,192934,A,5450.266,N,00931.379,E,00.6,001,310713,,,A*5C
$IIVHW,,,060,M,00.0,N,,*49
$IIVLW,01330,N,000.0,N*4D
$IIVWR,166,R,02.4,N,,,,*53
$IIDPT,002.6,-1.0,*40
$IIGLL,5450.266,N,00931.379,E,192934,A,A*47
$IIHDG,060,,,,*4B
$IIMTW,+20.5,C*4E
$IIMWV,171,R,02.4,N,A*4C
$IIMWV,166,T,02.4,N,A*4C
$IIRMC,192935,A,5450.266,N,00931.380,E,00.6,001,310713,,,A*5C
$IIVHW,,,060,M,00.0,N,,*49
$IIVLW,01330,N,000.0,N*4D
$IIVWR,171,R,02.4,N,,,,*53
$IIDPT,002.6,-1.0,*40
$IIGLL,5450.266,N,00931.380,E,192935,A,A*47
$IIHDG,060,,,,*4B
$IIMTW,+20.5,C*4E
$IIMWV,186,R,02.4,N,A*4C
$IIMWV,171,T,02.4,N,A*4C
$IIRMC,192936,A,5450.266,N,00931.380,E,00.6,001,310713,,,A*5C
$IIVHW,,,060,M,00.0,N,,*49
