$IIVLW,00430,N,002.3,N*55
$IIVWR,127,L,00.0,N,,,,*7B
$IIDPT,027.6,-1.0,*43
$IIHDG,238,,,,*5E
$IIMTW,+07.5,C*3A
$IIMWV,233,R,00.0,N,A*11
$IIMWV,233,T,00.1,N,A*16
$IIVHW,,,238,M,00.0,N,,*6D
$IIVLW,00430,N,002.3,N*55
$IIVWR,129,L,00.0,N,,,,*75
$IIDPT,027.2,-1.0,*47
$IIHDG,237,,,,*51
$IIMTW,+07.5,C*3A
$IIMWV,231,R,00.0,N,A*13
$IIMWV,233,T,00.0,N,A*17
$IIVHW,,,237,M,00.0,N,,*62
$IIVLW,00430,N,002.3,N*55
$IIVWR,132,L,00.0,N,,,,*7F
$IIDPT,027.0,-1.0,*45
$IIHDG,238,,,,*5E
$IIMTW,+07.5,C*3A
$IIMWV,228,R,00.0,N,A*1B
$IIMWV,231,T,00.0,N,A*15
$IIVHW,,,238,M,00.0,N,,*6D
$IIVLW,00430,N,002.3,N*55
$IIVWR,133,L,00.6,N,,,,*78
$IIDPT,026.7,-1.0,*43
$IIHDG,238,,,,*5E
$IIMTW,+07.5,C*3A
$IIMWV,227,R,00.6,N,A*12
$IIMWV,228,T,00.0,N,A*1D
$IIVHW,,,238,M,00.0,N,,*6D
$IIVLW,00430,N,002.3,N*55
$IIVWR,130,L,00.8,N,,,,*75
$IIDPT,026.9,-1.0,*4D
$IIHDG,238,,,,*5E
$IIMTW,+07.5,C*3A
$IIMWV,230,R,00.8,N,A*1A
$IIMWV,227,T,00.6,N,A*14
$IIVHW,,,238,M,00.0,N,,*6D
$IIVLW,00430,N,002.3,N*55
$IIVWR,134,L,00.4,N,,,,*7D
$IIDPT,026.9,-1.0,*4D
$IIHDG,239,,,,*5F
$IIMTW,+07.5,C*3A
$IIMWV,226,R,00.4,N,A*11
$IIMWV,230,T,00.8,N,A*1C
$IIVHW,,,239,M,00.0,N,,*6C
$IIVLW,00430,N,002.3,N*55
$IIVWR,140,L,00.2,N,,,,*78
$IIDPT,026.9,-1.0,*4D
$IIHDG,238,,,,*5E
$IIMTW,+07.5,C*3A
$IIMWV,220,R,00.2,N,A*11
$IIMWV,226,T,00.4,N,A*17
$IIVHW,,,238,M,00.0,N,,*6D
$IIVLW,00430,N,002.3,N*55
$IIVWR,143,L,00.1,N,,,,*78
$IIDPT,026.9,-1.0,*4D
$IIHDG,238,,,,*5E
$IIMTW,+07.5,C*3A
$IIMWV,217,R,00.1,N,A*16
$IIMWV,220,T,00.2,N,A*17
$IIVHW,,,238,M,00.0,N,,*6D
$IIVLW,00430,N,002.3,N*55
$IIVWR,144,L,00.1,N,,,,*7F
$IIDPT,027.3,-1.0,*46
$IIHDG,238,,,,*5E
$IIMTW,+07.5,C*3A
$IIMWV,216,R,00.1,N,A*17
$IIMWV,217,T,00.1,N,A*10
$IIVHW,,,238,M,00.0,N,,*6D
$IIVLW,00430,N,002.3,N*55
$IIVWR,143,L,00.0,N,,,,*79
$IIDPT,027.7,-1.0,*42
$IIHDG,239,,,,*5F
$IIMTW,+07.5,C*3A
$IIMWV,217,R,00.0,N,A*17
$IIMWV,216,T,00.1,N,A*11
$IIVHW,,,239,M,00.0,N,,*6C
$IIVLW,00430,N,002.3,N*55
$IIVWR,145,L,00.0,N,,,,*7F
$IIDPT,027.0,-1.0,*45
$IIHDG,238,,,,*5E
$IIMTW,+07.5,C*3A
$IIMWV,215,R,00.0,N,A*15
$IIMWV,217,T,00.0,N,A*11
$IIVHW,,,238,M,00.0,N,,*6D
$IIVLW,00430,N,002.3,N*55
$IIVWR,144,L,00.0,N,,,,*7E
$IIDPT,026.6,-1.0,*42
$IIHDG,238,,,,*5E
$IIMTW,+07.5,C*3A
$IIMWV,216,R,00.0,N,A*16
$IIMWV,215,T,00.0,N,A*13
$IIVHW,,,238,M,00.0,N,,*6D
$IIVLW,00430,N,002.3,N*55
$IIVWR,140,L,00.0,N,,,,*7A
$IIDPT,026.4,-1.0,*40
$IIHDG,238,,,,*5E
$IIMTW,+07.5,C*3A
$IIMWV,220,R,00.0,N,A*13
$IIMWV,216,T,00.0,N,A*10
$IIVHW,,,238,M,00.0,N,,*6D
$IIVLW,00430,N,002.3,N*55
$IIVWR,136,L,00.0,N,,,,*7B
$IIDPT,026.4,-1.0,*40
$IIHDG,239,,,,*5F
$IIMTW,+07.5,C*3A
$IIMWV,224,R,00.0,N,A*17
$IIMWV,220,T,00.0,N,A*15
$IIVHW,,,239,M,00.0,N,,*6C
$IIVLW,00430,N,002.3,N*55
$IIVWR,134,L,00.0,N,,,,*79
$IIDPT,026.3,-1.0,*47
$IIHDG,239,,,,*5F
$IIMTW,+07.5,C*3A
$IIMWV,226,R,00.0,N,A*15
$IIMWV,224,T,00.0,N,A*11
$IIVHW,,,239,M,00.0,N,,*6C
$IIVLW,00430,N,002.3,N*55
$IIVWR,134,L,00.0,N,,,,*79
$IIDPT,026.3,-1.0,*47
$IIHDG,239,,,,*5F
$IIMTW,+07.5,C*3A
$IIMWV,226,R,00.0,N,A*15
$IIMWV,226,T,00.0,N,A*13
$IIVHW,,,239,M,00.0,N,,*6C
$IIVLW,00430,N,002.3,N*55
$IIVWR,132,L,00.0,N,,,,*7F
$IIDPT,026.4,-1.0,*40
$IIHDG,239,,,,*5F
$IIMTW,+07.5,C*3A
$IIMWV,228,R,00.0,N,A*1B
$IIMWV,226,T,00.0,N,A*13
$IIVHW,,,239,M,00.0,N,,*6C
$IIVLW,00430,N,002.3,N*55
$IIVWR,133,L,00.0,N,,,,*7E
$IIDPT,026.7,-1.0,*43
$IIHDG,239,,,,*5F
$IIMTW,+07.5,C*3A
$IIMWV,227,R,00.0,N,A*14
$IIMWV,228,T,00.0,N,A*1D
$IIVHW,,,239,M,00.0,N,,*6C
$IIVLW,00430,N,002.3,N*55
$IIVWR,132,L,00.0,N,,,,*7F
$IIDPT,026.8,-1.0,*4C
$IIHDG,238,,,,*5E
$IIMTW,+07.5,C*3A
$IIMWV,228,R,00.0,N,A*1B
$IIMWV,227,T,00.0,N,A*12
$IIVHW,,,238,M,00.0,N,,*6D
$IIVLW,00430,N,002.3,N*55
$IIVWR,136,L,00.0,N,,,,*7B
$IIDPT,027.4,-1.0,*41
$IIHDG,239,,,,*5F
$IIMTW,+07.5,C*3A
$IIMWV,224,R,00.0,N,A*17
$IIMWV,228,T,00.0,N,A*1D
$IIVHW,,,239,M,00.0,N,,*6C
$IIVLW,00430,N,002.3,N*55
$IIVWR,139,L,00.0,N,,,,*74
$IIDPT,027.7,-1.0,*42
$IIHDG,239,,,,*5F
$IIMTW,+07.5,C*3A
$IIMWV,221,R,00.0,N,A*12
$IIMWV,224,T,00.0,N,A*11
$IIVHW,,,239,M,00.0,N,,*6C
$IIVLW,00430,N,002.3,N*55
$IIVWR,141,L,00.0,N,,,,*7B
$IIDPT,028.5,-1.0,*4F
$IIHDG,239,,,,*5F
$IIMTW,+07.5,C*3A
$IIMWV,219,R,00.0,N,A*19
$IIMWV,221,T,00.0,N,A*14
$IIVHW,,,239,M,00.0,N,,*6C
$IIVLW,00430,N,002.3,N*55
$IIVWR,141,L,00.0,N,,,,*7B
$IIDPT,030.6,-1.0,*45
$IIHDG,239,,,,*5F
$IIMTW,+07.5,C*3A
$IIMWV,219,R,00.0,N,A*19
$IIMWV,219,T,00.0,N,A*1F
$IIVHW,,,239,M,00.0,N,,*6C
$IIVLW,00430,N,002.3,N*55
$IIVWR,138,L,00.0,N,,,,*75
$IIDPT,030.6,-1.0,*45
$IIHDG,239,,,,*5F
$IIMTW,+07.5,C*3A
$IIMWV,222,R,00.0,N,A*11
$IIMWV,219,T,00.0,N,A*1F
$IIVHW,,,239,M,00.0,N,,*6C
$IIVLW,00430,N,002.3,N*55
$IIVWR,139,L,00.0,N,,,,*74
$IIDPT,030.6,-1.0,*45
$IIHDG,239,,,,*5F
$IIMTW,+07.5,C*3A
$IIMWV,221,R,00.0,N,A*12
$IIMWV,222,T,00.0,N,A*17
$IIVHW,,,239,M,00.0,N,,*6C
$IIVLW,00430,N,002.3,N*55
$IIVWR,139,L,00.0,N,,,,*74
$IIDPT,030.1,-1.0,*42
$IIHDG,239,,,,*5F
$IIMTW,+07.5,C*3A
$IIMWV,221,R,00.0,N,A*12
$IIMWV,221,T,00.0,N,A*14
$IIVHW,,,239,M,00.0,N,,*6C
$IIVLW,00430,N,002.3,N*55
$IIVWR,138,L,00.0,N,,,,*75
$IIDPT,031.1,-1.0,*43
$IIHDG,239,,,,*5F
$IIMTW,+07.5,C*3A
$IIMWV,222,R,00.0,N,A*11
$IIMWV,221,T,00.0,N,A*14
$IIVHW,,,239,M,00.0,N,,*6C
$IIVLW,00430,N,002.3,N*55
$IIVWR,134,L,00.0,N,,,,*79
$IIDPT,031.1,-1.0,*43
$IIHDG,239,,,,*5F
$IIMTW,+07.5,C*3A
$IIMWV,226,R,00.0,N,A*15
$IIMWV,222,T,00.0,N,A*17
$IIVHW,,,239,M,00.0,N,,*6C
$IIVLW,00430,N,002.3,N*55
$IIVWR,130,L,00.0,N,,,,*7D
$IIDPT,029.2,-1.0,*49
$IIHDG,239,,,,*5F
$IIMTW,+07.5,C*3A
$IIMWV,230,R,00.0,N,A*12
$IIMWV,226,T,00.0,N,A*13
$IIVHW,,,239,M,00.0,N,,*6C
$IIVLW,00430,N,002.3,N*55
$IIVWR,127,L,00.0,N,,,,*7B
$IIDPT,027.8,-1.0,*4D
$IIHDG,240,,,,*51
$IIMTW,+07.5,C*3A
$IIMWV,233,R,00.0,N,A*11
$IIMWV,230,T,00.0,N,A*14
$IIVHW,,,240,M,00.0,N,,*62
$IIVLW,00430,N,002.3,N*55
$IIVWR,124,L,00.0,N,,,,*78
$IIDPT,029.0,-1.0,*4B
$IIHDG,239,,,,*5F
$IIMTW,+07.5,C*3A
$IIMWV,236,R,00.0,N,A*14
$IIMWV,233,T,00.0,N,A*17
$IIVHW,,,239,M,00.0,N,,*6C
$IIVLW,00430,N,002.3,N*55
$IIVWR,124,L,00.0,N,,,,*78
$IIDPT,029.5,-1.0,*4E
$IIHDG,239,,,,*5F
$IIMTW,+07.5,C*3A
$IIMWV,236,R,00.0,N,A*14
$IIMWV,236,T,00.0,N,A*12
$IIVHW,,,239,M,00.0,N,,*6C
$IIVLW,00430,N,002.3,N*55
$IIVWR,000,R,00.0,N,,,,*61
$IIDPT,027.9,-1.0,*4C
$IIHDG,239,,,,*5F
$IIMTW,+07.5,C*3A
$IIMWV,000,R,00.0,N,A*13
$IIMWV,236,T,00.0,N,A*12
$IIVHW,,,239,M,00.0,N,,*6C
$IIVLW,00430,N,002.3,N*55
$IIVWR,120,L,00.0,N,,,,*7C
$IIDPT,027.9,-1.0,*4C
$IIHDG,239,,,,*5F
$IIMTW,+07.5,C*3A
$IIMWV,240,R,00.0,N,A*15
$IIMWV,000,T,00.0,N,A*15
$IIVHW,,,239,M,00.0,N,,*6C
$IIVLW,00430,N,002.3,N*55
$IIVWR,117,L,00.0,N,,,,*78
$IIDPT,029.0,-1.0,*4B
$IIHDG,238,,,,*5E
$IIMTW,+07.5,C*3A
$IIMWV,243,R,00.0,N,A*16
$IIMWV,240,T,00.0,N,A*13
$IIVHW,,,238,M,00.0,N,,*6D
$IIVLW,00430,N,002.3,N*55
$IIVWR,000,R,00.0,N,,,,*61
$IIDPT,029.0,-1.0,*4B
$IIHDG,238,,,,*5E
$IIMTW,+07.5,C*3A
$IIMWV,000,R,00.0,N,A*13
$IIMWV,243,T,00.0,N,A*10
$IIVHW,,,238,M,00.0,N,,*6D
$IIVLW,00430,N,002.3,N*55
$IIVWR,104,L,00.0,N,,,,*7A
$IIDPT,027.7,-1.0,*42
$IIHDG,239,,,,*5F
$IIMTW,+07.5,C*3A
$IIMWV,256,R,00.0,N,A*12
$IIMWV,000,T,00.0,N,A*15
$IIVHW,,,239,M,00.0,N,,*6C
$IIVLW,00430,N,002.3,N*55
$IIVWR,097,L,00.0,N,,,,*71
$IIDPT,026.4,-1.0,*40
$IIHDG,238,,,,*5E
$IIMTW,+07.5,C*3A
$IIMWV,263,R,00.0,N,A*14
$IIMWV,256,T,00.0,N,A*14
$IIVHW,,,238,M,00.0,N,,*6D
$IIVLW,00430,N,002.3,N*55
$IIVWR,100,L,00.4,N,,,,*7A
$IIDPT,027.5,-1.0,*40
$IIHDG,239,,,,*5F
$IIMTW,+07.5,C*3A
$IIMWV,260,R,00.4,N,A*13
$IIMWV,263,T,00.0,N,A*12
$IIVHW,,,239,M,00.0,N,,*6C
$IIVLW,00430,N,002.3,N*55
$IIVWR,094,L,00.7,N,,,,*75
$IIDPT,027.5,-1.0,*40
$IIHDG,239,,,,*5F
$IIMTW,+07.5,C*3A
$IIMWV,266,R,00.2,N,A*13
$IIMWV,271,T,00.3,N,A*12
$IIVHW,,,239,M,00.0,N,,*6C
$IIVLW,00430,N,002.3,N*55
$IIVWR,094,L,00.2,N,,,,*70
$IIDPT,028.8,-1.0,*42
$IIHDG,239,,,,*5F
$IIMTW,+07.5,C*3A
$IIMWV,264,R,00.2,N,A*11
$IIMWV,266,T,00.2,N,A*15
$IIVHW,,,240,M,00.0,N,,*62
$IIVLW,00430,N,002.3,N*55
$IIVWR,096,L,00.2,N,,,,*72
$IIDPT,028.8,-1.0,*42
$IIHDG,240,,,,*51
$IIMTW,+07.5,C*3A
$IIMWV,264,R,00.8,N,A*1B
$IIMWV,264,T,00.2,N,A*17
$IIVHW,,,240,M,00.0,N,,*62
$IIVLW,00430,N,002.3,N*55
$IIVWR,096,L,00.8,N,,,,*78
$IIDPT,028.8,-1.0,*42
$IIHDG,240,,,,*51
$IIMTW,+07.5,C*3A
$IIMWV,265,R,00.6,N,A*14
$IIMWV,264,T,00.8,N,A*1D
$IIVHW,,,240,M,00.0,N,,*62
$IIVLW,00430,N,002.3,N*55
$IIVWR,095,L,00.6,N,,,,*75
$IIDPT,028.8,-1.0,*42
$IIHDG,240,,,,*51
$IIMTW,+07.5,C*3A
$IIMWV,263,R,00.4,N,A*10
$IIMWV,265,T,00.6,N,A*12
$IIVHW,,,240,M,00.0,N,,*62
$IIVLW,00430,N,002.3,N*55
$IIVWR,097,L,00.4,N,,,,*75
$IIDPT,028.2,-1.0,*48
$IIHDG,240,,,,*51
$IIMTW,+07.5,C*3A
$IIMWV,264,R,00.3,N,A*10
$IIMWV,263,T,00.4,N,A*16
$IIVHW,,,240,M,00.0,N,,*62
$IIVLW,00430,N,002.3,N*55
$IIVWR,096,L,00.3,N,,,,*73
$IIDPT,028.2,-1.0,*48
$IIHDG,240,,,,*51
$IIMTW,+07.5,C*3A
$IIMWV,266,R,00.5,N,A*14
$IIMWV,264,T,00.3,N,A*16
$IIVHW,,,240,M,00.0,N,,*62
$IIVLW,00430,N,002.3,N*55
$IIVWR,094,L,00.5,N,,,,*77
$IIDPT,028.2,-1.0,*48
$IIHDG,240,,,,*51
$IIMTW,+07.5,C*3A
$IIMWV,270,R,00.7,N,A*11
$IIMWV,266,T,00.5,N,A*12
$IIVHW,,,240,M,00.0,N,,*62
$IIVLW,00430,N,002.3,N*55
$IIVWR,090,L,00.7,N,,,,*71
$IIDPT,028.2,-1.0,*48
$IIHDG,240,,,,*51
$IIMTW,+07.5,C*3A
$IIMWV,272,R,00.5,N,A*11
$IIMWV,270,T,00.7,N,A*17
$IIVHW,,,241,M,00.0,N,,*63
$IIVLW,00430,N,002.3,N*55
$IIVWR,088,L,00.5,N,,,,*7A
$IIDPT,027.5,-1.0,*40
$IIHDG,241,,,,*50
$IIMTW,+07.5,C*3A
$IIMWV,276,R,00.4,N,A*14
$IIMWV,272,T,00.5,N,A*17
$IIVHW,,,241,M,00.0,N,,*63
$IIVLW,00430,N,002.3,N*55
$IIVWR,084,L,00.4,N,,,,*77
$IIDPT,027.5,-1.0,*40
$IIHDG,241,,,,*50
$IIMTW,+07.5,C*3A
$IIMWV,274,R,00.3,N,A*11
$IIMWV,276,T,00.4,N,A*12
$IIVHW,,,241,M,00.0,N,,*63
$IIVLW,00430,N,002.3,N*55
$IIVWR,086,L,00.3,N,,,,*72
$IIDPT,027.6,-1.0,*43
$IIHDG,241,,,,*50
$IIMTW,+07.5,C*3A
$IIMWV,277,R,00.2,N,A*13
$IIMWV,274,T,00.3,N,A*17
$IIVHW,,,242,M,00.0,N,,*60
$IIVLW,00430,N,002.3,N*55
$IIVWR,083,L,00.2,N,,,,*76
$IIDPT,027.6,-1.0,*43
$IIHDG,242,,,,*53
$IIMTW,+07.5,C*3A
$IIMWV,274,R,00.7,N,A*15
$IIMWV,277,T,00.2,N,A*15
$IIVHW,,,242,M,00.0,N,,*60
$IIVLW,00430,N,002.3,N*55
$IIVWR,086,L,00.7,N,,,,*76
$IIDPT,026.9,-1.0,*4D
$IIHDG,242,,,,*53
$IIMTW,+07.5,C*3A
$IIMWV,275,R,00.6,N,A*15
$IIMWV,274,T,00.7,N,A*13
$IIVHW,,,241,M,00.0,N,,*63
$IIVLW,00430,N,002.3,N*55
$IIVWR,085,L,00.6,N,,,,*74
$IIDPT,027.4,-1.0,*41
$IIHDG,241,,,,*50
$IIMTW,+07.5,C*3A
$IIMWV,270,R,00.4,N,A*12
$IIMWV,275,T,00.6,N,A*13
$IIVHW,,,243,M,00.0,N,,*61
$IIVLW,00430,N,002.3,N*55
$IIVWR,090,L,00.4,N,,,,*72
$IIDPT,027.4,-1.0,*41
$IIHDG,243,,,,*52
$IIMTW,+07.5,C*3A
$IIMWV,272,R,00.3,N,A*17
$IIMWV,270,T,00.4,N,A*14
$IIVHW,,,241,M,00.0,N,,*63
$IIVLW,00430,N,002.3,N*55
$IIVWR,088,L,00.3,N,,,,*7C
$IIDPT,027.8,-1.0,*4D
$IIHDG,241,,,,*50
$IIMTW,+07.5,C*3A
$IIMWV,269,R,00.3,N,A*1D
$IIMWV,272,T,00.3,N,A*11
$IIVHW,,,241,M,00.0,N,,*63
$IIVLW,00430,N,002.3,N*55
$IIVWR,091,L,00.3,N,,,,*74
$IIDPT,027.6,-1.0,*43
$IIHDG,241,,,,*50
$IIMTW,+07.0,C*3F
$IIMWV,269,R,00.2,N,A*1C
$IIMWV,269,T,00.3,N,A*1B
$IIVHW,,,241,M,00.0,N,,*63
$IIVLW,00430,N,002.3,N*55
$IIVWR,091,L,00.2,N,,,,*75
$IIDPT,028.8,-1.0,*42
$IIHDG,241,,,,*50
$IIMTW,+07.0,C*3F
$IIMWV,265,R,00.6,N,A*14
$IIMWV,269,T,00.2,N,A*1A
$IIVHW,,,241,M,00.0,N,,*63
$IIVLW,00430,N,002.3,N*55
$IIVWR,095,L,00.6,N,,,,*75
$IIDPT,028.8,-1.0,*42
$IIHDG,241,,,,*50
$IIMTW,+07.5,C*3A
$IIMWV,261,R,00.5,N,A*13
$IIMWV,265,T,00.6,N,A*12
$IIVHW,,,239,M,00.0,N,,*6C
$IIVLW,00430,N,002.3,N*55
$IIVWR,099,L,00.5,N,,,,*7A
$IIDPT,027.2,-1.0,*47
$IIHDG,239,,,,*5F
$IIMTW,+07.0,C*3F
$IIMWV,259,R,00.4,N,A*19
$IIMWV,261,T,00.5,N,A*15
$IIVHW,,,239,M,00.0,N,,*6C
$IIVLW,00430,N,002.3,N*55
$IIVWR,101,L,00.4,N,,,,*7B
$IIDPT,028.8,-1.0,*42
$IIHDG,239,,,,*5F
$IIMTW,+07.5,C*3A
$IIMWV,258,R,00.3,N,A*1F
$IIMWV,259,T,00.4,N,A*1F
$IIVHW,,,239,M,00.0,N,,*6C
$IIVLW,00430,N,002.3,N*55
$IIVWR,102,L,00.3,N,,,,*7F
$IIDPT,028.8,-1.0,*42
$IIHDG,239,,,,*5F
$IIMTW,+07.5,C*3A
$IIMWV,258,R,00.2,N,A*1E
$IIMWV,258,T,00.3,N,A*19
$IIVHW,,,238,M,00.0,N,,*6D
$IIVLW,00430,N,002.3,N*55
$IIVWR,102,L,00.2,N,,,,*7E
$IIDPT,029.1,-1.0,*4A
$IIHDG,238,,,,*5E
$IIMTW,+07.5,C*3A
$IIMWV,000,R,00.0,N,A*13
$IIMWV,258,T,00.2,N,A*18
$IIVHW,,,237,M,00.0,N,,*62
$IIVLW,00430,N,002.3,N*55
$IIVWR,000,R,00.0,N,,,,*61
$IIDPT,029.3,-1.0,*48
$IIHDG,237,,,,*51
$IIMTW,+07.5,C*3A
$IIMWV,000,R,00.0,N,A*13
$IIMWV,000,T,00.0,N,A*15
$IIVHW,,,237,M,00.0,N,,*62
$IIVLW,00430,N,002.3,N*55
$IIVWR,000,R,00.0,N,,,,*61
$IIDPT,029.8,-1.0,*43
$IIHDG,237,,,,*51
$IIMTW,+07.5,C*3A
$IIMWV,000,R,00.0,N,A*13
$IIMWV,000,T,00.0,N,A*15
$IIVHW,,,237,M,00.0,N,,*62
$IIVLW,00430,N,002.3,N*55
$IIVWR,000,R,00.0,N,,,,*61
$IIDPT,029.8,-1.0,*43
$IIHDG,237,,,,*51
$IIMTW,+07.5,C*3A
$IIMWV,248,R,00.4,N,A*19
$IIMWV,000,T,00.0,N,A*15
$IIVHW,,,236,M,00.0,N,,*63
$IIVLW,00430,N,002.3,N*55
$IIVWR,112,L,00.4,N,,,,*79
$IIDPT,028.3,-1.0,*49
$IIHDG,236,,,,*50
$IIMTW,+07.5,C*3A
$IIMWV,226,R,00.2,N,A*17
$IIMWV,248,T,00.4,N,A*1F
$IIVHW,,,235,M,00.0,N,,*60
$IIVLW,00430,N,002.3,N*55
$IIVWR,134,L,00.2,N,,,,*7B
$IIDPT,027.1,-1.0,*44
$IIHDG,235,,,,*53
$IIMTW,+07.5,C*3A
$IIMWV,220,R,00.1,N,A*12
$IIMWV,226,T,00.2,N,A*11
$IIVHW,,,234,M,00.0,N,,*61
$IIVLW,00430,N,002.3,N*55
$IIVWR,140,L,00.1,N,,,,*7B
$IIDPT,027.0,-1.0,*45
$IIHDG,234,,,,*52
$IIMTW,+07.5,C*3A
$IIMWV,223,R,00.0,N,A*10
$IIMWV,220,T,00.1,N,A*14
$IIVHW,,,234,M,00.0,N,,*61
$IIVLW,00430,N,002.3,N*55
$IIVWR,137,L,00.0,N,,,,*7A
$IIDPT,027.0,-1.0,*45
$IIHDG,234,,,,*52
$IIMTW,+07.5,C*3A
$IIMWV,226,R,00.0,N,A*15
$IIMWV,223,T,00.0,N,A*16
$IIVHW,,,230,M,00.0,N,,*65
$IIVLW,00430,N,002.3,N*55
$IIVWR,134,L,00.0,N,,,,*79
$IIDPT,027.0,-1.0,*45
$IIHDG,230,,,,*56
$IIMTW,+07.5,C*3A
$IIMWV,226,R,00.0,N,A*15
$IIMWV,226,T,00.0,N,A*13
$IIVHW,,,226,M,00.0,N,,*62
$IIVLW,00430,N,002.3,N*55
$IIVWR,134,L,00.0,N,,,,*79
$IIDPT,027.0,-1.0,*45
$IIHDG,226,,,,*51
$IIMTW,+07.5,C*3A
$IIMWV,225,R,00.0,N,A*16
$IIMWV,226,T,00.0,N,A*13
$IIVHW,,,226,M,00.0,N,,*62
$IIVLW,00430,N,002.3,N*55
$IIVWR,135,L,00.0,N,,,,*78
$IIDPT,028.8,-1.0,*42
$IIHDG,226,,,,*51
$IIMTW,+07.5,C*3A
$IIMWV,226,R,00.0,N,A*15
$IIMWV,225,T,00.0,N,A*10
$IIVHW,,,226,M,00.0,N,,*62
$IIVLW,00430,N,002.3,N*55
$IIVWR,134,L,00.0,N,,,,*79
$IIDPT,028.8,-1.0,*42
$IIHDG,226,,,,*51
$IIMTW,+07.5,C*3A
$IIMWV,226,R,00.0,N,A*15
$IIMWV,226,T,00.0,N,A*13
$IIVHW,,,224,M,00.0,N,,*60
$IIVLW,00430,N,002.3,N*55
$IIVWR,134,L,00.0,N,,,,*79
$IIDPT,028.5,-1.0,*4F
$IIHDG,224,,,,*53
$IIMTW,+07.5,C*3A
$IIMWV,224,R,00.0,N,A*17
$IIMWV,226,T,00.0,N,A*13
$IIVHW,,,224,M,00.0,N,,*60
$IIVLW,00430,N,002.3,N*55
$IIVWR,136,L,00.0,N,,,,*7B
$IIDPT,028.5,-1.0,*4F
$IIHDG,224,,,,*53
$IIMTW,+07.5,C*3A
$IIMWV,231,R,00.0,N,A*13
$IIMWV,224,T,00.0,N,A*11
$IIVHW,,,223,M,00.0,N,,*67
$IIVLW,00430,N,002.3,N*55
$IIVWR,129,L,00.0,N,,,,*75
$IIDPT,027.8,-1.0,*4D
$IIHDG,223,,,,*54
$IIMTW,+07.5,C*3A
$IIMWV,234,R,00.0,N,A*16
$IIMWV,231,T,00.0,N,A*15
$IIVHW,,,222,M,00.0,N,,*66
$IIVLW,00430,N,002.3,N*55
$IIVWR,126,L,00.0,N,,,,*7A
$IIDPT,030.8,-1.0,*4B
$IIHDG,222,,,,*55
$IIMTW,+07.5,C*3A
$IIMWV,239,R,00.0,N,A*1B
$IIMWV,234,T,00.0,N,A*10
$IIVHW,,,222,M,00.0,N,,*66
$IIVLW,00430,N,002.3,N*55
$IIVWR,121,L,00.0,N,,,,*7D
$IIDPT,027.9,-1.0,*4C
$IIHDG,222,,,,*55
$IIMTW,+07.5,C*3A
$IIMWV,239,R,00.0,N,A*1B
$IIMWV,239,T,00.0,N,A*1D
$IIVHW,,,221,M,00.0,N,,*65
$IIVLW,00430,N,002.3,N*55
$IIVWR,121,L,00.0,N,,,,*7D
$IIDPT,029.0,-1.0,*4B
$IIHDG,221,,,,*56
$IIMTW,+07.0,C*3F
$IIMWV,241,R,00.0,N,A*14
$IIMWV,239,T,00.0,N,A*1D
$IIVHW,,,221,M,00.0,N,,*65
$IIVLW,00430,N,002.3,N*55
$IIVWR,119,L,00.0,N,,,,*76
$IIDPT,030.5,-1.0,*46
$IIHDG,221,,,,*56
$IIMTW,+07.5,C*3A
$IIMWV,241,R,00.0,N,A*14
$IIMWV,241,T,00.0,N,A*12
$IIVHW,,,219,M,00.0,N,,*6E
$IIVLW,00430,N,002.3,N*55
$IIVWR,119,L,00.0,N,,,,*76
$IIDPT,030.5,-1.0,*46
$IIHDG,219,,,,*5D
$IIMTW,+07.5,C*3A
$IIMWV,241,R,00.0,N,A*14
$IIMWV,241,T,00.0,N,A*12
$IIVHW,,,218,M,00.0,N,,*6F
$IIVLW,00430,N,002.3,N*55
$IIVWR,119,L,00.0,N,,,,*76
$IIDPT,030.8,-1.0,*4B
$IIHDG,218,,,,*5C
$IIMTW,+07.5,C*3A
$IIMWV,239,R,00.0,N,A*1B
$IIMWV,241,T,00.0,N,A*12
$IIVHW,,,218,M,00.0,N,,*6F
$IIVLW,00430,N,002.3,N*55
$IIVWR,121,L,00.0,N,,,,*7D
$IIDPT,029.7,-1.0,*4C
$IIHDG,218,,,,*5C
$IIMTW,+07.5,C*3A
$IIMWV,241,R,00.0,N,A*14
$IIMWV,239,T,00.0,N,A*1D
$IIVHW,,,217,M,00.0,N,,*60
$IIVLW,00430,N,002.3,N*55
$IIVWR,119,L,00.0,N,,,,*76
$IIDPT,029.7,-1.0,*4C
$IIHDG,217,,,,*53
$IIMTW,+07.5,C*3A
$IIMWV,241,R,00.0,N,A*14
$IIMWV,241,T,00.0,N,A*12
$IIVHW,,,216,M,00.0,N,,*61
$IIVLW,00430,N,002.3,N*55
$IIVWR,119,L,00.0,N,,,,*76
$IIDPT,030.8,-1.0,*4B
$IIHDG,216,,,,*52
$IIMTW,+07.5,C*3A
$IIMWV,240,R,00.0,N,A*15
$IIMWV,241,T,00.0,N,A*12
$IIVHW,,,217,M,00.0,N,,*60
$IIVLW,00430,N,002.3,N*55
$IIVWR,120,L,00.0,N,,,,*7C
$IIDPT,030.7,-1.0,*44
$IIHDG,217,,,,*53
$IIMTW,+07.5,C*3A
$IIMWV,241,R,00.0,N,A*14
$IIMWV,240,T,00.0,N,A*13
$IIVHW,,,219,M,00.0,N,,*6E
$IIVLW,00430,N,002.3,N*55
$IIVWR,119,L,00.0,N,,,,*76
$IIDPT,030.7,-1.0,*44
$IIHDG,219,,,,*5D
$IIMTW,+07.5,C*3A
$IIMWV,240,R,00.0,N,A*15
$IIMWV,241,T,00.0,N,A*12
$IIVHW,,,220,M,00.0,N,,*64
$IIVLW,00430,N,002.3,N*55
$IIVWR,120,L,00.0,N,,,,*7C
$IIDPT,030.0,-1.0,*43
$IIHDG,220,,,,*57
$IIMTW,+07.5,C*3A
$IIMWV,240,R,00.0,N,A*15
$IIMWV,240,T,00.0,N,A*13
$IIRMB,A,0.00,L,,VIDY,,,,,000.18,024,-00.7,V,A*4E
$IIRMC,121308,A,4630.523,N,00636.427,E,00.6,213,011207,,,A*44
$IIVHW,,,220,M,00.0,N,,*64
$IIVLW,00430,N,002.3,N*55
$IIVWR,120,L,00.0,N,,,,*7C
$IIDPT,031.3,-1.0,*41
$IIGLL,4630.523,N,00636.427,E,121308,A,A*5E
$IIHDG,219,,,,*5D
$IIMTW,+07.5,C*3A
$IIMWV,239,R,00.0,N,A*1B
$IIMWV,240,T,00.0,N,A*13
$IIRMC,121308,A,4630.523,N,00636.427,E,00.6,213,011207,,,A*44
$IIVHW,,,219,M,00.0,N,,*6E
$IIVLW,00430,N,002.3,N*55
$IIVWR,121,L,00.0,N,,,,*7D
$IIDPT,031.3,-1.0,*41
$IIGLL,4630.523,N,00636.427,E,121310,A,A*57
$IIHDG,219,,,,*5D
$IIMTW,+07.5,C*3A
$IIMWV,239,R,00.0,N,A*1B
$IIMWV,239,T,00.0,N,A*1D
$IIRMB,A,0.00,L,,VIDY,,,,,000.18,024,-00.7,V,A*4E
$IIRMC,121310,A,4630.523,N,00636.427,E,00.0,223,011207,,,A*48
$IIVHW,,,219,M,00.0,N,,*6E
$IIVLW,00430,N,002.3,N*55
$IIVWR,122,L,00.0,N,,,,*7E
$IIDPT,030.0,-1.0,*43
$IIGLL,4630.523,N,00636.427,E,121310,A,A*57
$IIHDG,219,,,,*5D
$IIMTW,+07.5,C*3A
$IIMWV,238,R,00.0,N,A*1A
$IIMWV,239,T,00.0,N,A*1D
$IIRMC,121312,A,4630.522,N,00636.427,E,00.0,223,011207,,,A*4B
$IIVHW,,,219,M,00.0,N,,*6E
$IIVLW,00430,N,002.3,N*55
$IIVWR,117,L,00.0,N,,,,*78
$IIDPT,027.8,-1.0,*4D
$IIGLL,4630.522,N,00636.427,E,121312,A,A*54
$IIHDG,219,,,,*5D
$IIMTW,+07.5,C*3A
$IIMWV,243,R,00.0,N,A*16
$IIMWV,243,T,00.0,N,A*10
$IIRMB,A,0.00,L,,VIDY,,,,,000.18,024,,V,A*7A
$IIRMC,121312,A,4630.522,N,00636.427,E,00.0,223,011207,,,A*4B
$IIVHW,,,219,M,00.0,N,,*6E
$IIVLW,00430,N,002.3,N*55
$IIVWR,116,L,00.0,N,,,,*79
$IIDPT,030.8,-1.0,*4B
$IIGLL,4630.522,N,00636.427,E,121312,A,A*54
$IIHDG,219,,,,*5D
$IIMTW,+07.5,C*3A
$IIMWV,245,R,00.0,N,A*10
$IIMWV,244,T,00.0,N,A*17
$IIRMB,A,0.00,L,,VIDY,,,,,000.18,024,-00.6,V,A*4F
$IIRMC,121314,A,4630.521,N,00636.426,E,00.5,223,011207,,,A*4A
$IIVHW,,,219,M,00.0,N,,*6E
$IIVLW,00430,N,002.3,N*55
$IIVWR,115,L,00.0,N,,,,*7A
$IIDPT,030.2,-1.0,*41
$IIGLL,4630.521,N,00636.426,E,121314,A,A*50
$IIHDG,219,,,,*5D
$IIMTW,+07.5,C*3A
$IIMWV,245,R,00.5,N,A*15
$IIMWV,245,T,00.0,N,A*16
$IIRMC,121314,A,4630.521,N,00636.426,E,00.5,223,011207,,,A*4A
$IIVHW,,,219,M,00.0,N,,*6E
$IIVLW,00430,N,002.3,N*55
$IIVWR,118,L,00.8,N,,,,*7F
$IIDPT,028.0,-1.0,*4A
$IIGLL,4630.521,N,00636.425,E,121316,A,A*51
$IIHDG,219,,,,*5D
$IIMTW,+07.5,C*3A
$IIMWV,242,R,00.8,N,A*1F
$IIMWV,245,T,00.5,N,A*13
$IIRMB,A,0.00,L,,VIDY,,,,,000.18,024,-00.6,V,A*4F
$IIRMC,121316,A,4630.521,N,00636.425,E,00.0,211,011207,,,A*4F
$IIVHW,,,219,M,00.0,N,,*6E
$IIVLW,00430,N,002.3,N*55
$IIVWR,119,L,00.5,N,,,,*73
$IIDPT,028.0,-1.0,*4A
$IIGLL,4630.521,N,00636.425,E,121316,A,A*51
$IIHDG,219,,,,*5D
$IIMTW,+07.5,C*3A
$IIMWV,241,R,00.5,N,A*11
$IIMWV,241,T,00.5,N,A*17
$IIRMB,A,0.00,L,,VIDY,,,,,000.18,024,-00.6,V,A*4F
$IIRMC,121318,A,4630.521,N,00636.425,E,00.6,211,011207,,,A*47
$IIVHW,,,219,M,00.0,N,,*6E
$IIVLW,00430,N,002.3,N*55
$IIVWR,118,L,00.3,N,,,,*74
$IIDPT,028.7,-1.0,*4D
$IIGLL,4630.521,N,00636.425,E,121318,A,A*5F
$IIHDG,219,,,,*5D
$IIMTW,+07.5,C*3A
$IIMWV,241,R,00.1,N,A*15
$IIMWV,240,T,00.2,N,A*11
$IIRMB,A,0.00,L,,VIDY,,,,,000.19,024,-00.4,V,A*4C
$IIRMC,121320,A,4630.521,N,00636.424,E,00.5,211,011207,,,A*4E
$IIVHW,,,219,M,00.0,N,,*6E
$IIVLW,00430,N,002.3,N*55
$IIVWR,119,L,00.1,N,,,,*77
$IIDPT,029.1,-1.0,*4A
$IIGLL,4630.521,N,00636.424,E,121320,A,A*55
$IIHDG,219,,,,*5D
$IIMTW,+07.0,C*3F
$IIMWV,240,R,00.0,N,A*15
$IIMWV,241,T,00.1,N,A*13
$IIRMC,121320,A,4630.521,N,00636.424,E,00.5,211,011207,,,A*4E
$IIVHW,,,219,M,00.0,N,,*6E
$IIVLW,00430,N,002.3,N*55
$IIVWR,120,L,00.0,N,,,,*7C
$IIDPT,029.1,-1.0,*4A
$IIGLL,4630.520,N,00636.423,E,121322,A,A*51
$IIHDG,219,,,,*5D
$IIMTW,+07.0,C*3F
$IIMWV,240,R,00.0,N,A*15
$IIMWV,240,T,00.0,N,A*13
$IIRMB,A,0.00,L,,VIDY,,,,,000.19,025,-00.4,V,A*4D
$IIRMC,121322,A,4630.520,N,00636.423,E,00.0,211,011207,,,A*4F
$IIVHW,,,219,M,00.0,N,,*6E
$IIVLW,00430,N,002.3,N*55
$IIVWR,120,L,00.0,N,,,,*7C
$IIDPT,029.9,-1.0,*42
$IIGLL,4630.520,N,00636.423,E,121322,A,A*51
$IIHDG,219,,,,*5D
$IIMTW,+07.0,C*3F
$IIMWV,240,R,00.0,N,A*15
$IIMWV,240,T,00.0,N,A*13
$IIRMB,A,0.00,L,,VIDY,,,,,000.19,025,00.0,V,A*64
$IIRMC,121324,A,4630.520,N,00636.423,E,00.6,211,011207,,,A*4F
$IIVHW,,,219,M,00.0,N,,*6E
$IIVLW,00430,N,002.3,N*55
$IIVWR,122,L,00.0,N,,,,*7E
$IIDPT,029.9,-1.0,*42
$IIGLL,4630.520,N,00636.423,E,121324,A,A*57
$IIHDG,220,,,,*57
$IIMTW,+07.0,C*3F
$IIMWV,244,R,00.0,N,A*11
$IIMWV,238,T,00.0,N,A*1C
$IIRMC,121324,A,4630.520,N,00636.423,E,00.6,211,011207,,,A*4F
$IIVHW,,,220,M,00.0,N,,*64
$IIVLW,00430,N,002.3,N*55
$IIVWR,116,L,00.0,N,,,,*79
$IIDPT,029.9,-1.0,*42
$IIGLL,4630.520,N,00636.423,E,121326,A,A*55
$IIHDG,220,,,,*57
$IIMTW,+07.0,C*3F
$IIMWV,240,R,00.0,N,A*15
$IIMWV,244,T,00.0,N,A*17
$IIRMB,A,0.00,L,,VIDY,,,,,000.19,025,-00.5,V,A*4C
$IIRMC,121326,A,4630.520,N,00636.423,E,00.6,211,011207,,,A*4D
$IIVHW,,,220,M,00.0,N,,*64
$IIVLW,00430,N,002.3,N*55
$IIVWR,120,L,00.0,N,,,,*7C
$IIDPT,028.0,-1.0,*4A
$IIGLL,4630.520,N,00636.423,E,121326,A,A*55
$IIHDG,220,,,,*57
$IIMTW,+07.0,C*3F
$IIMWV,240,R,00.0,N,A*15
$IIMWV,240,T,00.0,N,A*13
$IIRMC,121326,A,4630.520,N,00636.423,E,00.6,211,011207,,,A*4D
$IIVHW,,,220,M,00.0,N,,*64
$IIVLW,00430,N,002.3,N*55
$IIVWR,122,L,00.0,N,,,,*7E
$IIDPT,029.6,-1.0,*4D
$IIGLL,4630.519,N,00636.423,E,121328,A,A*51
$IIHDG,220,,,,*57
$IIMTW,+07.0,C*3F
$IIMWV,238,R,00.0,N,A*1A
$IIMWV,240,T,00.0,N,A*13
$IIRMB,A,0.00,L,,VIDY,,,,,000.19,025,00.0,V,A*64
$IIRMC,121328,A,4630.519,N,00636.423,E,00.6,211,011207,,,A*49
$IIVHW,,,220,M,00.0,N,,*64
$IIVLW,00430,N,002.3,N*55
$IIVWR,128,L,00.0,N,,,,*74
$IIDPT,030.1,-1.0,*42
$IIGLL,4630.519,N,00636.423,E,121328,A,A*51
$IIHDG,220,,,,*57
$IIMTW,+07.0,C*3F
$IIMWV,232,R,00.0,N,A*10
$IIMWV,232,T,00.0,N,A*16
$IIRMB,A,0.00,L,,VIDY,,,,,000.19,025,-00.4,V,A*4D
$IIRMC,121330,A,4630.519,N,00636.422,E,00.4,211,011207,,,A*43
$IIVHW,,,220,M,00.0,N,,*64
$IIVLW,00430,N,002.3,N*55
$IIVWR,124,L,00.0,N,,,,*78
$IIDPT,032.0,-1.0,*41
$IIGLL,4630.519,N,00636.422,E,121330,A,A*59
$IIHDG,220,,,,*57
$IIMTW,+07.5,C*3A
$IIMWV,233,R,00.0,N,A*11
$IIMWV,236,T,00.0,N,A*12
$IIRMC,121330,A,4630.519,N,00636.422,E,00.4,211,011207,,,A*43
$IIVHW,,,220,M,00.0,N,,*64
$IIVLW,00430,N,002.3,N*55
$IIVWR,127,L,00.0,N,,,,*7B
$IIDPT,031.4,-1.0,*46
$IIGLL,4630.519,N,00636.422,E,121332,A,A*5B
$IIHDG,220,,,,*57
$IIMTW,+07.5,C*3A
$IIMWV,238,R,00.0,N,A*1A
$IIMWV,233,T,00.0,N,A*17
$IIRMB,A,0.00,L,,VIDY,,,,,000.19,025,-00.5,V,A*4C
$IIRMC,121332,A,4630.519,N,00636.422,E,00.6,211,011207,,,A*43
$IIVHW,,,220,M,00.0,N,,*64
$IIVLW,00430,N,002.3,N*55
$IIVWR,126,L,00.0,N,,,,*7A
$IIDPT,031.4,-1.0,*46
$IIGLL,4630.519,N,00636.422,E,121332,A,A*5B
$IIHDG,221,,,,*56
$IIMTW,+07.5,C*3A
$IIMWV,234,R,00.0,N,A*16
$IIMWV,238,T,00.0,N,A*1C
$IIRMC,121332,A,4630.519,N,00636.422,E,00.6,211,011207,,,A*43
$IIVHW,,,220,M,00.0,N,,*64
$IIVLW,00430,N,002.3,N*55
$IIVWR,126,L,00.0,N,,,,*7A
$IIDPT,030.0,-1.0,*43
$IIGLL,4630.519,N,00636.422,E,121334,A,A*5D
$IIHDG,220,,,,*57
$IIMTW,+07.5,C*3A
$IIMWV,234,R,00.0,N,A*16
$IIMWV,234,T,00.0,N,A*10
$IIRMB,A,0.00,L,,VIDY,,,,,000.19,025,-00.4,V,A*4D
$IIRMC,121334,A,4630.519,N,00636.422,E,00.5,211,011207,,,A*46
$IIVHW,,,222,M,00.0,N,,*66
$IIVLW,00430,N,002.3,N*55
$IIVWR,129,L,00.0,N,,,,*75
$IIDPT,030.0,-1.0,*43
$IIGLL,4630.519,N,00636.422,E,121334,A,A*5D
$IIHDG,222,,,,*55
$IIMTW,+07.5,C*3A
$IIMWV,231,R,00.0,N,A*13
$IIMWV,231,T,00.0,N,A*15
$IIRMB,A,0.00,L,,VIDY,,,,,000.19,025,-00.6,V,A*4F
$IIRMC,121336,A,4630.519,N,00636.421,E,00.5,211,011207,,,A*47
$IIVHW,,,221,M,00.0,N,,*65
$IIVLW,00430,N,002.3,N*55
$IIVWR,130,L,00.0,N,,,,*7D
$IIDPT,028.8,-1.0,*42
$IIGLL,4630.519,N,00636.421,E,121336,A,A*5C
$IIHDG,222,,,,*55
$IIMTW,+07.0,C*3F
$IIMWV,229,R,00.0,N,A*1A
$IIMWV,230,T,00.0,N,A*14
$IIRMC,121336,A,4630.519,N,00636.421,E,00.5,211,011207,,,A*47
$IIVHW,,,222,M,00.0,N,,*66
$IIVLW,00430,N,002.3,N*55
$IIVWR,131,L,00.0,N,,,,*7C
$IIDPT,027.9,-1.0,*4C
$IIGLL,4630.518,N,00636.421,E,121338,A,A*53
$IIHDG,222,,,,*55
$IIMTW,+07.0,C*3F
$IIMWV,232,R,00.0,N,A*10
$IIMWV,229,T,00.0,N,A*1C
$IIRMB,A,0.00,L,,VIDY,,,,,000.19,025,-00.5,V,A*4C
$IIRMC,121338,A,4630.518,N,00636.421,E,00.5,223,011207,,,A*49
$IIVHW,,,222,M,00.0,N,,*66
$IIVLW,00430,N,002.3,N*55
$IIVWR,126,L,00.0,N,,,,*7A
$IIDPT,030.5,-1.0,*46
$IIGLL,4630.518,N,00636.421,E,121338,A,A*53
$IIHDG,222,,,,*55
$IIMTW,+07.0,C*3F
$IIMWV,234,R,00.0,N,A*16
$IIMWV,232,T,00.0,N,A*16
$IIRMC,121338,A,4630.518,N,00636.421,E,00.5,223,011207,,,A*49
$IIVHW,,,222,M,00.0,N,,*66
$IIVLW,00430,N,002.3,N*55
$IIVWR,126,L,00.0,N,,,,*7A
$IIDPT,032.6,-1.0,*47
$IIGLL,4630.518,N,00636.421,E,121340,A,A*5C
$IIHDG,222,,,,*55
$IIMTW,+07.0,C*3F
$IIMWV,234,R,00.0,N,A*16
$IIMWV,235,T,00.0,N,A*11
$IIRMB,A,0.00,L,,VIDY,,,,,000.19,025,-00.4,V,A*4D
$IIRMC,121342,A,4630.518,N,00636.421,E,00.5,223,011207,,,A*44
$IIVHW,,,222,M,00.0,N,,*66
$IIVLW,00430,N,002.3,N*55
$IIVWR,129,L,00.0,N,,,,*75
$IIDPT,034.7,-1.0,*40
$IIGLL,4630.518,N,00636.421,E,121342,A,A*5E
$IIHDG,222,,,,*55
$IIMTW,+07.0,C*3F
$IIMWV,231,R,00.0,N,A*13
$IIMWV,231,T,00.0,N,A*15
$IIRMB,A,0.00,L,,VIDY,,,,,000.19,025,-00.4,V,A*4D
$IIRMC,121342,A,4630.518,N,00636.421,E,00.5,223,011207,,,A*44
$IIVHW,,,223,M,00.0,N,,*67
$IIVLW,00430,N,002.3,N*55
$IIVWR,130,L,00.0,N,,,,*7D
$IIDPT,034.7,-1.0,*40
$IIGLL,4630.518,N,00636.421,E,121342,A,A*5E
$IIHDG,223,,,,*54
$IIMTW,+07.0,C*3F
$IIMWV,227,R,00.0,N,A*14
$IIMWV,230,T,00.0,N,A*14
$IIRMB,A,0.00,L,,VIDY,,,,,000.19,025,-00.4,V,A*4D
$IIRMC,121344,A,4630.518,N,00636.420,E,00.5,224,011207,,,A*44
$IIVHW,,,223,M,00.0,N,,*67
$IIVLW,00430,N,002.3,N*55
$IIVWR,133,L,00.0,N,,,,*7E
$IIDPT,034.3,-1.0,*44
$IIGLL,4630.518,N,00636.420,E,121344,A,A*59
$IIHDG,222,,,,*55
$IIMTW,+07.0,C*3F
$IIMWV,230,R,00.0,N,A*12
$IIMWV,227,T,00.0,N,A*12
$IIRMC,121344,A,4630.518,N,00636.420,E,00.5,224,011207,,,A*44
$IIVHW,,,222,M,00.0,N,,*66
$IIVLW,00430,N,002.3,N*55
$IIVWR,135,L,00.0,N,,,,*78
$IIDPT,031.8,-1.0,*4A
$IIGLL,4630.517,N,00636.420,E,121346,A,A*54
$IIHDG,223,,,,*54
$IIMTW,+07.5,C*3A
$IIMWV,225,R,00.0,N,A*16
$IIMWV,230,T,00.0,N,A*14
$IIRMB,A,0.00,L,,VIDY,,,,,000.19,025,-00.4,V,A*4D
$IIRMC,121346,A,4630.517,N,00636.420,E,00.5,224,011207,,,A*49
$IIVHW,,,224,M,00.0,N,,*60
$IIVLW,00430,N,002.3,N*55
$IIVWR,138,L,00.0,N,,,,*75
$IIDPT,030.5,-1.0,*46
$IIGLL,4630.517,N,00636.420,E,121346,A,A*54
$IIHDG,224,,,,*53
$IIMTW,+07.5,C*3A
$IIMWV,222,R,00.0,N,A*11
$IIMWV,222,T,00.0,N,A*17
$IIRMB,A,0.00,L,,VIDY,,,,,000.19,025,-00.4,V,A*4D
$IIRMC,121348,A,4630.517,N,00636.420,E,00.5,224,011207,,,A*47
$IIVHW,,,223,M,00.0,N,,*67
$IIVLW,00430,N,002.3,N*55
$IIVWR,141,L,00.0,N,,,,*7B
$IIDPT,029.1,-1.0,*4A
$IIGLL,4630.517,N,00636.420,E,121348,A,A*5A
$IIHDG,223,,,,*54
$IIMTW,+07.5,C*3A
$IIMWV,217,R,00.0,N,A*17
$IIMWV,219,T,00.0,N,A*1F
$IIRMC,121348,A,4630.517,N,00636.420,E,00.5,224,011207,,,A*47
$IIVHW,,,223,M,00.0,N,,*67
$IIVLW,00430,N,002.3,N*55
$IIVWR,143,L,00.0,N,,,,*79
$IIDPT,029.9,-1.0,*42
$IIGLL,4630.517,N,00636.419,E,121350,A,A*59
$IIHDG,224,,,,*53
$IIMTW,+07.5,C*3A
$IIMWV,213,R,00.0,N,A*13
$IIMWV,217,T,00.0,N,A*11
$IIRMB,A,0.00,L,,VIDY,,,,,000.19,025,-00.4,V,A*4D
$IIRMC,121350,A,4630.517,N,00636.419,E,00.4,224,011207,,,A*45
$IIVHW,,,224,M,00.0,N,,*60
$IIVLW,00430,N,002.3,N*55
$IIVWR,148,L,00.0,N,,,,*72
$IIDPT,029.7,-1.0,*4C
$IIGLL,4630.517,N,00636.419,E,121350,A,A*59
$IIHDG,224,,,,*53
$IIMTW,+07.5,C*3A
$IIMWV,212,R,00.0,N,A*12
$IIMWV,213,T,00.0,N,A*15
$IIRMC,121350,A,4630.517,N,00636.419,E,00.4,224,011207,,,A*45
$IIVHW,,,224,M,00.0,N,,*60
$IIVLW,00430,N,002.3,N*55
$IIVWR,145,L,00.0,N,,,,*7F
$IIDPT,028.4,-1.0,*4E
$IIGLL,4630.517,N,00636.419,E,121352,A,A*5B
$IIHDG,224,,,,*53
$IIMTW,+07.5,C*3A
$IIMWV,215,R,00.0,N,A*15
$IIMWV,212,T,00.0,N,A*14
$IIRMB,A,0.00,L,,VIDY,,,,,000.19,025,-00.4,V,A*4D
$IIRMC,121352,A,4630.517,N,00636.419,E,00.5,224,011207,,,A*46
$IIVHW,,,224,M,00.0,N,,*60
$IIVLW,00430,N,002.3,N*55
$IIVWR,145,L,00.0,N,,,,*7F
$IIDPT,028.4,-1.0,*4E
$IIGLL,4630.517,N,00636.419,E,121352,A,A*5B
$IIHDG,224,,,,*53
$IIMTW,+07.5,C*3A
$IIMWV,215,R,00.0,N,A*15
$IIMWV,215,T,00.0,N,A*13
$IIRMB,A,0.00,L,,VIDY,,,,,000.19,025,-00.4,V,A*4D
$IIRMC,121354,A,4630.517,N,00636.419,E,00.5,224,011207,,,A*40
$IIVHW,,,224,M,00.0,N,,*60
$IIVLW,00430,N,002.3,N*55
$IIVWR,142,L,00.0,N,,,,*78
$IIDPT,029.1,-1.0,*4A
$IIGLL,4630.517,N,00636.419,E,121354,A,A*5D
$IIHDG,225,,,,*52
$IIMTW,+07.5,C*3A
$IIMWV,219,R,00.0,N,A*19
$IIMWV,218,T,00.0,N,A*1E
$IIRMC,121354,A,4630.517,N,00636.419,E,00.5,224,011207,,,A*40
$IIVHW,,,225,M,00.0,N,,*61
$IIVLW,00430,N,002.3,N*55
$IIVWR,141,L,00.0,N,,,,*7B
$IIDPT,029.1,-1.0,*4A
$IIGLL,4630.516,N,00636.418,E,121356,A,A*5F
$IIHDG,226,,,,*51
$IIMTW,+07.5,C*3A
$IIMWV,226,R,00.0,N,A*15
$IIMWV,219,T,00.0,N,A*1F
$IIRMB,A,0.00,L,,VIDY,,,,,000.19,025,00.0,V,A*64
$IIRMC,121356,A,4630.516,N,00636.418,E,00.5,224,011207,,,A*42
$IIVHW,,,226,M,00.0,N,,*62
$IIVLW,00430,N,002.3,N*55
$IIVWR,131,L,00.0,N,,,,*7C
$IIDPT,028.6,-1.0,*4C
$IIGLL,4630.516,N,00636.418,E,121356,A,A*5F
$IIHDG,226,,,,*51
$IIMTW,+07.5,C*3A
$IIMWV,229,R,00.0,N,A*1A
$IIMWV,226,T,00.0,N,A*13
$IIRMC,121356,A,4630.516,N,00636.418,E,00.5,224,011207,,,A*42
$IIVHW,,,226,M,00.0,N,,*62
$IIVLW,00430,N,002.3,N*55
$IIVWR,130,L,00.0,N,,,,*7D
$IIDPT,029.8,-1.0,*43
$IIGLL,4630.516,N,00636.418,E,121358,A,A*51
$IIHDG,226,,,,*51
$IIMTW,+07.5,C*3A
$IIMWV,230,R,00.0,N,A*12
$IIMWV,229,T,00.0,N,A*1C
$IIRMB,A,0.00,L,,VIDY,,,,,000.19,025,-00.3,V,A*4A
$IIRMC,121358,A,4630.516,N,00636.418,E,00.4,224,011207,,,A*4D
$IIVHW,,,227,M,00.0,N,,*63
$IIVLW,00430,N,002.3,N*55
$IIVWR,131,L,00.0,N,,,,*7C
$IIDPT,030.2,-1.0,*41
$IIGLL,4630.516,N,00636.418,E,121358,A,A*51
$IIHDG,227,,,,*50
$IIMTW,+07.5,C*3A
$IIMWV,229,R,00.0,N,A*1A
$IIMWV,229,T,00.0,N,A*1C
$IIRMB,A,0.00,L,,VIDY,,,,,000.19,025,00.0,V,A*64
$IIRMC,121400,A,4630.516,N,00636.418,E,00.4,224,011207,,,A*47
$IIVHW,,,227,M,00.0,N,,*63
$IIVLW,00430,N,002.3,N*55
$IIVWR,131,L,00.0,N,,,,*7C
$IIDPT,029.4,-1.0,*4F
$IIGLL,4630.516,N,00636.418,E,121400,A,A*5B
$IIHDG,228,,,,*5F
$IIMTW,+07.5,C*3A
$IIMWV,229,R,00.0,N,A*1A
$IIMWV,229,T,00.0,N,A*1C
$IIRMC,121400,A,4630.516,N,00636.418,E,00.4,224,011207,,,A*47
$IIVHW,,,228,M,00.0,N,,*6C
$IIVLW,00430,N,002.3,N*55
$IIVWR,131,L,00.0,N,,,,*7C
$IIDPT,028.8,-1.0,*42
$IIGLL,4630.516,N,00636.417,E,121402,A,A*56
$IIHDG,228,,,,*5F
$IIMTW,+07.5,C*3A
$IIMWV,228,R,00.0,N,A*1B
$IIMWV,229,T,00.0,N,A*1C
$IIRMB,A,0.00,L,,VIDY,,,,,000.19,025,00.0,V,A*64
$IIRMC,121402,A,4630.516,N,00636.417,E,00.0,224,011207,,,A*4E
$IIVHW,,,228,M,00.0,N,,*6C
$IIVLW,00430,N,002.3,N*55
$IIVWR,132,L,00.0,N,,,,*7F
$IIDPT,030.2,-1.0,*41
$IIGLL,4630.516,N,00636.417,E,121402,A,A*56
$IIHDG,230,,,,*56
$IIMTW,+07.5,C*3A
$IIMWV,228,R,00.0,N,A*1B
$IIMWV,228,T,00.0,N,A*1D
$IIRMC,121402,A,4630.516,N,00636.417,E,00.0,224,011207,,,A*4E
$IIVHW,,,230,M,00.0,N,,*65
$IIVLW,00430,N,002.3,N*55
$IIVWR,134,L,00.0,N,,,,*79
$IIDPT,029.9,-1.0,*42
$IIGLL,4630.515,N,00636.417,E,121404,A,A*53
$IIHDG,230,,,,*56
$IIMTW,+07.5,C*3A
$IIMWV,226,R,00.0,N,A*15
$IIMWV,228,T,00.0,N,A*1D
$IIRMB,A,0.00,L,,VIDY,,,,,000.19,025,00.0,V,A*64
$IIRMC,121404,A,4630.515,N,00636.417,E,00.6,227,011207,,,A*4E
$IIVHW,,,231,M,00.0,N,,*64
$IIVLW,00430,N,002.3,N*55
$IIVWR,128,L,00.0,N,,,,*74
$IIDPT,029.1,-1.0,*4A
$IIGLL,4630.515,N,00636.417,E,121404,A,A*53
$IIHDG,231,,,,*57
$IIMTW,+07.5,C*3A
$IIMWV,232,R,00.0,N,A*10
$IIMWV,232,T,00.0,N,A*16
$IIRMB,A,0.00,L,,VIDY,,,,,000.19,025,-00.5,V,A*4C
$IIRMC,121406,A,4630.515,N,00636.417,E,00.6,230,011207,,,A*4A
$IIVHW,,,232,M,00.0,N,,*67
$IIVLW,00430,N,002.3,N*55
$IIVWR,131,L,00.0,N,,,,*7C
$IIDPT,030.3,-1.0,*40
$IIGLL,4630.515,N,00636.417,E,121406,A,A*51
$IIHDG,233,,,,*55
$IIMTW,+07.5,C*3A
$IIMWV,225,R,00.0,N,A*16
$IIMWV,229,T,00.0,N,A*1C
$IIRMC,121406,A,4630.515,N,00636.417,E,00.6,230,011207,,,A*4A
$IIVHW,,,233,M,00.0,N,,*66
$IIVLW,00430,N,002.3,N*55
$IIVWR,135,L,00.0,N,,,,*78
$IIDPT,031.0,-1.0,*42
$IIGLL,4630.515,N,00636.416,E,121408,A,A*5E
$IIHDG,233,,,,*55
$IIMTW,+07.5,C*3A
$IIMWV,219,R,00.0,N,A*19
$IIMWV,225,T,00.0,N,A*10
$IIRMB,A,0.00,L,,VIDY,,,,,000.19,025,-00.3,V,A*4A
$IIRMC,121408,A,4630.515,N,00636.416,E,00.6,230,011207,,,A*45
$IIVHW,,,233,M,00.0,N,,*66
$IIVLW,00430,N,002.3,N*55
$IIVWR,142,L,00.0,N,,,,*78
$IIDPT,029.7,-1.0,*4C
$IIGLL,4630.515,N,00636.416,E,121408,A,A*5E
$IIHDG,234,,,,*52
$IIMTW,+07.5,C*3A
$IIMWV,218,R,00.0,N,A*18
$IIMWV,219,T,00.0,N,A*1F
$IIRMC,121408,A,4630.515,N,00636.416,E,00.6,230,011207,,,A*45
$IIVHW,,,236,M,00.0,N,,*63
$IIVLW,00430,N,002.3,N*55
$IIVWR,145,L,00.0,N,,,,*7F
$IIDPT,029.3,-1.0,*48
$IIGLL,4630.515,N,00636.416,E,121410,A,A*57
$IIHDG,236,,,,*50
$IIMTW,+07.5,C*3A
$IIMWV,215,R,00.0,N,A*15
$IIMWV,218,T,00.0,N,A*1E
$IIRMB,A,0.00,L,,VIDY,,,,,000.19,025,-00.5,V,A*4C
$IIRMC,121410,A,4630.515,N,00636.416,E,00.5,230,011207,,,A*4F
$IIVHW,,,236,M,00.0,N,,*63
$IIVLW,00430,N,002.3,N*55
$IIVWR,145,L,00.0,N,,,,*7F
$IIDPT,029.3,-1.0,*48
$IIGLL,4630.515,N,00636.416,E,121410,A,A*57
$IIHDG,236,,,,*50
$IIMTW,+07.5,C*3A
$IIMWV,215,R,00.0,N,A*15
$IIMWV,215,T,00.0,N,A*13
$IIRMB,A,0.00,L,,VIDY,,,,,000.19,025,-00.3,V,A*4A
$IIRMC,121412,A,4630.515,N,00636.416,E,00.6,230,011207,,,A*4E
$IIVHW,,,237,M,00.0,N,,*62
$IIVLW,00430,N,002.3,N*55
$IIVWR,149,L,00.0,N,,,,*73
$IIDPT,029.3,-1.0,*48
$IIGLL,4630.515,N,00636.416,E,121412,A,A*55
$IIHDG,239,,,,*5F
$IIMTW,+07.5,C*3A
$IIMWV,213,R,00.0,N,A*13
$IIMWV,211,T,00.0,N,A*17
$IIRMC,121412,A,4630.515,N,00636.416,E,00.6,230,011207,,,A*4E
$IIVHW,,,239,M,00.0,N,,*6C
$IIVLW,00430,N,002.3,N*55
$IIVWR,147,L,00.0,N,,,,*7D
$IIDPT,029.3,-1.0,*48
$IIGLL,4630.515,N,00636.415,E,121414,A,A*50
$IIHDG,240,,,,*51
$IIMTW,+07.5,C*3A
$IIMWV,213,R,00.0,N,A*13
$IIMWV,213,T,00.0,N,A*15
$IIRMB,A,0.00,L,,VIDY,,,,,000.19,025,00.0,V,A*64
$IIRMC,121414,A,4630.515,N,00636.415,E,00.4,230,011207,,,A*49
$IIVHW,,,240,M,00.0,N,,*62
$IIVLW,00430,N,002.3,N*55
$IIVWR,148,L,00.0,N,,,,*72
$IIDPT,029.3,-1.0,*48
$IIGLL,4630.515,N,00636.415,E,121414,A,A*50
$IIHDG,240,,,,*51
$IIMTW,+07.5,C*3A
$IIMWV,212,R,00.0,N,A*12
$IIMWV,213,T,00.0,N,A*15
$IIRMC,121414,A,4630.515,N,00636.415,E,00.4,230,011207,,,A*49
$IIVHW,,,240,M,00.0,N,,*62
$IIVLW,00430,N,002.3,N*55
$IIVWR,150,L,00.0,N,,,,*7B
$IIDPT,029.1,-1.0,*4A
$IIGLL,4630.515,N,00636.415,E,121416,A,A*52
$IIHDG,240,,,,*51
$IIMTW,+07.5,C*3A
$IIMWV,210,R,00.0,N,A*10
$IIMWV,212,T,00.0,N,A*14
$IIRMB,A,0.00,L,,VIDY,,,,,000.19,025,-00.4,V,A*4D
$IIRMC,121416,A,4630.515,N,00636.415,E,00.3,243,011207,,,A*48
$IIVHW,,,243,M,00.0,N,,*61
$IIVLW,00430,N,002.3,N*55
$IIVWR,147,L,00.0,N,,,,*7D
$IIDPT,029.0,-1.0,*4B
$IIGLL,4630.515,N,00636.415,E,121416,A,A*52
$IIHDG,243,,,,*52
$IIMTW,+07.5,C*3A
$IIMWV,213,R,00.0,N,A*13
$IIMWV,213,T,00.0,N,A*15
$IIRMB,A,0.00,L,,VIDY,,,,,000.19,025,-00.3,V,A*4A
$IIRMC,121418,A,4630.515,N,00636.415,E,00.4,251,011207,,,A*42
$IIVHW,,,244,M,00.0,N,,*66
$IIVLW,00430,N,002.3,N*55
$IIVWR,140,L,00.0,N,,,,*7A
$IIDPT,029.0,-1.0,*4B
$IIGLL,4630.515,N,00636.415,E,121418,A,A*5C
$IIHDG,245,,,,*54
$IIMTW,+07.5,C*3A
$IIMWV,218,R,00.0,N,A*18
$IIMWV,220,T,00.0,N,A*15
$IIRMC,121418,A,4630.515,N,00636.415,E,00.4,251,011207,,,A*42
$IIVHW,,,245,M,00.0,N,,*67
$IIVLW,00430,N,002.3,N*55
$IIVWR,142,L,00.0,N,,,,*78
$IIDPT,029.0,-1.0,*4B
$IIGLL,4630.515,N,00636.415,E,121420,A,A*57
$IIHDG,245,,,,*54
$IIMTW,+07.5,C*3A
$IIMWV,218,R,00.0,N,A*18
$IIMWV,218,T,00.0,N,A*1E
$IIRMB,A,0.00,L,,VIDY,,,,,000.19,025,-00.3,V,A*4A
$IIRMC,121420,A,4630.515,N,00636.415,E,00.4,251,011207,,,A*49
$IIVHW,,,245,M,00.0,N,,*67
$IIVLW,00430,N,002.3,N*55
$IIVWR,134,L,00.0,N,,,,*79
$IIDPT,033.4,-1.0,*44
$IIGLL,4630.515,N,00636.414,E,121422,A,A*54
$IIHDG,248,,,,*59
$IIMTW,+07.5,C*3A
$IIMWV,226,R,00.0,N,A*15
$IIMWV,220,T,00.0,N,A*15
$IIRMB,A,0.00,L,,VIDY,,,,,000.19,025,-00.3,V,A*4A
$IIRMC,121422,A,4630.515,N,00636.414,E,00.0,251,011207,,,A*4E
$IIVHW,,,249,M,00.0,N,,*6B
$IIVLW,00430,N,002.3,N*55
$IIVWR,133,L,00.0,N,,,,*7E
$IIDPT,033.4,-1.0,*44
$IIGLL,4630.515,N,00636.414,E,121422,A,A*54
$IIHDG,249,,,,*58
$IIMTW,+07.5,C*3A
$IIMWV,227,R,00.0,N,A*14
$IIMWV,227,T,00.0,N,A*12
$IIRMB,A,0.01,R,,VIDY,,,,,000.19,026,-00.3,V,A*56
$IIRMC,121424,A,4630.514,N,00636.414,E,00.4,254,011207,,,A*48
$IIVHW,,,250,M,00.0,N,,*63
$IIVLW,00430,N,002.3,N*55
$IIVWR,133,L,00.0,N,,,,*7E
$IIDPT,035.1,-1.0,*47
$IIGLL,4630.514,N,00636.414,E,121424,A,A*53
$IIHDG,252,,,,*52
$IIMTW,+07.5,C*3A
$IIMWV,226,R,00.0,N,A*15
$IIMWV,227,T,00.0,N,A*12
$IIRMC,121424,A,4630.514,N,00636.414,E,00.4,254,011207,,,A*48
$IIVHW,,,252,M,00.0,N,,*61
$IIVLW,00430,N,002.3,N*55
$IIVWR,134,L,00.0,N,,,,*79
$IIDPT,032.3,-1.0,*42
$IIGLL,4630.514,N,00636.414,E,121426,A,A*51
$IIHDG,252,,,,*52
$IIMTW,+07.5,C*3A
$IIMWV,225,R,00.0,N,A*16
$IIMWV,226,T,00.0,N,A*13
$IIRMB,A,0.01,R,,VIDY,,,,,000.19,026,-00.4,V,A*51
$IIRMC,121426,A,4630.514,N,00636.414,E,00.5,254,011207,,,A*4B
$IIVHW,,,252,M,00.0,N,,*61
$IIVLW,00430,N,002.3,N*55
$IIVWR,000,R,00.0,N,,,,*61
$IIDPT,029.6,-1.0,*4D
$IIGLL,4630.514,N,00636.414,E,121426,A,A*51
$IIHDG,254,,,,*54
$IIMTW,+07.5,C*3A
$IIMWV,000,R,00.0,N,A*13
$IIMWV,225,T,00.0,N,A*10
$IIRMC,121426,A,4630.514,N,00636.414,E,00.5,254,011207,,,A*4B
$IIVHW,,,254,M,00.0,N,,*67
$IIVLW,00430,N,002.3,N*55
$IIVWR,000,R,00.0,N,,,,*61
$IIDPT,029.6,-1.0,*4D
$IIGLL,4630.514,N,00636.413,E,121428,A,A*58
$IIHDG,254,,,,*54
$IIMTW,+07.5,C*3A
$IIMWV,000,R,00.0,N,A*13
$IIMWV,000,T,00.0,N,A*15
$IIRMB,A,0.01,R,,VIDY,,,,,000.19,026,-00.4,V,A*51
$IIRMC,121428,A,4630.514,N,00636.413,E,00.0,254,011207,,,A*47
$IIVHW,,,254,M,00.0,N,,*67
$IIVLW,00430,N,002.3,N*55
$IIVWR,000,R,00.0,N,,,,*61
$IIDPT,030.2,-1.0,*41
$IIGLL,4630.514,N,00636.413,E,121428,A,A*58
$IIHDG,254,,,,*54
$IIMTW,+07.5,C*3A
$IIMWV,000,R,00.0,N,A*13
$IIMWV,000,T,00.0,N,A*15
$IIRMB,A,0.01,R,,VIDY,,,,,000.19,026,-00.4,V,A*51
$IIRMC,121430,A,4630.514,N,00636.413,E,00.0,254,011207,,,A*4E
$IIVHW,,,255,M,00.0,N,,*66
$IIVLW,00430,N,002.3,N*55
$IIDPT,030.2,-1.0,*41
$IIGLL,4630.514,N,00636.413,E,121430,A,A*51
$IIHDG,255,,,,*55
$IIMTW,+07.5,C*3A
$IIRMC,121430,A,4630.514,N,00636.413,E,00.0,254,011207,,,A*4E
$IIVHW,,,256,M,00.0,N,,*65
$IIVLW,00430,N,002.3,N*55
$IIDPT,031.3,-1.0,*41
$IIGLL,4630.514,N,00636.413,E,121430,A,A*51
$IIHDG,256,,,,*56
$IIMTW,+07.5,C*3A
$IIRMB,A,0.01,R,,VIDY,,,,,000.19,026,,V,A*66
$IIRMC,121432,A,4630.514,N,00636.413,E,00.0,254,011207,,,A*4C
$IIVHW,,,256,M,00.0,N,,*65
$IIVLW,00430,N,002.3,N*55
$IIDPT,031.3,-1.0,*41
$IIGLL,4630.514,N,00636.413,E,121432,A,A*53
$IIHDG,256,,,,*56
$IIMTW,+07.5,C*3A
$IIRMC,121432,A,4630.514,N,00636.413,E,00.0,254,011207,,,A*4C
$IIVHW,,,256,M,00.0,N,,*65
$IIVLW,00430,N,002.3,N*55
$IIDPT,032.4,-1.0,*45
$IIGLL,4630.514,N,00636.413,E,121432,A,A*53
$IIHDG,256,,,,*56
$IIMTW,+07.5,C*3A
$IIRMB,A,0.01,R,,VIDY,,,,,000.19,026,,V,A*66
$IIRMC,121434,A,4630.514,N,00636.412,E,00.0,254,011207,,,A*4B
$IIVHW,,,256,M,00.0,N,,*65
$IIVLW,00430,N,002.3,N*55
$IIDPT,033.1,-1.0,*41
$IIGLL,4630.514,N,00636.412,E,121434,A,A*54
$IIHDG,256,,,,*56
$IIMTW,+07.5,C*3A
$IIRMC,121434,A,4630.514,N,00636.412,E,00.0,254,011207,,,A*4B
$IIVHW,,,257,M,00.0,N,,*64
$IIVLW,00430,N,002.3,N*55
$IIDPT,032.9,-1.0,*48
$IIGLL,4630.514,N,00636.412,E,121434,A,A*54
$IIHDG,257,,,,*57
$IIMTW,+07.5,C*3A
$IIRMB,A,0.01,R,,VIDY,,,,,000.20,026,-00.2,V,A*5D
$IIRMC,121436,A,4630.514,N,00636.412,E,00.4,260,011207,,,A*4A
$IIVHW,,,256,M,00.0,N,,*65
$IIVLW,00430,N,002.3,N*55
$IIDPT,032.9,-1.0,*48
$IIGLL,4630.514,N,00636.412,E,121436,A,A*56
$IIHDG,256,,,,*56
$IIMTW,+07.5,C*3A
$IIRMC,121436,A,4630.514,N,00636.412,E,00.4,260,011207,,,A*4A
$IIVHW,,,256,M,00.0,N,,*65
$IIVLW,00430,N,002.3,N*55
$IIDPT,032.9,-1.0,*48
$IIGLL,4630.514,N,00636.412,E,121436,A,A*56
$IIHDG,256,,,,*56
$IIMTW,+07.5,C*3A
$IIRMB,A,0.01,R,,VIDY,,,,,000.20,026,00.0,V,A*72
$IIRMC,121438,A,4630.514,N,00636.412,E,00.4,265,011207,,,A*41
$IIVHW,,,257,M,00.0,N,,*64
$IIVLW,00430,N,002.3,N*55
$IIDPT,032.9,-1.0,*48
$IIGLL,4630.514,N,00636.412,E,121438,A,A*58
$IIHDG,257,,,,*57
$IIMTW,+07.5,C*3A
$IIRMC,121438,A,4630.514,N,00636.412,E,00.4,265,011207,,,A*41
$IIVHW,,,257,M,00.0,N,,*64
$IIVLW,00430,N,002.3,N*55
$IIDPT,032.5,-1.0,*44
$IIGLL,4630.514,N,00636.412,E,121438,A,A*58
$IIHDG,257,,,,*57
$IIMTW,+07.5,C*3A
$IIRMB,A,0.01,R,,VIDY,,,,,000.20,026,-00.2,V,A*5D
$IIRMC,121440,A,4630.514,N,00636.411,E,00.3,255,011207,,,A*49
$IIVHW,,,257,M,00.0,N,,*64
$IIVLW,00430,N,002.3,N*55
$IIDPT,032.5,-1.0,*44
$IIGLL,4630.514,N,00636.411,E,121440,A,A*54
$IIHDG,257,,,,*57
$IIMTW,+07.5,C*3A
$IIRMC,121440,A,4630.514,N,00636.411,E,00.3,255,011207,,,A*49
$IIVHW,,,257,M,00.0,N,,*64
$IIVLW,00430,N,002.3,N*55
$IIDPT,032.5,-1.0,*44
$IIGLL,4630.514,N,00636.411,E,121440,A,A*54
$IIHDG,257,,,,*57
$IIMTW,+07.5,C*3A
$IIRMB,A,0.01,R,,VIDY,,,,,000.20,026,-00.2,V,A*5D
$IIRMC,121442,A,4630.514,N,00636.411,E,00.3,268,011207,,,A*45
$IIVHW,,,257,M,00.0,N,,*64
$IIVLW,00430,N,002.3,N*55
$IIDPT,032.5,-1.0,*44
$IIGLL,4630.514,N,00636.411,E,121442,A,A*56
$IIHDG,257,,,,*57
$IIMTW,+07.5,C*3A
$IIRMC,121442,A,4630.514,N,00636.411,E,00.3,268,011207,,,A*45
$IIVHW,,,257,M,00.0,N,,*64
$IIVLW,00430,N,002.3,N*55
$IIDPT,033.1,-1.0,*41
$IIGLL,4630.514,N,00636.411,E,121442,A,A*56
$IIHDG,257,,,,*57
$IIMTW,+07.5,C*3A
$IIRMB,A,0.01,R,,VIDY,,,,,000.20,026,-00.3,V,A*5C
$IIRMC,121444,A,4630.513,N,00636.411,E,00.4,249,011207,,,A*40
$IIVHW,,,257,M,00.0,N,,*64
$IIVLW,00430,N,002.3,N*55
$IIDPT,033.1,-1.0,*41
$IIGLL,4630.513,N,00636.411,E,121444,A,A*57
$IIHDG,257,,,,*57
$IIMTW,+07.5,C*3A
$IIRMC,121444,A,4630.513,N,00636.411,E,00.4,249,011207,,,A*40
$IIVHW,,,258,M,00.0,N,,*6B
$IIVLW,00430,N,002.3,N*55
$IIDPT,033.1,-1.0,*41
$IIGLL,4630.513,N,00636.411,E,121444,A,A*57
$IIHDG,258,,,,*58
$IIMTW,+07.5,C*3A
$IIRMB,A,0.01,R,,VIDY,,,,,000.20,026,-00.3,V,A*5C
$IIRMC,121446,A,4630.513,N,00636.411,E,00.0,249,011207,,,A*46
$IIVHW,,,257,M,00.0,N,,*64
$IIVLW,00430,N,002.3,N*55
$IIDPT,033.1,-1.0,*41
$IIGLL,4630.513,N,00636.411,E,121446,A,A*55
$IIHDG,257,,,,*57
$IIMTW,+07.5,C*3A
$IIRMC,121446,A,4630.513,N,00636.411,E,00.0,249,011207,,,A*46
$IIVHW,,,258,M,00.0,N,,*6B
$IIVLW,00430,N,002.3,N*55
$IIDPT,030.9,-1.0,*4A
$IIGLL,4630.513,N,00636.411,E,121446,A,A*55
$IIHDG,258,,,,*58
$IIMTW,+07.5,C*3A
$IIRMB,A,0.01,R,,VIDY,,,,,000.20,026,-00.2,V,A*5D
$IIRMC,121448,A,4630.513,N,00636.410,E,00.3,249,011207,,,A*4A
$IIVHW,,,257,M,00.0,N,,*64
$IIVLW,00430,N,002.3,N*55
$IIDPT,030.9,-1.0,*4A
$IIGLL,4630.513,N,00636.410,E,121448,A,A*5A
$IIHDG,257,,,,*57
$IIMTW,+07.5,C*3A
$IIRMC,121448,A,4630.513,N,00636.410,E,00.3,249,011207,,,A*4A
$IIVHW,,,257,M,00.0,N,,*64
$IIVLW,00430,N,002.3,N*55
$IIDPT,030.9,-1.0,*4A
$IIGLL,4630.513,N,00636.410,E,121448,A,A*5A
$IIHDG,257,,,,*57
$IIMTW,+07.0,C*3F
$IIRMB,A,0.01,R,,VIDY,,,,,000.20,026,00.0,V,A*72
$IIRMC,121450,A,4630.513,N,00636.410,E,00.4,249,011207,,,A*44
$IIVHW,,,258,M,00.0,N,,*6B
$IIVLW,00430,N,002.3,N*55
$IIDPT,033.5,-1.0,*45
$IIGLL,4630.513,N,00636.410,E,121450,A,A*53
$IIHDG,258,,,,*58
$IIMTW,+07.0,C*3F
$IIRMC,121450,A,4630.513,N,00636.410,E,00.4,249,011207,,,A*44
$IIVHW,,,258,M,00.0,N,,*6B
$IIVLW,00430,N,002.3,N*55
$IIDPT,033.6,-1.0,*46
$IIGLL,4630.513,N,00636.410,E,121450,A,A*53
$IIHDG,258,,,,*58
$IIMTW,+07.0,C*3F
$IIRMB,A,0.01,R,,VIDY,,,,,000.20,026,-00.3,V,A*5C
$IIRMC,121452,A,4630.513,N,00636.410,E,00.4,247,011207,,,A*48
$IIVHW,,,258,M,00.0,N,,*6B
$IIVLW,00430,N,002.3,N*55
$IIDPT,030.2,-1.0,*41
$IIGLL,4630.513,N,00636.410,E,121452,A,A*51
$IIHDG,258,,,,*58
$IIMTW,+07.0,C*3F
$IIRMC,121452,A,4630.513,N,00636.410,E,00.4,247,011207,,,A*48
$IIVHW,,,258,M,00.0,N,,*6B
$IIVLW,00430,N,002.3,N*55
$IIDPT,032.3,-1.0,*42
$IIGLL,4630.513,N,00636.410,E,121452,A,A*51
$IIHDG,258,,,,*58
$IIMTW,+07.0,C*3F
$IIRMB,A,0.01,R,,VIDY,,,,,000.20,026,00.0,V,A*72
$IIRMC,121454,A,4630.513,N,00636.409,E,00.7,223,011207,,,A*47
$IIVHW,,,257,M,00.0,N,,*64
$IIVLW,00430,N,002.3,N*55
$IIDPT,033.1,-1.0,*41
$IIGLL,4630.513,N,00636.409,E,121454,A,A*5F
$IIHDG,257,,,,*57
$IIMTW,+07.0,C*3F
$IIRMC,121454,A,4630.513,N,00636.409,E,00.7,223,011207,,,A*47
$IIVHW,,,257,M,00.0,N,,*64
$IIVLW,00430,N,002.3,N*55
$IIDPT,032.8,-1.0,*49
$IIGLL,4630.513,N,00636.409,E,121454,A,A*5F
$IIHDG,257,,,,*57
$IIMTW,+07.0,C*3F
$IIRMB,A,0.01,R,,VIDY,,,,,000.20,026,-00.4,V,A*5B
$IIRMC,121456,A,4630.513,N,00636.409,E,00.4,244,011207,,,A*47
$IIVHW,,,257,M,00.0,N,,*64
$IIVLW,00430,N,002.3,N*55
$IIDPT,031.3,-1.0,*41
$IIGLL,4630.513,N,00636.409,E,121456,A,A*5D
$IIHDG,257,,,,*57
$IIMTW,+07.0,C*3F
$IIRMC,121456,A,4630.513,N,00636.409,E,00.4,244,011207,,,A*47
$IIVHW,,,257,M,00.0,N,,*64
$IIVLW,00430,N,002.3,N*55
$IIDPT,032.6,-1.0,*47
$IIGLL,4630.513,N,00636.409,E,121456,A,A*5D
$IIHDG,257,,,,*57
$IIMTW,+07.0,C*3F
$IIRMB,A,0.01,R,,VIDY,,,,,000.20,026,-00.4,V,A*5B
$IIRMC,121458,A,4630.513,N,00636.409,E,00.0,264,011207,,,A*4F
$IIVHW,,,258,M,00.0,N,,*6B
$IIVLW,00430,N,002.3,N*55
$IIDPT,032.6,-1.0,*47
$IIGLL,4630.513,N,00636.409,E,121458,A,A*53
$IIHDG,258,,,,*58
$IIMTW,+07.0,C*3F
$IIRMC,121458,A,4630.513,N,00636.409,E,00.0,264,011207,,,A*4F
$IIVHW,,,258,M,00.0,N,,*6B
$IIVLW,00430,N,002.3,N*55
$IIDPT,031.1,-1.0,*43
$IIGLL,4630.513,N,00636.409,E,121458,A,A*53
$IIHDG,258,,,,*58
$IIMTW,+07.0,C*3F
$IIRMB,A,0.01,R,,VIDY,,,,,000.20,026,00.0,V,A*72
$IIRMC,121500,A,4630.513,N,00636.409,E,00.3,264,011207,,,A*40
$IIVHW,,,257,M,00.0,N,,*64
$IIVLW,00430,N,002.3,N*55
$IIDPT,031.4,-1.0,*46
$IIGLL,4630.513,N,00636.409,E,121500,A,A*5F
$IIHDG,257,,,,*57
$IIMTW,+07.5,C*3A
$IIRMC,121500,A,4630.513,N,00636.409,E,00.3,264,011207,,,A*40
$IIVHW,,,257,M,00.0,N,,*64
$IIVLW,00430,N,002.3,N*55
$IIDPT,031.4,-1.0,*46
$IIGLL,4630.513,N,00636.409,E,121500,A,A*5F
$IIHDG,257,,,,*57
$IIMTW,+07.5,C*3A
$IIRMB,A,0.01,R,,VIDY,,,,,000.20,026,00.0,V,A*72
$IIRMC,121502,A,4630.513,N,00636.408,E,00.0,264,011207,,,A*40
$IIVHW,,,257,M,00.0,N,,*64
$IIVLW,00430,N,002.3,N*55
$IIDPT,032.8,-1.0,*49
$IIGLL,4630.513,N,00636.408,E,121502,A,A*5C
$IIHDG,257,,,,*57
$IIMTW,+07.0,C*3F
$IIRMC,121502,A,4630.513,N,00636.408,E,00.0,264,011207,,,A*40
$IIVHW,,,257,M,00.0,N,,*64
$IIVLW,00430,N,002.3,N*55
$IIDPT,031.6,-1.0,*44
$IIGLL,4630.513,N,00636.408,E,121502,A,A*5C
$IIHDG,257,,,,*57
$IIMTW,+07.0,C*3F
$IIRMB,A,0.01,R,,VIDY,,,,,000.20,026,-00.2,V,A*5D
$IIRMC,121504,A,4630.513,N,00636.408,E,00.3,264,011207,,,A*45
$IIVHW,,,257,M,00.0,N,,*64
$IIVLW,00430,N,002.3,N*55
$IIDPT,031.6,-1.0,*44
$IIGLL,4630.513,N,00636.408,E,121504,A,A*5A
$IIHDG,257,,,,*57
$IIMTW,+07.0,C*3F
$IIRMC,121504,A,4630.513,N,00636.408,E,00.3,264,011207,,,A*45
$IIVHW,,,257,M,00.0,N,,*64
$IIVLW,00430,N,002.3,N*55
$IIDPT,031.8,-1.0,*4A
$IIGLL,4630.513,N,00636.408,E,121504,A,A*5A
$IIHDG,257,,,,*57
$IIMTW,+07.0,C*3F
$IIRMB,A,0.01,R,,VIDY,,,,,000.20,026,-00.2,V,A*5D
$IIRMC,121506,A,4630.513,N,00636.408,E,00.3,264,011207,,,A*47
$IIVHW,,,257,M,00.0,N,,*64
$IIVLW,00430,N,002.3,N*55
$IIDPT,029.9,-1.0,*42
$IIGLL,4630.513,N,00636.408,E,121506,A,A*58
$IIHDG,257,,,,*57
$IIMTW,+07.0,C*3F
$IIRMC,121506,A,4630.513,N,00636.408,E,00.3,264,011207,,,A*47
$IIVHW,,,257,M,00.0,N,,*64
$IIVLW,00430,N,002.3,N*55
$IIDPT,028.8,-1.0,*42
$IIGLL,4630.513,N,00636.408,E,121506,A,A*58
$IIHDG,257,,,,*57
$IIMTW,+07.0,C*3F
$IIRMB,A,0.01,R,,VIDY,,,,,000.20,026,-00.2,V,A*5D
$IIRMC,121508,A,4630.513,N,00636.407,E,00.0,264,011207,,,A*45
$IIVHW,,,257,M,00.0,N,,*64
$IIVLW,00430,N,002.3,N*55
$IIDPT,028.8,-1.0,*42
$IIGLL,4630.513,N,00636.407,E,121508,A,A*59
$IIHDG,257,,,,*57
$IIMTW,+07.5,C*3A
$IIRMC,121508,A,4630.513,N,00636.407,E,00.0,264,011207,,,A*45
$IIVHW,,,256,M,00.0,N,,*65
$IIVLW,00430,N,002.3,N*55
$IIDPT,028.6,-1.0,*4C
$IIGLL,4630.513,N,00636.407,E,121508,A,A*59
$IIHDG,256,,,,*56
$IIMTW,+07.5,C*3A
$IIRMB,A,0.01,R,,VIDY,,,,,000.20,027,-00.2,V,A*5C
$IIRMC,121510,A,4630.513,N,00636.407,E,00.4,264,011207,,,A*48
$IIVHW,,,256,M,00.0,N,,*65
$IIVLW,00430,N,002.3,N*55
$IIDPT,028.6,-1.0,*4C
$IIGLL,4630.513,N,00636.407,E,121510,A,A*50
$IIHDG,256,,,,*56
$IIMTW,+07.5,C*3A
$IIRMC,121510,A,4630.513,N,00636.407,E,00.4,264,011207,,,A*48
$IIVHW,,,257,M,00.0,N,,*64
$IIVLW,00430,N,002.3,N*55
$IIDPT,028.6,-1.0,*4C
$IIGLL,4630.513,N,00636.407,E,121510,A,A*50
$IIHDG,257,,,,*57
$IIMTW,+07.5,C*3A
$IIRMB,A,0.01,R,,VIDY,,,,,000.20,027,-00.2,V,A*5C
$IIRMC,121512,A,4630.512,N,00636.407,E,00.0,264,011207,,,A*4F
$IIVHW,,,256,M,00.0,N,,*65
$IIVLW,00430,N,002.3,N*55
$IIDPT,029.9,-1.0,*42
$IIGLL,4630.512,N,00636.407,E,121512,A,A*53
$IIHDG,256,,,,*56
$IIMTW,+07.5,C*3A
$IIRMC,121514,A,4630.513,N,00636.407,E,00.3,264,011207,,,A*4B
$IIVHW,,,256,M,00.0,N,,*65
$IIVLW,00430,N,002.3,N*55
$IIDPT,029.9,-1.0,*42
$IIGLL,4630.513,N,00636.407,E,121514,A,A*54
$IIHDG,256,,,,*56
$IIMTW,+07.5,C*3A
$IIRMB,A,0.01,R,,VIDY,,,,,000.20,027,-00.2,V,A*5C
$IIRMC,121514,A,4630.513,N,00636.407,E,00.3,264,011207,,,A*4B
$IIVHW,,,256,M,00.0,N,,*65
$IIVLW,00430,N,002.3,N*55
$IIDPT,030.3,-1.0,*40
$IIGLL,4630.513,N,00636.407,E,121514,A,A*54
$IIHDG,256,,,,*56
$IIMTW,+07.5,C*3A
$IIRMC,121516,A,4630.513,N,00636.406,E,00.3,264,011207,,,A*48
$IIVHW,,,257,M,00.0,N,,*64
$IIVLW,00430,N,002.3,N*55
$IIDPT,029.2,-1.0,*49
$IIGLL,4630.513,N,00636.406,E,121516,A,A*57
$IIHDG,257,,,,*57
$IIMTW,+07.5,C*3A
$IIRMB,A,0.01,R,,VIDY,,,,,000.20,027,-00.1,V,A*5F
$IIRMC,121516,A,4630.513,N,00636.406,E,00.3,264,011207,,,A*48
$IIVHW,,,256,M,00.0,N,,*65
$IIVLW,00430,N,002.3,N*55
$IIDPT,029.2,-1.0,*49
$IIGLL,4630.513,N,00636.406,E,121516,A,A*57
$IIHDG,256,,,,*56
$IIMTW,+07.5,C*3A
$IIRMC,121518,A,4630.512,N,00636.406,E,00.3,264,011207,,,A*47
$IIVHW,,,256,M,00.0,N,,*65
$IIVLW,00430,N,002.3,N*55
$IIDPT,029.0,-1.0,*4B
$IIGLL,4630.512,N,00636.406,E,121518,A,A*58
$IIHDG,256,,,,*56
$IIMTW,+07.5,C*3A
$IIRMB,A,0.01,R,,VIDY,,,,,000.20,027,-00.2,V,A*5C
$IIRMC,121518,A,4630.512,N,00636.406,E,00.3,264,011207,,,A*47
$IIVHW,,,256,M,00.0,N,,*65
$IIVLW,00430,N,002.3,N*55
$IIDPT,029.0,-1.0,*4B
$IIGLL,4630.512,N,00636.406,E,121518,A,A*58
$IIHDG,256,,,,*56
$IIMTW,+07.5,C*3A
$IIRMC,121520,A,4630.512,N,00636.406,E,00.0,251,011207,,,A*49
$IIVHW,,,256,M,00.0,N,,*65
$IIVLW,00430,N,002.3,N*55
$IIDPT,029.5,-1.0,*4E
$IIGLL,4630.512,N,00636.406,E,121520,A,A*53
$IIHDG,256,,,,*56
$IIMTW,+07.5,C*3A
$IIRMB,A,0.01,R,,VIDY,,,,,000.20,027,-00.2,V,A*5C
$IIRMC,121520,A,4630.512,N,00636.406,E,00.0,251,011207,,,A*49
$IIVHW,,,257,M,00.0,N,,*64
$IIVLW,00430,N,002.3,N*55
$IIDPT,029.1,-1.0,*4A
$IIGLL,4630.512,N,00636.406,E,121520,A,A*53
$IIHDG,257,,,,*57
$IIMTW,+07.5,C*3A
$IIRMC,121522,A,4630.512,N,00636.405,E,00.0,251,011207,,,A*48
$IIVHW,,,257,M,00.0,N,,*64
$IIVLW,00430,N,002.3,N*55
$IIDPT,029.1,-1.0,*4A
$IIGLL,4630.512,N,00636.405,E,121522,A,A*52
$IIHDG,257,,,,*57
$IIMTW,+07.5,C*3A
$IIRMB,A,0.01,R,,VIDY,,,,,000.20,027,-00.2,V,A*5C
$IIRMC,121522,A,4630.512,N,00636.405,E,00.0,251,011207,,,A*48
$IIVHW,,,256,M,00.0,N,,*65
$IIVLW,00430,N,002.3,N*55
$IIDPT,028.5,-1.0,*4F
$IIGLL,4630.512,N,00636.405,E,121522,A,A*52
$IIHDG,256,,,,*56
$IIMTW,+07.5,C*3A
$IIRMC,121524,A,4630.512,N,00636.405,E,00.5,251,011207,,,A*4B
$IIVHW,,,256,M,00.0,N,,*65
$IIVLW,00430,N,002.3,N*55
$IIDPT,028.5,-1.0,*4F
$IIGLL,4630.512,N,00636.405,E,121524,A,A*54
$IIHDG,256,,,,*56
$IIMTW,+07.5,C*3A
$IIRMB,A,0.01,R,,VIDY,,,,,000.20,027,00.0,V,A*73
$IIRMC,121524,A,4630.512,N,00636.405,E,00.5,251,011207,,,A*4B
$IIVHW,,,256,M,00.0,N,,*65
$IIVLW,00430,N,002.3,N*55
$IIDPT,028.5,-1.0,*4F
$IIGLL,4630.512,N,00636.405,E,121524,A,A*54
$IIHDG,256,,,,*56
$IIMTW,+07.5,C*3A
$IIRMC,121524,A,4630.512,N,00636.405,E,00.5,251,011207,,,A*4B
$IIVHW,,,256,M,00.0,N,,*65
$IIVLW,00430,N,002.3,N*55
$IIDPT,028.5,-1.0,*4F
$IIGLL,4630.512,N,00636.405,E,121524,A,A*54
$IIHDG,256,,,,*56
$IIMTW,+07.5,C*3A
$IIRMB,A,0.01,R,,VIDY,,,,,000.20,027,00.0,V,A*73
$IIRMC,121526,A,4630.512,N,00636.405,E,00.5,251,011207,,,A*49
$IIVHW,,,256,M,00.0,N,,*65
$IIVLW,00430,N,002.3,N*55
$IIDPT,029.0,-1.0,*4B
$IIGLL,4630.512,N,00636.405,E,121526,A,A*56
$IIHDG,256,,,,*56
$IIMTW,+07.5,C*3A
$IIRMC,121528,A,4630.512,N,00636.404,E,00.3,251,011207,,,A*40
$IIVHW,,,257,M,00.0,N,,*64
$IIVLW,00430,N,002.3,N*55
$IIDPT,029.0,-1.0,*4B
$IIGLL,4630.512,N,00636.404,E,121528,A,A*59
$IIHDG,257,,,,*57
$IIMTW,+07.5,C*3A
$IIRMB,A,0.01,R,,VIDY,,,,,000.20,027,-00.3,V,A*5D
$IIRMC,121528,A,4630.512,N,00636.404,E,00.3,251,011207,,,A*40
$IIVHW,,,257,M,00.0,N,,*64
$IIVLW,00430,N,002.3,N*55
$IIDPT,029.4,-1.0,*4F
$IIGLL,4630.512,N,00636.404,E,121528,A,A*59
$IIHDG,257,,,,*57
$IIMTW,+07.5,C*3A
$IIRMC,121530,A,4630.512,N,00636.404,E,00.3,251,011207,,,A*49
$IIVHW,,,256,M,00.0,N,,*65
$IIVLW,00430,N,002.3,N*55
$IIDPT,029.7,-1.0,*4C
$IIGLL,4630.512,N,00636.404,E,121530,A,A*50
$IIHDG,256,,,,*56
$IIMTW,+07.5,C*3A
$IIRMB,A,0.01,R,,VIDY,,,,,000.20,027,-00.2,V,A*5C
$IIRMC,121530,A,4630.512,N,00636.404,E,00.3,251,011207,,,A*49
$IIVHW,,,256,M,00.0,N,,*65
$IIVLW,00430,N,002.3,N*55
$IIDPT,029.6,-1.0,*4D
$IIGLL,4630.512,N,00636.404,E,121530,A,A*50
$IIHDG,256,,,,*56
$IIMTW,+07.5,C*3A
$IIRMC,121532,A,4630.512,N,00636.404,E,00.0,251,011207,,,A*48
$IIVHW,,,256,M,00.0,N,,*65
$IIVLW,00430,N,002.3,N*55
$IIDPT,029.7,-1.0,*4C
$IIGLL,4630.512,N,00636.404,E,121532,A,A*52
$IIHDG,256,,,,*56
$IIMTW,+07.5,C*3A
$IIRMB,A,0.01,R,,VIDY,,,,,000.20,027,-00.2,V,A*5C
$IIRMC,121532,A,4630.512,N,00636.404,E,00.0,251,011207,,,A*48
$IIVHW,,,257,M,00.0,N,,*64
$IIVLW,00430,N,002.3,N*55
$IIDPT,029.7,-1.0,*4C
$IIGLL,4630.512,N,00636.404,E,121532,A,A*52
$IIHDG,257,,,,*57
$IIMTW,+07.5,C*3A
$IIRMC,121534,A,4630.512,N,00636.404,E,00.3,251,011207,,,A*4D
$IIVHW,,,257,M,00.0,N,,*64
$IIVLW,00430,N,002.3,N*55
$IIDPT,030.4,-1.0,*47
$IIGLL,4630.512,N,00636.404,E,121534,A,A*54
$IIHDG,257,,,,*57
$IIMTW,+07.5,C*3A
$IIRMB,A,0.01,R,,VIDY,,,,,000.20,027,00.0,V,A*73
$IIRMC,121534,A,4630.512,N,00636.404,E,00.3,251,011207,,,A*4D
$IIVHW,,,257,M,00.0,N,,*64
$IIVLW,00430,N,002.3,N*55
$IIDPT,031.2,-1.0,*40
$IIGLL,4630.512,N,00636.404,E,121534,A,A*54
$IIHDG,257,,,,*57
$IIMTW,+07.5,C*3A
$IIRMC,121536,A,4630.512,N,00636.403,E,00.3,259,011207,,,A*40
$IIVHW,,,257,M,00.0,N,,*64
$IIVLW,00430,N,002.3,N*55
$IIDPT,031.2,-1.0,*40
$IIGLL,4630.512,N,00636.403,E,121536,A,A*51
$IIHDG,257,,,,*57
$IIMTW,+07.5,C*3A
$IIRMB,A,0.01,R,,VIDY,,,,,000.20,027,-00.2,V,A*5C
$IIRMC,121536,A,4630.512,N,00636.403,E,00.3,259,011207,,,A*40
$IIVHW,,,256,M,00.0,N,,*65
$IIVLW,00430,N,002.3,N*55
$IIDPT,031.2,-1.0,*40
$IIGLL,4630.512,N,00636.403,E,121536,A,A*51
$IIHDG,256,,,,*56
$IIMTW,+07.5,C*3A
$IIRMC,121538,A,4630.512,N,00636.403,E,00.3,259,011207,,,A*4E
$IIVHW,,,256,M,00.0,N,,*65
$IIVLW,00430,N,002.3,N*55
$IIDPT,030.2,-1.0,*41
$IIGLL,4630.512,N,00636.403,E,121538,A,A*5F
$IIHDG,256,,,,*56
$IIMTW,+07.5,C*3A
$IIRMB,A,0.01,R,,VIDY,,,,,000.20,027,-00.2,V,A*5C
$IIRMC,121538,A,4630.512,N,00636.403,E,00.3,259,011207,,,A*4E
$IIVHW,,,256,M,00.0,N,,*65
$IIVLW,00430,N,002.3,N*55
$IIDPT,029.2,-1.0,*49
$IIGLL,4630.512,N,00636.403,E,121538,A,A*5F
$IIHDG,256,,,,*56
$IIMTW,+07.5,C*3A
$IIRMC,121540,A,4630.512,N,00636.403,E,00.0,259,011207,,,A*42
$IIVHW,,,256,M,00.0,N,,*65
$IIVLW,00430,N,002.3,N*55
$IIDPT,029.2,-1.0,*49
$IIGLL,4630.512,N,00636.403,E,121540,A,A*50
$IIHDG,256,,,,*56
$IIMTW,+07.5,C*3A
$IIRMB,A,0.01,R,,VIDY,,,,,000.20,027,-00.2,V,A*5C
$IIRMC,121540,A,4630.512,N,00636.403,E,00.0,259,011207,,,A*42
$IIVHW,,,257,M,00.0,N,,*64
$IIVLW,00430,N,002.3,N*55
$IIDPT,028.8,-1.0,*42
$IIGLL,4630.512,N,00636.403,E,121540,A,A*50
$IIHDG,257,,,,*57
$IIMTW,+07.5,C*3A
$IIRMC,121542,A,4630.512,N,00636.403,E,00.3,259,011207,,,A*43
$IIVHW,,,257,M,00.0,N,,*64
$IIVLW,00430,N,002.3,N*55
$IIDPT,028.2,-1.0,*48
$IIGLL,4630.512,N,00636.403,E,121542,A,A*52
$IIHDG,257,,,,*57
$IIMTW,+07.5,C*3A
$IIRMB,A,0.01,R,,VIDY,,,,,000.20,027,-00.1,V,A*5F
$IIRMC,121542,A,4630.512,N,00636.403,E,00.3,259,011207,,,A*43
$IIVHW,,,257,M,00.0,N,,*64
$IIVLW,00430,N,002.3,N*55
$IIDPT,028.2,-1.0,*48
$IIGLL,4630.512,N,00636.403,E,121542,A,A*52
$IIHDG,257,,,,*57
$IIMTW,+07.5,C*3A
$IIRMC,121544,A,4630.512,N,00636.402,E,00.3,259,011207,,,A*44
$IIVHW,,,257,M,00.0,N,,*64
$IIVLW,00430,N,002.3,N*55
$IIDPT,028.2,-1.0,*48
$IIGLL,4630.512,N,00636.402,E,121544,A,A*55
$IIHDG,257,,,,*57
$IIMTW,+07.5,C*3A
$IIRMB,A,0.01,R,,VIDY,,,,,000.20,027,-00.1,V,A*5F
$IIRMC,121544,A,4630.512,N,00636.402,E,00.3,259,011207,,,A*44
$IIVHW,,,257,M,00.0,N,,*64
$IIVLW,00430,N,002.3,N*55
$IIDPT,032.1,-1.0,*40
$IIGLL,4630.512,N,00636.402,E,121544,A,A*55
$IIHDG,257,,,,*57
$IIMTW,+07.5,C*3A
$IIRMC,121544,A,4630.512,N,00636.402,E,00.3,259,011207,,,A*44
$IIVHW,,,256,M,00.0,N,,*65
$IIVLW,00430,N,002.3,N*55
$IIDPT,029.5,-1.0,*4E
$IIGLL,4630.512,N,00636.402,E,121544,A,A*55
$IIHDG,256,,,,*56
$IIMTW,+07.5,C*3A
$IIRMB,A,0.01,R,,VIDY,,,,,000.20,027,-00.2,V,A*5C
$IIRMC,121546,A,4630.512,N,00636.402,E,00.3,259,011207,,,A*46
$IIVHW,,,256,M,00.0,N,,*65
$IIVLW,00430,N,002.3,N*55
$IIDPT,030.5,-1.0,*46
$IIGLL,4630.512,N,00636.402,E,121546,A,A*57
$IIHDG,256,,,,*56
$IIMTW,+07.5,C*3A
$IIRMC,121548,A,4630.512,N,00636.402,E,00.0,259,011207,,,A*4B
$IIVHW,,,257,M,00.0,N,,*64
$IIVLW,00430,N,002.3,N*55
$IIDPT,030.5,-1.0,*46
$IIGLL,4630.512,N,00636.402,E,121548,A,A*59
$IIHDG,257,,,,*57
$IIMTW,+07.5,C*3A
$IIRMB,A,0.01,R,,VIDY,,,,,000.20,027,-00.2,V,A*5C
$IIRMC,121548,A,4630.512,N,00636.402,E,00.0,259,011207,,,A*4B
$IIVHW,,,257,M,00.0,N,,*64
$IIVLW,00430,N,002.3,N*55
$IIDPT,033.3,-1.0,*43
$IIGLL,4630.512,N,00636.402,E,121548,A,A*59
$IIHDG,257,,,,*57
$IIMTW,+07.5,C*3A
$IIRMC,121550,A,4630.511,N,00636.402,E,00.0,259,011207,,,A*41
$IIVHW,,,257,M,00.0,N,,*64
$IIVLW,00430,N,002.3,N*55
$IIDPT,030.7,-1.0,*44
$IIGLL,4630.511,N,00636.402,E,121550,A,A*53
$IIHDG,257,,,,*57
$IIMTW,+07.0,C*3F
$IIRMB,A,0.01,R,,VIDY,,,,,000.20,027,-00.2,V,A*5C
$IIRMC,121550,A,4630.511,N,00636.402,E,00.0,259,011207,,,A*41
$IIVHW,,,257,M,00.0,N,,*64
$IIVLW,00430,N,002.3,N*55
$IIDPT,030.1,-1.0,*42
$IIGLL,4630.511,N,00636.402,E,121550,A,A*53
$IIHDG,257,,,,*57
$IIMTW,+07.0,C*3F
$IIRMC,121552,A,4630.511,N,00636.402,E,00.4,259,011207,,,A*47
$IIVHW,,,257,M,00.0,N,,*64
$IIVLW,00430,N,002.3,N*55
$IIDPT,029.9,-1.0,*42
$IIGLL,4630.511,N,00636.402,E,121552,A,A*51
$IIHDG,257,,,,*57
$IIMTW,+07.0,C*3F
$IIRMB,A,0.01,R,,VIDY,,,,,000.20,027,00.0,V,A*73
$IIRMC,121552,A,4630.511,N,00636.402,E,00.4,259,011207,,,A*47
$IIVHW,,,257,M,00.0,N,,*64
$IIVLW,00430,N,002.3,N*55
$IIDPT,029.9,-1.0,*42
$IIGLL,4630.511,N,00636.402,E,121552,A,A*51
$IIHDG,257,,,,*57
$IIMTW,+07.0,C*3F
$IIRMC,121554,A,4630.511,N,00636.401,E,00.0,233,011207,,,A*4A
$IIVHW,,,257,M,00.0,N,,*64
$IIVLW,00430,N,002.3,N*55
$IIDPT,031.4,-1.0,*46
$IIGLL,4630.511,N,00636.401,E,121554,A,A*54
$IIHDG,257,,,,*57
$IIMTW,+07.0,C*3F
$IIRMB,A,0.01,R,,VIDY,,,,,000.20,027,00.0,V,A*73
$IIRMC,121554,A,4630.511,N,00636.401,E,00.0,233,011207,,,A*4A
$IIVHW,,,257,M,00.0,N,,*64
$IIVLW,00430,N,002.3,N*55
$IIDPT,029.9,-1.0,*42
$IIGLL,4630.511,N,00636.401,E,121554,A,A*54
$IIHDG,257,,,,*57
$IIMTW,+07.0,C*3F
$IIRMC,121556,A,4630.511,N,00636.401,E,00.0,233,011207,,,A*48
$IIVHW,,,257,M,00.0,N,,*64
$IIVLW,00430,N,002.3,N*55
$IIDPT,029.9,-1.0,*42
$IIGLL,4630.511,N,00636.401,E,121556,A,A*56
$IIHDG,257,,,,*57
$IIMTW,+07.5,C*3A
$IIRMB,A,0.01,R,,VIDY,,,,,000.20,027,00.0,V,A*73
$IIRMC,121556,A,4630.511,N,00636.401,E,00.0,233,011207,,,A*48
$IIVHW,,,257,M,00.0,N,,*64
$IIVLW,00430,N,002.3,N*55
$IIDPT,031.4,-1.0,*46
$IIGLL,4630.511,N,00636.401,E,121556,A,A*56
$IIHDG,257,,,,*57
$IIMTW,+07.5,C*3A
$IIRMC,121558,A,4630.511,N,00636.401,E,00.0,233,011207,,,A*46
$IIVHW,,,257,M,00.0,N,,*64
$IIVLW,00430,N,002.3,N*55
$IIDPT,031.1,-1.0,*43
$IIGLL,4630.511,N,00636.401,E,121558,A,A*58
$IIHDG,257,,,,*57
$IIMTW,+07.5,C*3A
$IIRMB,A,0.01,R,,VIDY,,,,,000.20,027,,V,A*6D
$IIRMC,121558,A,4630.511,N,00636.401,E,00.0,233,011207,,,A*46
$IIVHW,,,257,M,00.0,N,,*64
$IIVLW,00430,N,002.3,N*55
$IIDPT,028.9,-1.0,*43
$IIGLL,4630.511,N,00636.401,E,121558,A,A*58
$IIHDG,257,,,,*57
$IIMTW,+07.5,C*3A
$IIRMC,121600,A,4630.511,N,00636.401,E,00.3,233,011207,,,A*4B
$IIVHW,,,257,M,00.0,N,,*64
$IIVLW,00430,N,002.3,N*55
$IIDPT,028.9,-1.0,*43
$IIGLL,4630.511,N,00636.401,E,121600,A,A*56
$IIHDG,257,,,,*57
$IIMTW,+07.5,C*3A
$IIRMB,A,0.01,R,,VIDY,,,,,000.20,027,00.0,V,A*73
$IIRMC,121600,A,4630.511,N,00636.401,E,00.3,233,011207,,,A*4B
$IIVHW,,,257,M,00.0,N,,*64
$IIVLW,00430,N,002.3,N*55
$IIDPT,029.2,-1.0,*49
$IIGLL,4630.511,N,00636.401,E,121600,A,A*56
$IIHDG,257,,,,*57
$IIMTW,+07.5,C*3A
$IIRMC,121602,A,4630.511,N,00636.400,E,00.0,233,011207,,,A*4B
$IIVHW,,,257,M,00.0,N,,*64
$IIVLW,00430,N,002.3,N*55
