$IIMWV,253,T,05.0,N,A*14
$IIRMB,A,0.00,L,,YVOI,,,,,016.10,241,04.0,V,A*65
$IIRMC,164020,A,4629.919,N,00639.938,E,04.0,252,200808,,,A*4D
$IIVHW,,,249,M,03.5,N,,*6D
$IIVWR,065,L,05.4,N,,,,*7D
$IIDPT,056.6,-1.0,*45
$IIGLL,4629.919,N,00639.938,E,164020,A,A*57
$IIHDG,249,,,,*58
$IIMTW,+21.5,C*3E
$IIMWV,295,R,05.4,N,A*1C
$IIMWV,254,T,05.0,N,A*13
$IIRMB,A,0.00,L,,YVOI,,,,,016.10,241,04.0,V,A*65
$IIRMC,164022,A,4629.918,N,00639.935,E,04.0,253,200808,,,A*42
$IIVHW,,,249,M,03.6,N,,*6E
$IIVWR,065,L,05.4,N,,,,*7D
$IIDPT,041.5,-1.0,*40
$IIGLL,4629.917,N,00639.931,E,164024,A,A*54
$IIHDG,249,,,,*58
$IIMTW,+21.5,C*3E
$IIMWV,295,R,05.2,N,A*1A
$IIMWV,254,T,05.0,N,A*13
$IIRMB,A,0.00,L,,YVOI,,,,,016.09,241,03.9,V,A*63
$IIRMC,164024,A,4629.917,N,00639.931,E,04.0,254,200808,,,A*48
$IIVHW,,,249,M,03.6,N,,*6E
$IIVWR,067,L,05.3,N,,,,*78
$IIDPT,034.4,-1.0,*43
$IIGLL,4629.917,N,00639.931,E,164024,A,A*54
$IIHDG,249,,,,*58
$IIMTW,+21.0,C*3B
$IIMWV,293,R,05.3,N,A*1D
$IIMWV,252,T,04.9,N,A*1D
$IIRMC,164024,A,4629.917,N,00639.931,E,04.0,254,200808,,,A*48
$IIVHW,,,249,M,03.6,N,,*6E
$IIVWR,065,L,05.3,N,,,,*7A
$IIDPT,034.4,-1.0,*43
$IIGLL,4629.916,N,00639.928,E,164026,A,A*5F
$IIHDG,249,,,,*58
$IIMTW,+21.0,C*3B
$IIMWV,295,R,05.3,N,A*1B
$IIMWV,252,T,05.0,N,A*15
$IIRMB,A,0.00,L,,YVOI,,,,,016.09,241,04.0,V,A*6D
$IIRMC,164026,A,4629.916,N,00639.928,E,04.3,254,200808,,,A*40
$IIVHW,,,250,M,03.6,N,,*66
$IIVWR,065,L,05.6,N,,,,*7F
$IIDPT,043.6,-1.0,*41
$IIGLL,4629.916,N,00639.928,E,164026,A,A*5F
$IIHDG,250,,,,*50
$IIMTW,+21.0,C*3B
$IIMWV,295,R,05.6,N,A*1E
$IIMWV,255,T,05.1,N,A*13
$IIRMB,A,0.00,L,,YVOI,,,,,016.09,241,04.2,V,A*6F
$IIRMC,164028,A,4629.915,N,00639.925,E,04.3,254,200808,,,A*40
$IIVHW,,,250,M,03.6,N,,*66
$IIVWR,067,L,05.6,N,,,,*7D
$IIDPT,043.6,-1.0,*41
$IIGLL,4629.915,N,00639.925,E,164028,A,A*5F
$IIHDG,250,,,,*50
$IIMTW,+21.0,C*3B
$IIMWV,295,R,06.0,N,A*1B
$IIMWV,254,T,05.3,N,A*10
$IIRMC,164028,A,4629.915,N,00639.925,E,04.3,254,200808,,,A*40
$IIVHW,,,250,M,03.6,N,,*66
$IIVWR,065,L,06.0,N,,,,*7A
$IIDPT,043.6,-1.0,*41
$IIGLL,4629.915,N,00639.921,E,164030,A,A*52
$IIHDG,250,,,,*50
$IIMTW,+21.0,C*3B
$IIMWV,294,R,05.8,N,A*11
$IIMWV,258,T,05.5,N,A*1A
$IIRMB,A,0.00,L,,YVOI,,,,,016.09,241,04.2,V,A*6F
$IIRMC,164030,A,4629.915,N,00639.921,E,04.3,254,200808,,,A*4D
$IIVHW,,,250,M,03.6,N,,*66
$IIVWR,065,L,05.5,N,,,,*7C
$IIDPT,043.6,-1.0,*41
$IIGLL,4629.915,N,00639.921,E,164030,A,A*52
$IIHDG,250,,,,*50
$IIMTW,+21.0,C*3B
$IIMWV,295,R,05.5,N,A*1D
$IIMWV,255,T,05.3,N,A*11
$IIRMC,164030,A,4629.915,N,00639.921,E,04.3,254,200808,,,A*4D
$IIVHW,,,250,M,03.6,N,,*66
$IIVWR,066,L,05.5,N,,,,*7F
$IIDPT,010.3,-1.0,*42
$IIGLL,4629.929,N,00639.981,E,164032,A,A*55
$IIHDG,250,,,,*50
$IIMTW,+18.0,C*31
$IIMWV,294,R,05.5,N,A*1C
$IIMWV,254,T,05.1,N,A*12
$IIRMB,A,0.00,L,,YVOI,,,,,016.08,241,04.2,V,A*6E
$IIRMC,164032,A,4629.929,N,00639.981,E,04.2,253,200808,,,A*4C
$IIVHW,,,250,M,03.6,N,,*66
$IIVWR,066,L,05.4,N,,,,*7E
$IIDPT,010.3,-1.0,*42
$IIGLL,4629.929,N,00639.981,E,164032,A,A*55
$IIHDG,250,,,,*50
$IIMTW,+20.0,C*3A
$IIMWV,294,R,05.4,N,A*1D
$IIMWV,253,T,05.1,N,A*15
$IIRMB,A,0.00,L,,YVOI,,,,,016.13,241,04.2,V,A*64
$IIRMC,164034,A,4629.928,N,00639.978,E,04.2,253,200808,,,A*4D
$IIVHW,,,250,M,03.6,N,,*66
$IIVWR,066,L,05.3,N,,,,*79
$IIDPT,010.2,-1.0,*43
$IIGLL,4629.928,N,00639.978,E,164034,A,A*54
$IIHDG,250,,,,*50
$IIMTW,+20.5,C*3F
$IIMWV,293,R,05.3,N,A*1D
$IIMWV,252,T,05.0,N,A*15
$IIRMC,164034,A,4629.928,N,00639.978,E,04.2,253,200808,,,A*4D
$IIVHW,,,250,M,03.6,N,,*66
$IIVWR,067,L,05.3,N,,,,*78
$IIDPT,010.2,-1.0,*43
$IIGLL,4629.929,N,00639.975,E,164036,A,A*5A
$IIHDG,251,,,,*51
$IIMTW,+18.0,C*31
$IIMWV,293,R,05.3,N,A*1D
$IIMWV,250,T,05.0,N,A*17
$IIRMB,A,0.00,L,,YVOI,,,,,016.13,241,04.1,V,A*67
$IIRMC,164036,A,4629.929,N,00639.975,E,04.0,253,200808,,,A*41
$IIVHW,,,251,M,03.6,N,,*67
$IIVWR,068,L,05.2,N,,,,*76
$IIDPT,028.0,-1.0,*4A
$IIGLL,4629.929,N,00639.975,E,164036,A,A*5A
$IIHDG,252,,,,*52
$IIMTW,+20.5,C*3F
$IIMWV,292,R,05.2,N,A*1D
$IIMWV,250,T,05.0,N,A*17
$IIRMC,164036,A,4629.929,N,00639.975,E,04.0,253,200808,,,A*41
$IIVHW,,,251,M,03.6,N,,*67
$IIVWR,068,L,05.1,N,,,,*75
$IIDPT,028.0,-1.0,*4A
$IIGLL,4629.931,N,00639.973,E,164038,A,A*5B
$IIHDG,251,,,,*51
$IIMTW,+18.0,C*31
$IIMWV,292,R,05.1,N,A*1E
$IIMWV,249,T,05.1,N,A*1E
$IIRMB,A,0.00,L,,YVOI,,,,,016.13,241,04.6,V,A*60
$IIRMC,164038,A,4629.931,N,00639.973,E,04.1,253,200808,,,A*41
$IIVHW,,,251,M,03.6,N,,*67
$IIVWR,069,L,05.1,N,,,,*74
$IIDPT,028.0,-1.0,*4A
$IIGLL,4629.931,N,00639.973,E,164038,A,A*5B
$IIHDG,251,,,,*51
$IIMTW,+19.5,C*35
$IIMWV,291,R,05.1,N,A*1D
$IIMWV,248,T,05.0,N,A*1E
$IIRMB,A,0.00,L,,YVOI,,,,,016.12,241,03.8,V,A*68
$IIRMC,164040,A,4629.928,N,00639.968,E,04.0,253,200808,,,A*4D
$IIVHW,,,251,M,03.6,N,,*67
$IIVWR,069,L,05.1,N,,,,*74
$IIDPT,028.0,-1.0,*4A
$IIGLL,4629.928,N,00639.968,E,164040,A,A*56
$IIHDG,253,,,,*53
$IIMTW,+20.5,C*3F
$IIMWV,291,R,05.1,N,A*1D
$IIMWV,248,T,05.0,N,A*1E
$IIRMC,164040,A,4629.928,N,00639.968,E,04.0,253,200808,,,A*4D
$IIVHW,,,253,M,03.6,N,,*65
$IIVWR,069,L,05.1,N,,,,*74
$IIDPT,028.0,-1.0,*4A
$IIGLL,4629.927,N,00639.965,E,164042,A,A*56
$IIHDG,253,,,,*53
$IIMTW,+20.5,C*3F
$IIMWV,291,R,05.1,N,A*1D
$IIMWV,248,T,05.0,N,A*1E
$IIRMB,A,0.00,L,,YVOI,,,,,016.12,241,03.8,V,A*68
$IIRMC,164042,A,4629.927,N,00639.965,E,04.0,255,200808,,,A*4B
$IIVHW,,,253,M,03.6,N,,*65
$IIVWR,069,L,05.2,N,,,,*77
$IIDPT,028.0,-1.0,*4A
$IIGLL,4629.927,N,00639.965,E,164042,A,A*56
$IIHDG,254,,,,*54
$IIMTW,+20.5,C*3F
$IIMWV,291,R,05.2,N,A*1E
$IIMWV,248,T,05.0,N,A*1E
$IIRMC,164042,A,4629.927,N,00639.965,E,04.0,255,200808,,,A*4B
$IIVHW,,,255,M,03.6,N,,*63
$IIVWR,069,L,05.1,N,,,,*74
$IIDPT,018.0,-1.0,*49
$IIGLL,4629.927,N,00639.962,E,164044,A,A*57
$IIHDG,255,,,,*55
$IIMTW,+20.5,C*3F
$IIMWV,291,R,05.1,N,A*1D
$IIMWV,249,T,05.1,N,A*1E
$IIRMB,A,0.00,L,,YVOI,,,,,016.12,241,03.8,V,A*68
$IIRMC,164044,A,4629.927,N,00639.962,E,04.0,256,200808,,,A*49
$IIVHW,,,255,M,03.6,N,,*63
$IIVWR,071,L,05.2,N,,,,*7E
$IIDPT,022.5,-1.0,*45
$IIGLL,4629.927,N,00639.962,E,164044,A,A*57
$IIHDG,255,,,,*55
$IIMTW,+20.5,C*3F
$IIMWV,289,R,05.2,N,A*17
$IIMWV,248,T,05.2,N,A*1C
$IIRMB,A,0.00,L,,YVOI,,,,,016.12,241,03.8,V,A*68
$IIRMC,164046,A,4629.930,N,00639.962,E,03.9,258,200808,,,A*4D
$IIVHW,,,258,M,03.6,N,,*6E
$IIVWR,070,L,05.6,N,,,,*7B
$IIDPT,022.5,-1.0,*45
$IIGLL,4629.930,N,00639.962,E,164046,A,A*53
$IIHDG,256,,,,*56
$IIMTW,+20.5,C*3F
$IIMWV,288,R,05.5,N,A*11
$IIMWV,251,T,05.5,N,A*13
$IIRMC,164046,A,4629.930,N,00639.962,E,03.9,258,200808,,,A*4D
$IIVHW,,,256,M,03.6,N,,*60
$IIVWR,072,L,05.5,N,,,,*7A
$IIDPT,022.5,-1.0,*45
$IIGLL,4629.928,N,00639.958,E,164048,A,A*5D
$IIHDG,258,,,,*58
$IIMTW,+20.5,C*3F
$IIMWV,290,R,05.5,N,A*18
$IIMWV,249,T,05.5,N,A*1A
$IIRMB,A,0.00,L,,YVOI,,,,,016.11,241,03.8,V,A*6B
$IIRMC,164048,A,4629.928,N,00639.958,E,04.0,257,200808,,,A*42
$IIVHW,,,258,M,03.6,N,,*6E
$IIVWR,068,L,05.4,N,,,,*70
$IIDPT,010.4,-1.0,*45
$IIGLL,4629.928,N,00639.958,E,164048,A,A*5D
$IIHDG,258,,,,*58
$IIMTW,+20.5,C*3F
$IIMWV,292,R,05.4,N,A*1B
$IIMWV,250,T,05.4,N,A*13
$IIRMC,164048,A,4629.928,N,00639.958,E,04.0,257,200808,,,A*42
$IIVHW,,,258,M,03.6,N,,*6E
$IIVWR,067,L,05.4,N,,,,*7F
$IIDPT,010.4,-1.0,*45
$IIGLL,4629.927,N,00639.954,E,164050,A,A*57
$IIHDG,258,,,,*58
$IIMTW,+20.5,C*3F
$IIMWV,293,R,05.4,N,A*1A
$IIMWV,251,T,05.2,N,A*14
$IIRMB,A,0.01,L,,YVOI,,,,,016.11,241,03.8,V,A*6A
$IIRMC,164050,A,4629.927,N,00639.954,E,03.9,259,200808,,,A*48
$IIVHW,,,258,M,03.6,N,,*6E
$IIVWR,066,L,05.2,N,,,,*78
$IIDPT,010.4,-1.0,*45
$IIGLL,4629.927,N,00639.954,E,164050,A,A*57
$IIHDG,258,,,,*58
$IIMTW,+20.5,C*3F
$IIMWV,294,R,05.2,N,A*1B
$IIMWV,252,T,04.9,N,A*1D
$IIRMB,A,0.01,L,,YVOI,,,,,016.11,241,03.7,V,A*65
$IIRMC,164052,A,4629.927,N,00639.951,E,04.0,260,200808,,,A*4B
$IIVHW,,,258,M,03.6,N,,*6E
$IIVWR,068,L,05.1,N,,,,*75
$IIDPT,010.4,-1.0,*45
$IIGLL,4629.927,N,00639.951,E,164052,A,A*50
$IIHDG,259,,,,*59
$IIMTW,+20.5,C*3F
$IIMWV,294,R,05.0,N,A*19
$IIMWV,249,T,05.0,N,A*1F
$IIRMC,164052,A,4629.927,N,00639.951,E,04.0,260,200808,,,A*4B
$IIVHW,,,259,M,03.6,N,,*6F
$IIVWR,066,L,05.0,N,,,,*7A
$IIDPT,040.4,-1.0,*40
$IIGLL,4629.926,N,00639.948,E,164054,A,A*5F
$IIHDG,259,,,,*59
$IIMTW,+18.0,C*31
$IIMWV,295,R,05.0,N,A*18
$IIMWV,250,T,04.7,N,A*11
$IIRMB,A,0.01,L,,YVOI,,,,,016.11,241,03.8,V,A*6A
$IIRMC,164054,A,4629.926,N,00639.948,E,03.9,260,200808,,,A*4A
$IIVHW,,,259,M,03.6,N,,*6F
$IIVWR,066,L,05.0,N,,,,*7A
$IIDPT,072.4,-1.0,*41
$IIGLL,4629.926,N,00639.948,E,164054,A,A*5F
$IIHDG,260,,,,*53
$IIMTW,+20.5,C*3F
$IIMWV,294,R,05.0,N,A*19
$IIMWV,252,T,04.7,N,A*13
$IIRMC,164054,A,4629.926,N,00639.948,E,03.9,260,200808,,,A*4A
$IIVHW,,,260,M,03.6,N,,*65
$IIVWR,066,L,04.9,N,,,,*72
$IIDPT,072.4,-1.0,*41
$IIGLL,4629.926,N,00639.945,E,164056,A,A*50
$IIHDG,260,,,,*53
$IIMTW,+20.5,C*3F
$IIMWV,294,R,04.9,N,A*11
$IIMWV,250,T,04.7,N,A*11
$IIRMB,A,0.01,L,,YVOI,,,,,016.11,241,03.6,V,A*64
$IIRMC,164056,A,4629.926,N,00639.945,E,03.9,260,200808,,,A*45
$IIVHW,,,260,M,03.6,N,,*65
$IIVWR,068,L,04.9,N,,,,*7C
$IIDPT,072.4,-1.0,*41
$IIGLL,4629.926,N,00639.945,E,164056,A,A*50
$IIHDG,260,,,,*53
$IIMTW,+20.5,C*3F
$IIMWV,292,R,04.9,N,A*17
$IIMWV,248,T,04.8,N,A*17
$IIRMB,A,0.01,L,,YVOI,,,,,016.10,241,03.7,V,A*64
$IIRMC,164058,A,4629.925,N,00639.941,E,03.9,262,200808,,,A*4E
$IIVHW,,,261,M,03.6,N,,*64
$IIVWR,066,L,05.0,N,,,,*7A
$IIDPT,072.4,-1.0,*41
$IIGLL,4629.925,N,00639.941,E,164058,A,A*59
$IIHDG,261,,,,*52
$IIMTW,+20.5,C*3F
$IIMWV,291,R,05.0,N,A*1C
$IIMWV,250,T,04.7,N,A*11
$IIRMC,164058,A,4629.925,N,00639.941,E,03.9,262,200808,,,A*4E
$IIVHW,,,261,M,03.6,N,,*64
$IIVWR,069,L,05.0,N,,,,*75
$IIDPT,072.4,-1.0,*41
$IIGLL,4629.925,N,00639.938,E,164100,A,A*5B
$IIHDG,261,,,,*52
$IIMTW,+20.5,C*3F
$IIMWV,294,R,04.9,N,A*11
$IIMWV,249,T,04.9,N,A*17
$IIRMB,A,0.01,L,,YVOI,,,,,016.10,241,04.0,V,A*64
$IIRMC,164100,A,4629.925,N,00639.938,E,04.2,253,200808,,,A*42
$IIVHW,,,261,M,03.5,N,,*67
$IIVWR,065,L,05.0,N,,,,*79
$IIDPT,030.4,-1.0,*47
$IIGLL,4629.925,N,00639.938,E,164100,A,A*5B
$IIHDG,261,,,,*52
$IIMTW,+21.0,C*3B
$IIMWV,295,R,05.0,N,A*18
$IIMWV,250,T,04.6,N,A*10
$IIRMC,164100,A,4629.925,N,00639.938,E,04.2,253,200808,,,A*42
$IIVHW,,,259,M,03.5,N,,*6C
$IIVWR,069,L,04.9,N,,,,*7D
$IIDPT,038.1,-1.0,*4A
$IIGLL,4629.924,N,00639.935,E,164102,A,A*55
$IIHDG,259,,,,*59
$IIMTW,+21.0,C*3B
$IIMWV,291,R,04.9,N,A*14
$IIMWV,252,T,04.7,N,A*13
$IIRMB,A,0.01,L,,YVOI,,,,,016.10,241,03.6,V,A*65
$IIRMC,164102,A,4629.924,N,00639.935,E,03.8,262,200808,,,A*43
$IIVHW,,,260,M,03.5,N,,*66
$IIVWR,066,L,05.0,N,,,,*7A
$IIDPT,038.1,-1.0,*4A
$IIGLL,4629.924,N,00639.935,E,164102,A,A*55
$IIHDG,260,,,,*53
$IIMTW,+21.0,C*3B
$IIMWV,294,R,05.0,N,A*19
$IIMWV,250,T,04.7,N,A*11
$IIRMB,A,0.01,L,,YVOI,,,,,016.10,241,03.6,V,A*65
$IIRMC,164104,A,4629.924,N,00639.932,E,03.8,260,200808,,,A*40
$IIVHW,,,258,M,03.5,N,,*6D
$IIVWR,071,L,05.0,N,,,,*7C
$IIDPT,038.1,-1.0,*4A
$IIGLL,4629.924,N,00639.932,E,164104,A,A*54
$IIHDG,258,,,,*58
$IIMTW,+21.5,C*3E
$IIMWV,292,R,05.1,N,A*1E
$IIMWV,248,T,05.0,N,A*1E
$IIRMC,164104,A,4629.924,N,00639.932,E,03.8,260,200808,,,A*40
$IIVHW,,,258,M,03.5,N,,*6D
$IIVWR,068,L,05.1,N,,,,*75
$IIDPT,038.3,-1.0,*48
$IIGLL,4629.923,N,00639.929,E,164106,A,A*5B
$IIHDG,258,,,,*58
$IIMTW,+20.5,C*3F
$IIMWV,292,R,05.2,N,A*1D
$IIMWV,250,T,04.9,N,A*1F
$IIRMB,A,0.01,L,,YVOI,,,,,016.09,241,03.6,V,A*6D
$IIRMC,164106,A,4629.923,N,00639.929,E,03.8,259,200808,,,A*45
$IIVHW,,,258,M,03.5,N,,*6D
$IIVWR,066,L,05.4,N,,,,*7E
$IIDPT,038.3,-1.0,*48
$IIGLL,4629.923,N,00639.929,E,164106,A,A*5B
$IIHDG,258,,,,*58
$IIMTW,+18.0,C*31
$IIMWV,294,R,05.4,N,A*1D
$IIMWV,252,T,05.0,N,A*15
$IIRMC,164106,A,4629.923,N,00639.929,E,03.8,259,200808,,,A*45
$IIVHW,,,256,M,03.4,N,,*62
$IIVWR,064,L,05.4,N,,,,*7C
$IIDPT,038.3,-1.0,*48
$IIGLL,4629.923,N,00639.926,E,164108,A,A*5A
$IIHDG,256,,,,*56
$IIMTW,+19.5,C*35
$IIMWV,296,R,05.4,N,A*1F
$IIMWV,255,T,05.0,N,A*12
$IIRMB,A,0.01,L,,YVOI,,,,,016.09,241,03.6,V,A*6D
$IIRMC,164108,A,4629.923,N,00639.926,E,03.8,257,200808,,,A*4A
$IIVHW,,,256,M,03.4,N,,*62
$IIVWR,063,L,05.4,N,,,,*7B
$IIDPT,042.8,-1.0,*4E
$IIGLL,4629.923,N,00639.926,E,164108,A,A*5A
$IIHDG,256,,,,*56
$IIMTW,+19.5,C*35
$IIMWV,297,R,05.4,N,A*1E
$IIMWV,257,T,04.9,N,A*18
$IIRMB,A,0.01,L,,YVOI,,,,,016.09,241,03.6,V,A*6D
$IIRMC,164110,A,4629.922,N,00639.923,E,03.8,258,200808,,,A*48
$IIVHW,,,255,M,03.4,N,,*61
$IIVWR,064,L,05.6,N,,,,*7E
$IIDPT,043.3,-1.0,*44
$IIGLL,4629.922,N,00639.923,E,164110,A,A*57
$IIHDG,255,,,,*55
$IIMTW,+20.0,C*3A
$IIMWV,300,R,05.6,N,A*13
$IIMWV,258,T,05.1,N,A*1E
$IIRMC,164110,A,4629.922,N,00639.923,E,03.8,258,200808,,,A*48
$IIVHW,,,255,M,03.4,N,,*61
$IIVWR,060,L,05.6,N,,,,*7A
$IIDPT,040.0,-1.0,*44
$IIGLL,4629.922,N,00639.920,E,164112,A,A*56
$IIHDG,255,,,,*55
$IIMTW,+20.5,C*3F
$IIMWV,292,R,05.4,N,A*1B
$IIMWV,261,T,04.8,N,A*1C
$IIRMB,A,0.01,L,,YVOI,,,,,016.09,241,03.5,V,A*6E
$IIRMC,164112,A,4629.922,N,00639.920,E,03.8,256,200808,,,A*47
$IIVHW,,,255,M,03.4,N,,*61
$IIVWR,065,L,05.4,N,,,,*7D
$IIDPT,040.0,-1.0,*44
$IIGLL,4629.922,N,00639.920,E,164112,A,A*56
$IIHDG,255,,,,*55
$IIMTW,+21.0,C*3B
$IIMWV,295,R,05.4,N,A*1C
$IIMWV,252,T,05.2,N,A*17
$IIRMC,164112,A,4629.922,N,00639.920,E,03.8,256,200808,,,A*47
$IIVHW,,,255,M,03.4,N,,*61
$IIVWR,066,L,05.3,N,,,,*79
$IIDPT,040.0,-1.0,*44
$IIGLL,4629.921,N,00639.917,E,164114,A,A*57
$IIHDG,255,,,,*55
$IIMTW,+21.0,C*3B
$IIMWV,294,R,05.3,N,A*1A
$IIMWV,256,T,05.0,N,A*11
$IIRMB,A,0.01,L,,YVOI,,,,,016.09,241,03.6,V,A*6D
$IIRMC,164114,A,4629.921,N,00639.917,E,03.7,257,200808,,,A*48
$IIVHW,,,255,M,03.4,N,,*61
$IIVWR,069,L,05.3,N,,,,*76
$IIDPT,047.2,-1.0,*41
$IIGLL,4629.921,N,00639.917,E,164114,A,A*57
$IIHDG,255,,,,*55
$IIMTW,+21.0,C*3B
$IIMWV,291,R,05.3,N,A*1F
$IIMWV,253,T,05.1,N,A*15
$IIRMB,A,0.01,L,,YVOI,,,,,016.08,241,03.6,V,A*6C
$IIRMC,164114,A,4629.921,N,00639.917,E,03.7,257,200808,,,A*48
$IIVHW,,,253,M,03.4,N,,*67
$IIVWR,066,L,05.2,N,,,,*78
$IIDPT,060.1,-1.0,*47
$IIGLL,4629.921,N,00639.917,E,164114,A,A*57
$IIHDG,255,,,,*55
$IIMTW,+21.0,C*3B
$IIMWV,292,R,05.4,N,A*1B
$IIMWV,255,T,04.8,N,A*1B
$IIRMC,164116,A,4629.921,N,00639.914,E,03.7,257,200808,,,A*49
$IIVHW,,,255,M,03.4,N,,*61
$IIVWR,068,L,05.4,N,,,,*70
$IIDPT,060.1,-1.0,*47
$IIGLL,4629.921,N,00639.911,E,164118,A,A*5D
$IIHDG,254,,,,*54
$IIMTW,+21.0,C*3B
$IIMWV,290,R,05.5,N,A*18
$IIMWV,253,T,05.2,N,A*16
$IIRMB,A,0.01,L,,YVOI,,,,,016.08,241,03.6,V,A*6C
$IIRMC,164118,A,4629.921,N,00639.911,E,03.2,269,200808,,,A*4A
$IIVHW,,,254,M,03.4,N,,*60
$IIVWR,067,L,05.3,N,,,,*78
$IIDPT,055.5,-1.0,*45
$IIGLL,4629.921,N,00639.911,E,164118,A,A*5D
$IIHDG,254,,,,*54
$IIMTW,+21.0,C*3B
$IIMWV,293,R,05.3,N,A*1D
$IIMWV,253,T,05.3,N,A*17
$IIRMC,164118,A,4629.921,N,00639.911,E,03.2,269,200808,,,A*4A
$IIVHW,,,253,M,03.4,N,,*67
$IIVWR,066,L,05.3,N,,,,*79
$IIDPT,050.9,-1.0,*4C
$IIGLL,4629.920,N,00639.908,E,164120,A,A*5F
$IIHDG,253,,,,*53
$IIMTW,+20.5,C*3F
$IIMWV,294,R,05.3,N,A*1A
$IIMWV,254,T,05.0,N,A*13
$IIRMB,A,0.01,L,,YVOI,,,,,016.08,241,03.5,V,A*6F
$IIRMC,164120,A,4629.920,N,00639.908,E,03.7,255,200808,,,A*42
$IIVHW,,,253,M,03.4,N,,*67
$IIVWR,069,L,05.2,N,,,,*77
$IIDPT,047.5,-1.0,*46
$IIGLL,4629.920,N,00639.908,E,164120,A,A*5F
$IIHDG,253,,,,*53
$IIMTW,+21.0,C*3B
$IIMWV,291,R,05.2,N,A*1E
$IIMWV,250,T,05.0,N,A*17
$IIRMB,A,0.01,L,,YVOI,,,,,016.08,241,03.6,V,A*6C
$IIRMC,164122,A,4629.920,N,00639.905,E,03.8,255,200808,,,A*42
$IIVHW,,,253,M,03.4,N,,*67
$IIVWR,067,L,05.6,N,,,,*7D
$IIDPT,047.5,-1.0,*46
$IIGLL,4629.920,N,00639.905,E,164122,A,A*50
$IIHDG,253,,,,*53
$IIMTW,+20.5,C*3F
$IIMWV,292,R,05.5,N,A*1A
$IIMWV,256,T,05.2,N,A*13
$IIRMC,164122,A,4629.920,N,00639.905,E,03.8,255,200808,,,A*42
$IIVHW,,,253,M,03.4,N,,*67
$IIVWR,068,L,05.5,N,,,,*71
$IIDPT,055.4,-1.0,*44
$IIGLL,4629.919,N,00639.903,E,164124,A,A*5A
$IIHDG,252,,,,*52
$IIMTW,+20.5,C*3F
$IIMWV,291,R,05.3,N,A*1F
$IIMWV,255,T,05.2,N,A*10
$IIRMB,A,0.01,L,,YVOI,,,,,016.08,241,03.6,V,A*6C
$IIRMC,164124,A,4629.919,N,00639.903,E,03.7,252,200808,,,A*40
$IIVHW,,,252,M,03.4,N,,*66
$IIVWR,068,L,05.7,N,,,,*73
$IIDPT,048.7,-1.0,*4B
$IIGLL,4629.919,N,00639.903,E,164124,A,A*5A
$IIHDG,251,,,,*51
$IIMTW,+20.5,C*3F
$IIMWV,292,R,05.7,N,A*18
$IIMWV,252,T,05.1,N,A*14
$IIRMC,164124,A,4629.919,N,00639.903,E,03.7,252,200808,,,A*40
$IIVHW,,,250,M,03.4,N,,*64
$IIVWR,068,L,05.6,N,,,,*72
$IIDPT,055.7,-1.0,*47
$IIGLL,4629.918,N,00639.900,E,164126,A,A*5A
$IIHDG,250,,,,*50
$IIMTW,+20.5,C*3F
$IIMWV,292,R,05.6,N,A*19
$IIMWV,256,T,05.4,N,A*15
$IIRMB,A,0.01,L,,YVOI,,,,,016.07,241,03.7,V,A*62
$IIRMC,164126,A,4629.918,N,00639.900,E,03.7,253,200808,,,A*41
$IIVHW,,,252,M,03.4,N,,*66
$IIVWR,066,L,05.5,N,,,,*7F
$IIDPT,055.7,-1.0,*47
$IIGLL,4629.918,N,00639.900,E,164126,A,A*5A
$IIHDG,252,,,,*52
$IIMTW,+20.5,C*3F
$IIMWV,294,R,05.5,N,A*1C
$IIMWV,257,T,05.1,N,A*11
$IIRMB,A,0.02,L,,YVOI,,,,,016.07,241,03.7,V,A*61
$IIRMC,164128,A,4629.918,N,00639.897,E,03.7,254,200808,,,A*47
$IIVHW,,,250,M,03.4,N,,*64
$IIVWR,066,L,05.5,N,,,,*7F
$IIDPT,055.8,-1.0,*48
$IIGLL,4629.918,N,00639.897,E,164128,A,A*5B
$IIHDG,253,,,,*53
$IIMTW,+21.0,C*3B
$IIMWV,294,R,05.9,N,A*10
$IIMWV,255,T,05.1,N,A*13
$IIRMC,164128,A,4629.918,N,00639.897,E,03.7,254,200808,,,A*47
$IIVHW,,,253,M,03.4,N,,*67
$IIVWR,066,L,05.9,N,,,,*73
$IIDPT,053.1,-1.0,*47
$IIGLL,4629.917,N,00639.894,E,164130,A,A*5E
$IIHDG,252,,,,*52
$IIMTW,+21.0,C*3B
$IIMWV,294,R,06.0,N,A*1A
$IIMWV,259,T,05.3,N,A*1D
$IIRMB,A,0.02,L,,YVOI,,,,,016.07,241,03.7,V,A*61
$IIRMC,164130,A,4629.917,N,00639.894,E,03.8,252,200808,,,A*4B
$IIVHW,,,252,M,03.4,N,,*66
$IIVWR,066,L,05.8,N,,,,*72
$IIDPT,062.4,-1.0,*40
$IIGLL,4629.917,N,00639.894,E,164130,A,A*5E
$IIHDG,252,,,,*52
$IIMTW,+21.0,C*3B
$IIMWV,294,R,05.8,N,A*11
$IIMWV,258,T,05.5,N,A*1A
$IIRMC,164130,A,4629.917,N,00639.894,E,03.8,252,200808,,,A*4B
$IIVHW,,,253,M,03.4,N,,*67
$IIVWR,067,L,06.1,N,,,,*79
$IIDPT,069.2,-1.0,*4D
$IIGLL,4629.917,N,00639.891,E,164132,A,A*59
$IIHDG,253,,,,*53
$IIMTW,+21.0,C*3B
$IIMWV,293,R,06.1,N,A*1C
$IIMWV,257,T,05.3,N,A*13
$IIRMB,A,0.02,L,,YVOI,,,,,016.07,241,03.6,V,A*60
$IIRMC,164132,A,4629.917,N,00639.891,E,03.7,254,200808,,,A*45
$IIVHW,,,253,M,03.4,N,,*67
$IIVWR,067,L,06.0,N,,,,*78
$IIDPT,069.2,-1.0,*4D
$IIGLL,4629.917,N,00639.891,E,164132,A,A*59
$IIHDG,253,,,,*53
$IIMTW,+21.0,C*3B
$IIMWV,293,R,06.0,N,A*1D
$IIMWV,258,T,05.6,N,A*19
$IIRMB,A,0.02,L,,YVOI,,,,,016.07,241,03.7,V,A*61
$IIRMC,164134,A,4629.916,N,00639.888,E,03.7,254,200808,,,A*4A
$IIVHW,,,252,M,03.4,N,,*66
$IIVWR,066,L,05.8,N,,,,*72
$IIDPT,058.7,-1.0,*4A
$IIGLL,4629.916,N,00639.888,E,164134,A,A*56
$IIHDG,253,,,,*53
$IIMTW,+21.0,C*3B
$IIMWV,289,R,05.8,N,A*1D
$IIMWV,257,T,05.3,N,A*13
$IIRMC,164134,A,4629.916,N,00639.888,E,03.7,254,200808,,,A*4A
$IIVHW,,,253,M,03.4,N,,*67
$IIVWR,071,L,05.8,N,,,,*74
$IIDPT,068.8,-1.0,*46
$IIGLL,4629.915,N,00639.885,E,164136,A,A*5A
$IIHDG,252,,,,*52
$IIMTW,+21.0,C*3B
$IIMWV,292,R,05.8,N,A*17
$IIMWV,254,T,05.7,N,A*14
$IIRMB,A,0.02,L,,YVOI,,,,,016.06,241,03.7,V,A*60
$IIRMC,164136,A,4629.915,N,00639.885,E,03.8,254,200808,,,A*49
$IIVHW,,,252,M,03.4,N,,*66
$IIVWR,068,L,05.6,N,,,,*72
$IIDPT,073.3,-1.0,*47
$IIGLL,4629.915,N,00639.885,E,164136,A,A*5A
$IIHDG,252,,,,*52
$IIMTW,+21.0,C*3B
$IIMWV,292,R,05.6,N,A*19
$IIMWV,255,T,05.4,N,A*16
$IIRMC,164136,A,4629.915,N,00639.885,E,03.8,254,200808,,,A*49
$IIVHW,,,251,M,03.4,N,,*65
$IIVWR,068,L,05.6,N,,,,*72
$IIDPT,042.7,-1.0,*41
$IIGLL,4629.915,N,00639.882,E,164138,A,A*53
$IIHDG,251,,,,*51
$IIMTW,+21.0,C*3B
$IIMWV,292,R,05.6,N,A*19
$IIMWV,254,T,05.4,N,A*17
$IIRMB,A,0.02,L,,YVOI,,,,,016.06,241,03.6,V,A*61
$IIRMC,164138,A,4629.915,N,00639.882,E,03.8,253,200808,,,A*47
$IIVHW,,,251,M,03.4,N,,*65
$IIVWR,069,L,05.9,N,,,,*7C
$IIDPT,042.7,-1.0,*41
$IIGLL,4629.915,N,00639.882,E,164138,A,A*53
$IIHDG,251,,,,*51
$IIMTW,+21.0,C*3B
$IIMWV,291,R,05.9,N,A*15
$IIMWV,255,T,05.5,N,A*17
$IIRMB,A,0.02,L,,YVOI,,,,,016.06,241,03.7,V,A*60
$IIRMC,164140,A,4629.914,N,00639.879,E,03.5,260,200808,,,A*40
$IIVHW,,,251,M,03.5,N,,*64
$IIVWR,070,L,06.2,N,,,,*7C
$IIDPT,042.6,-1.0,*40
$IIGLL,4629.914,N,00639.879,E,164140,A,A*59
$IIHDG,251,,,,*51
$IIMTW,+20.5,C*3F
$IIMWV,292,R,06.1,N,A*1D
$IIMWV,256,T,05.9,N,A*18
$IIRMC,164140,A,4629.914,N,00639.879,E,03.5,260,200808,,,A*40
$IIVHW,,,251,M,03.4,N,,*65
$IIVWR,068,L,06.1,N,,,,*76
$IIDPT,042.6,-1.0,*40
$IIGLL,4629.913,N,00639.876,E,164142,A,A*53
$IIHDG,250,,,,*50
$IIMTW,+21.0,C*3B
$IIMWV,289,R,05.8,N,A*1D
$IIMWV,257,T,05.7,N,A*17
$IIRMB,A,0.02,L,,YVOI,,,,,016.06,241,03.7,V,A*60
$IIRMC,164142,A,4629.913,N,00639.876,E,04.3,243,200808,,,A*4A
$IIVHW,,,250,M,03.5,N,,*65
$IIVWR,071,L,05.8,N,,,,*74
$IIDPT,048.9,-1.0,*45
$IIGLL,4629.913,N,00639.876,E,164142,A,A*53
$IIHDG,249,,,,*58
$IIMTW,+20.5,C*3F
$IIMWV,289,R,05.8,N,A*1D
$IIMWV,254,T,05.7,N,A*14
$IIRMC,164142,A,4629.913,N,00639.876,E,04.3,243,200808,,,A*4A
$IIVHW,,,249,M,03.5,N,,*6D
$IIVWR,069,L,06.1,N,,,,*77
$IIDPT,059.7,-1.0,*4B
$IIGLL,4629.913,N,00639.873,E,164144,A,A*50
$IIHDG,249,,,,*58
$IIMTW,+21.0,C*3B
$IIMWV,291,R,06.1,N,A*1E
$IIMWV,254,T,05.7,N,A*14
$IIRMB,A,0.02,L,,YVOI,,,,,016.06,241,03.7,V,A*60
$IIRMC,164144,A,4629.913,N,00639.873,E,03.8,253,200808,,,A*44
$IIVHW,,,250,M,03.5,N,,*65
$IIVWR,068,L,06.0,N,,,,*77
$IIDPT,066.7,-1.0,*47
$IIGLL,4629.913,N,00639.873,E,164144,A,A*50
$IIHDG,250,,,,*50
$IIMTW,+21.0,C*3B
$IIMWV,292,R,06.0,N,A*1C
$IIMWV,257,T,05.6,N,A*16
$IIRMB,A,0.02,L,,YVOI,,,,,016.05,241,03.7,V,A*63
$IIRMC,164146,A,4629.912,N,00639.871,E,03.8,253,200808,,,A*45
$IIVHW,,,249,M,03.5,N,,*6D
$IIVWR,070,L,05.7,N,,,,*7A
$IIDPT,068.9,-1.0,*47
$IIGLL,4629.912,N,00639.871,E,164146,A,A*51
$IIHDG,249,,,,*58
$IIMTW,+20.5,C*3F
$IIMWV,291,R,05.7,N,A*1B
$IIMWV,253,T,05.5,N,A*11
$IIRMC,164146,A,4629.912,N,00639.871,E,03.8,253,200808,,,A*45
$IIVHW,,,249,M,03.5,N,,*6D
$IIVWR,069,L,05.7,N,,,,*72
$IIDPT,068.9,-1.0,*47
$IIGLL,4629.911,N,00639.868,E,164148,A,A*54
$IIHDG,248,,,,*59
$IIMTW,+20.5,C*3F
$IIMWV,291,R,06.0,N,A*1F
$IIMWV,254,T,05.5,N,A*16
$IIRMB,A,0.02,L,,YVOI,,,,,016.05,241,03.7,V,A*63
$IIRMC,164148,A,4629.911,N,00639.868,E,03.7,250,200808,,,A*4C
$IIVHW,,,248,M,03.5,N,,*6C
$IIVWR,069,L,05.9,N,,,,*7C
$IIDPT,066.9,-1.0,*49
$IIGLL,4629.911,N,00639.868,E,164148,A,A*54
$IIHDG,247,,,,*56
$IIMTW,+20.5,C*3F
$IIMWV,291,R,05.9,N,A*15
$IIMWV,256,T,05.6,N,A*17
$IIRMC,164148,A,4629.911,N,00639.868,E,03.7,250,200808,,,A*4C
$IIVHW,,,247,M,03.5,N,,*63
$IIVWR,068,L,05.8,N,,,,*7C
$IIDPT,066.9,-1.0,*49
$IIGLL,4629.911,N,00639.865,E,164150,A,A*50
$IIHDG,247,,,,*56
$IIMTW,+21.0,C*3B
$IIMWV,292,R,05.8,N,A*17
$IIMWV,255,T,05.5,N,A*17
$IIRMB,A,0.02,L,,YVOI,,,,,016.05,241,03.7,V,A*63
$IIRMC,164150,A,4629.911,N,00639.865,E,03.8,251,200808,,,A*46
$IIVHW,,,245,M,03.5,N,,*61
$IIVWR,067,L,05.8,N,,,,*73
$IIDPT,042.7,-1.0,*41
$IIGLL,4629.911,N,00639.865,E,164150,A,A*50
$IIHDG,245,,,,*54
$IIMTW,+21.0,C*3B
$IIMWV,293,R,05.8,N,A*16
$IIMWV,256,T,05.4,N,A*15
$IIRMB,A,0.02,L,,YVOI,,,,,016.05,241,03.7,V,A*63
$IIRMC,164152,A,4629.910,N,00639.862,E,03.8,247,200808,,,A*45
$IIVHW,,,245,M,03.5,N,,*61
$IIVWR,065,L,05.6,N,,,,*7F
$IIDPT,036.5,-1.0,*40
$IIGLL,4629.910,N,00639.862,E,164152,A,A*54
$IIHDG,244,,,,*55
$IIMTW,+21.0,C*3B
$IIMWV,294,R,05.6,N,A*1F
$IIMWV,257,T,05.1,N,A*11
$IIRMC,164152,A,4629.910,N,00639.862,E,03.8,247,200808,,,A*45
$IIVHW,,,244,M,03.5,N,,*60
$IIVWR,066,L,05.6,N,,,,*7C
$IIDPT,039.7,-1.0,*4D
$IIGLL,4629.909,N,00639.859,E,164154,A,A*52
$IIHDG,243,,,,*52
$IIMTW,+20.5,C*3F
$IIMWV,296,R,06.0,N,A*18
$IIMWV,255,T,05.1,N,A*13
$IIRMB,A,0.02,L,,YVOI,,,,,016.05,241,03.8,V,A*6C
$IIRMC,164154,A,4629.909,N,00639.859,E,03.8,247,200808,,,A*43
$IIVHW,,,243,M,03.5,N,,*67
$IIVWR,064,L,06.2,N,,,,*79
$IIDPT,039.7,-1.0,*4D
$IIGLL,4629.908,N,00639.856,E,164156,A,A*5E
$IIHDG,242,,,,*53
$IIMTW,+20.5,C*3F
$IIMWV,296,R,06.2,N,A*1A
$IIMWV,259,T,05.4,N,A*1A
$IIRMB,A,0.02,L,,YVOI,,,,,016.04,241,03.7,V,A*62
$IIRMC,164156,A,4629.908,N,00639.856,E,03.7,245,200808,,,A*42
$IIVHW,,,240,M,03.4,N,,*65
$IIVWR,062,L,06.2,N,,,,*7F
$IIDPT,039.7,-1.0,*4D
$IIGLL,4629.908,N,00639.856,E,164156,A,A*5E
$IIHDG,240,,,,*51
$IIMTW,+20.5,C*3F
$IIMWV,298,R,06.2,N,A*14
$IIMWV,264,T,05.4,N,A*14
$IIRMB,A,0.02,L,,YVOI,,,,,016.04,241,03.7,V,A*62
$IIRMC,164158,A,4629.907,N,00639.854,E,03.9,238,200808,,,A*45
$IIVHW,,,239,M,03.5,N,,*6A
$IIVWR,063,L,06.2,N,,,,*7E
$IIDPT,039.7,-1.0,*4D
$IIGLL,4629.907,N,00639.854,E,164158,A,A*5D
$IIHDG,238,,,,*5E
$IIMTW,+20.5,C*3F
$IIMWV,299,R,06.5,N,A*12
$IIMWV,262,T,05.5,N,A*13
$IIRMC,164158,A,4629.907,N,00639.854,E,03.9,238,200808,,,A*45
$IIVHW,,,238,M,03.4,N,,*6A
$IIVWR,061,L,06.5,N,,,,*7B
$IIDPT,039.7,-1.0,*4D
$IIGLL,4629.906,N,00639.851,E,164200,A,A*57
$IIHDG,236,,,,*50
$IIMTW,+20.5,C*3F
$IIMWV,299,R,06.3,N,A*14
$IIMWV,266,T,05.6,N,A*14
$IIRMB,A,0.02,L,,YVOI,,,,,016.04,241,03.8,V,A*6D
$IIRMC,164200,A,4629.906,N,00639.851,E,03.8,240,200808,,,A*41
$IIVHW,,,236,M,03.4,N,,*64
$IIVWR,059,L,06.3,N,,,,*76
$IIDPT,039.7,-1.0,*4D
$IIGLL,4629.906,N,00639.851,E,164200,A,A*57
$IIHDG,234,,,,*52
$IIMTW,+20.5,C*3F
$IIMWV,301,R,06.3,N,A*14
$IIMWV,265,T,05.4,N,A*15
$IIRMC,164200,A,4629.906,N,00639.851,E,03.8,240,200808,,,A*41
$IIVHW,,,233,M,03.4,N,,*61
$IIVWR,058,L,06.4,N,,,,*70
$IIDPT,039.7,-1.0,*4D
$IIGLL,4629.905,N,00639.848,E,164202,A,A*5E
$IIHDG,233,,,,*55
$IIMTW,+20.5,C*3F
$IIMWV,302,R,06.4,N,A*10
$IIMWV,267,T,05.4,N,A*17
$IIRMB,A,0.02,L,,YVOI,,,,,016.04,241,03.7,V,A*62
$IIRMC,164202,A,4629.905,N,00639.848,E,03.5,240,200808,,,A*45
$IIVHW,,,230,M,03.4,N,,*62
$IIVWR,057,L,06.5,N,,,,*7E
$IIDPT,039.7,-1.0,*4D
$IIGLL,4629.905,N,00639.848,E,164202,A,A*5E
$IIHDG,230,,,,*56
$IIMTW,+20.5,C*3F
$IIMWV,303,R,06.5,N,A*10
$IIMWV,270,T,05.4,N,A*11
$IIRMB,A,0.02,L,,YVOI,,,,,016.04,241,03.1,V,A*64
$IIRMC,164204,A,4629.904,N,00639.846,E,03.7,230,200808,,,A*49
$IIVHW,,,228,M,03.4,N,,*6B
$IIVWR,056,L,06.4,N,,,,*7E
$IIDPT,039.7,-1.0,*4D
$IIGLL,4629.904,N,00639.846,E,164204,A,A*57
$IIHDG,226,,,,*51
$IIMTW,+21.0,C*3B
$IIMWV,306,R,06.5,N,A*15
$IIMWV,270,T,05.3,N,A*16
$IIRMC,164204,A,4629.904,N,00639.846,E,03.7,230,200808,,,A*49
$IIVHW,,,226,M,03.4,N,,*65
$IIVWR,054,L,06.5,N,,,,*7D
$IIDPT,039.7,-1.0,*4D
$IIGLL,4629.902,N,00639.844,E,164206,A,A*51
$IIHDG,224,,,,*53
$IIMTW,+21.0,C*3B
$IIMWV,306,R,06.7,N,A*17
$IIMWV,275,T,05.2,N,A*12
$IIRMB,A,0.02,L,,YVOI,,,,,016.03,241,03.8,V,A*6A
$IIRMC,164206,A,4629.902,N,00639.844,E,03.6,226,200808,,,A*49
$IIVHW,,,224,M,03.4,N,,*67
$IIVWR,053,L,06.6,N,,,,*79
$IIDPT,020.1,-1.0,*43
$IIGLL,4629.902,N,00639.844,E,164206,A,A*51
$IIHDG,222,,,,*55
$IIMTW,+20.5,C*3F
$IIMWV,307,R,06.6,N,A*17
$IIMWV,275,T,05.4,N,A*14
$IIRMC,164206,A,4629.902,N,00639.844,E,03.6,226,200808,,,A*49
$IIVHW,,,221,M,03.4,N,,*62
$IIVWR,051,L,06.6,N,,,,*7B
$IIDPT,020.1,-1.0,*43
$IIGLL,4629.902,N,00639.844,E,164206,A,A*51
$IIHDG,221,,,,*56
$IIMTW,+18.0,C*31
$IIMWV,309,R,06.6,N,A*19
$IIMWV,275,T,05.2,N,A*12
$IIRMB,A,0.02,L,,YVOI,,,,,016.03,241,03.8,V,A*6A
$IIRMC,164208,A,4629.901,N,00639.842,E,03.6,226,200808,,,A*42
$IIVHW,,,220,M,03.4,N,,*63
$IIVWR,050,L,06.5,N,,,,*79
$IIDPT,036.3,-1.0,*46
$IIGLL,4629.901,N,00639.842,E,164208,A,A*5A
$IIHDG,220,,,,*57
$IIMTW,+19.5,C*35
$IIMWV,310,R,06.5,N,A*12
$IIMWV,278,T,05.0,N,A*1D
$IIRMB,A,0.02,L,,YVOI,,,,,016.03,241,03.6,V,A*64
$IIRMC,164210,A,4629.899,N,00639.840,E,03.8,220,200808,,,A*41
$IIVHW,,,218,M,03.4,N,,*68
$IIVWR,049,L,06.5,N,,,,*71
$IIDPT,036.3,-1.0,*46
$IIGLL,4629.899,N,00639.840,E,164210,A,A*51
$IIHDG,217,,,,*53
$IIMTW,+20.5,C*3F
$IIMWV,310,R,06.5,N,A*12
$IIMWV,279,T,04.8,N,A*15
$IIRMC,164210,A,4629.899,N,00639.840,E,03.8,220,200808,,,A*41
$IIVHW,,,217,M,03.4,N,,*67
$IIVWR,050,L,06.5,N,,,,*79
$IIDPT,036.3,-1.0,*46
$IIGLL,4629.897,N,00639.838,E,164212,A,A*52
$IIHDG,216,,,,*52
$IIMTW,+20.5,C*3F
$IIMWV,312,R,06.5,N,A*10
$IIMWV,278,T,05.0,N,A*1D
$IIRMB,A,0.02,L,,YVOI,,,,,016.03,241,03.4,V,A*66
$IIRMC,164212,A,4629.897,N,00639.838,E,03.6,219,200808,,,A*46
$IIVHW,,,216,M,03.4,N,,*66
$IIVWR,047,L,06.4,N,,,,*7E
$IIDPT,032.0,-1.0,*41
$IIGLL,4629.897,N,00639.838,E,164212,A,A*52
$IIHDG,216,,,,*52
$IIMTW,+20.5,C*3F
$IIMWV,313,R,06.4,N,A*10
$IIMWV,281,T,04.8,N,A*12
$IIRMC,164212,A,4629.897,N,00639.838,E,03.6,219,200808,,,A*46
$IIVHW,,,214,M,03.4,N,,*64
$IIVWR,047,L,06.4,N,,,,*7E
$IIDPT,032.0,-1.0,*41
$IIGLL,4629.896,N,00639.836,E,164214,A,A*5B
$IIHDG,214,,,,*50
$IIMTW,+20.5,C*3F
$IIMWV,313,R,06.4,N,A*10
$IIMWV,280,T,04.6,N,A*1D
$IIRMB,A,0.02,L,,YVOI,,,,,016.02,241,03.3,V,A*60
$IIRMC,164214,A,4629.896,N,00639.836,E,03.7,219,200808,,,A*4E
$IIVHW,,,214,M,03.4,N,,*64
$IIVWR,046,L,06.6,N,,,,*7D
$IIDPT,032.0,-1.0,*41
$IIGLL,4629.896,N,00639.836,E,164214,A,A*5B
$IIHDG,214,,,,*50
$IIMTW,+20.5,C*3F
$IIMWV,314,R,06.6,N,A*15
$IIMWV,282,T,04.8,N,A*11
$IIRMB,A,0.01,L,,YVOI,,,,,016.02,241,03.3,V,A*63
$IIRMC,164216,A,4629.894,N,00639.834,E,03.6,217,200808,,,A*43
$IIVHW,,,213,M,03.5,N,,*62
$IIVWR,045,L,06.7,N,,,,*7F
$IIDPT,010.3,-1.0,*42
$IIGLL,4629.894,N,00639.834,E,164216,A,A*59
$IIHDG,213,,,,*57
$IIMTW,+20.5,C*3F
$IIMWV,316,R,06.9,N,A*18
$IIMWV,284,T,04.8,N,A*17
$IIRMC,164216,A,4629.894,N,00639.834,E,03.6,217,200808,,,A*43
$IIVHW,,,213,M,03.5,N,,*62
$IIVWR,044,L,06.9,N,,,,*70
$IIDPT,011.5,-1.0,*45
$IIGLL,4629.892,N,00639.832,E,164218,A,A*57
$IIHDG,213,,,,*57
$IIMTW,+21.0,C*3B
$IIMWV,316,R,07.0,N,A*10
$IIMWV,287,T,04.9,N,A*15
$IIRMB,A,0.01,L,,YVOI,,,,,016.02,241,03.3,V,A*63
$IIRMC,164218,A,4629.892,N,00639.832,E,03.7,216,200808,,,A*4D
$IIVHW,,,213,M,03.5,N,,*62
$IIVWR,042,L,07.2,N,,,,*7C
$IIDPT,011.5,-1.0,*45
$IIGLL,4629.892,N,00639.832,E,164218,A,A*57
$IIHDG,213,,,,*57
$IIMTW,+21.0,C*3B
$IIMWV,318,R,07.2,N,A*1C
$IIMWV,287,T,05.0,N,A*1D
$IIRMC,164218,A,4629.892,N,00639.832,E,03.7,216,200808,,,A*4D
$IIVHW,,,213,M,03.5,N,,*62
$IIVWR,040,L,07.2,N,,,,*7E
$IIDPT,031.9,-1.0,*4B
$IIGLL,4629.891,N,00639.831,E,164220,A,A*5C
$IIHDG,213,,,,*57
$IIMTW,+21.0,C*3B
$IIMWV,320,R,07.2,N,A*17
$IIMWV,291,T,05.1,N,A*1B
$IIRMB,A,0.01,L,,YVOI,,,,,016.02,241,03.3,V,A*63
$IIRMC,164220,A,4629.891,N,00639.831,E,03.8,213,200808,,,A*4C
$IIVHW,,,211,M,03.5,N,,*60
$IIVWR,039,L,07.3,N,,,,*71
$IIDPT,031.9,-1.0,*4B
$IIGLL,4629.891,N,00639.831,E,164220,A,A*5C
$IIHDG,211,,,,*55
$IIMTW,+21.0,C*3B
$IIMWV,321,R,07.3,N,A*17
$IIMWV,295,T,04.9,N,A*16
$IIRMB,A,0.01,L,,YVOI,,,,,016.02,241,03.3,V,A*63
$IIRMC,164222,A,4629.889,N,00639.829,E,03.8,214,200808,,,A*49
$IIVHW,,,211,M,03.5,N,,*60
$IIVWR,039,L,07.3,N,,,,*71
$IIDPT,060.2,-1.0,*44
$IIGLL,4629.889,N,00639.829,E,164222,A,A*5E
$IIHDG,210,,,,*54
$IIMTW,+21.0,C*3B
$IIMWV,322,R,07.2,N,A*15
$IIMWV,294,T,04.9,N,A*17
$IIRMC,164222,A,4629.889,N,00639.829,E,03.8,214,200808,,,A*49
$IIVHW,,,210,M,03.5,N,,*61
$IIVWR,038,L,07.2,N,,,,*71
$IIDPT,060.2,-1.0,*44
$IIGLL,4629.887,N,00639.827,E,164224,A,A*58
$IIHDG,211,,,,*55
$IIMTW,+21.0,C*3B
$IIMWV,323,R,07.3,N,A*15
$IIMWV,295,T,04.8,N,A*17
$IIRMB,A,0.01,L,,YVOI,,,,,016.02,241,03.8,V,A*68
$IIRMC,164224,A,4629.887,N,00639.827,E,04.1,217,200808,,,A*42
$IIVHW,,,211,M,03.5,N,,*60
$IIVWR,039,L,07.3,N,,,,*71
$IIDPT,050.7,-1.0,*42
$IIGLL,4629.887,N,00639.827,E,164224,A,A*58
$IIHDG,210,,,,*54
$IIMTW,+21.0,C*3B
$IIMWV,321,R,07.3,N,A*17
$IIMWV,297,T,04.8,N,A*15
$IIRMC,164224,A,4629.887,N,00639.827,E,04.1,217,200808,,,A*42
$IIVHW,,,212,M,03.5,N,,*63
$IIVWR,039,L,07.4,N,,,,*76
$IIDPT,050.7,-1.0,*42
$IIGLL,4629.885,N,00639.825,E,164226,A,A*5A
$IIHDG,212,,,,*56
$IIMTW,+21.0,C*3B
$IIMWV,321,R,07.4,N,A*10
$IIMWV,294,T,04.9,N,A*17
$IIRMB,A,0.01,L,,YVOI,,,,,016.01,241,03.3,V,A*60
$IIRMC,164226,A,4629.885,N,00639.825,E,03.6,203,200808,,,A*45
$IIVHW,,,212,M,03.5,N,,*63
$IIVWR,039,L,07.6,N,,,,*74
$IIDPT,048.9,-1.0,*45
$IIGLL,4629.885,N,00639.825,E,164226,A,A*5A
$IIHDG,212,,,,*56
$IIMTW,+21.0,C*3B
$IIMWV,321,R,07.6,N,A*12
$IIMWV,296,T,05.2,N,A*1F
$IIRMB,A,0.01,L,,YVOI,,,,,016.01,241,03.3,V,A*60
$IIRMC,164228,A,4629.883,N,00639.824,E,03.7,211,200808,,,A*4E
$IIVHW,,,212,M,03.5,N,,*63
$IIVWR,041,L,07.5,N,,,,*78
$IIDPT,048.9,-1.0,*45
$IIGLL,4629.883,N,00639.824,E,164228,A,A*53
$IIHDG,211,,,,*55
$IIMTW,+21.0,C*3B
$IIMWV,319,R,07.7,N,A*18
$IIMWV,292,T,05.2,N,A*1B
$IIRMC,164228,A,4629.883,N,00639.824,E,03.7,211,200808,,,A*4E
$IIVHW,,,211,M,03.5,N,,*60
$IIVWR,041,L,07.7,N,,,,*7A
$IIDPT,048.9,-1.0,*45
$IIGLL,4629.882,N,00639.822,E,164230,A,A*5D
$IIHDG,211,,,,*55
$IIMTW,+21.0,C*3B
$IIMWV,320,R,07.7,N,A*12
$IIMWV,293,T,05.4,N,A*1C
$IIRMB,A,0.01,L,,YVOI,,,,,016.01,241,03.5,V,A*66
$IIRMC,164230,A,4629.882,N,00639.822,E,03.8,214,200808,,,A*4A
$IIVHW,,,211,M,03.5,N,,*60
$IIVWR,041,L,07.9,N,,,,*74
$IIDPT,048.9,-1.0,*45
$IIGLL,4629.882,N,00639.822,E,164230,A,A*5D
$IIHDG,211,,,,*55
$IIMTW,+21.0,C*3B
$IIMWV,319,R,07.9,N,A*16
$IIMWV,295,T,05.4,N,A*1A
$IIRMC,164230,A,4629.882,N,00639.822,E,03.8,214,200808,,,A*4A
$IIVHW,,,207,M,03.6,N,,*64
$IIVWR,043,L,07.8,N,,,,*77
$IIDPT,048.9,-1.0,*45
$IIGLL,4629.880,N,00639.820,E,164232,A,A*5F
$IIHDG,207,,,,*52
$IIMTW,+21.0,C*3B
$IIMWV,317,R,07.8,N,A*19
$IIMWV,294,T,05.6,N,A*19
$IIRMB,A,0.01,L,,YVOI,,,,,016.01,241,03.4,V,A*67
$IIRMC,164232,A,4629.880,N,00639.820,E,03.9,217,200808,,,A*4A
$IIVHW,,,206,M,03.6,N,,*65
$IIVWR,042,L,08.2,N,,,,*73
$IIDPT,068.3,-1.0,*4D
$IIGLL,4629.880,N,00639.820,E,164232,A,A*5F
$IIHDG,206,,,,*53
$IIMTW,+21.0,C*3B
$IIMWV,318,R,08.2,N,A*13
$IIMWV,294,T,05.9,N,A*16
$IIRMB,A,0.01,L,,YVOI,,,,,016.01,241,02.6,V,A*64
$IIRMC,164234,A,4629.878,N,00639.819,E,03.8,207,200808,,,A*41
$IIVHW,,,203,M,03.6,N,,*60
$IIVWR,042,L,08.3,N,,,,*72
$IIDPT,068.3,-1.0,*4D
$IIGLL,4629.878,N,00639.819,E,164234,A,A*54
$IIHDG,203,,,,*56
$IIMTW,+21.0,C*3B
$IIMWV,318,R,08.4,N,A*15
$IIMWV,293,T,06.0,N,A*1B
$IIRMC,164234,A,4629.878,N,00639.819,E,03.8,207,200808,,,A*41
$IIVHW,,,203,M,03.6,N,,*60
$IIVWR,042,L,08.4,N,,,,*75
$IIDPT,062.8,-1.0,*4C
$IIGLL,4629.876,N,00639.818,E,164236,A,A*59
$IIHDG,201,,,,*54
$IIMTW,+21.0,C*3B
$IIMWV,318,R,08.3,N,A*12
$IIMWV,294,T,06.1,N,A*1D
$IIRMB,A,0.00,L,,YVOI,,,,,016.00,241,03.1,V,A*62
$IIRMC,164236,A,4629.876,N,00639.818,E,03.9,203,200808,,,A*49
$IIVHW,,,201,M,03.7,N,,*63
$IIVWR,042,L,08.3,N,,,,*72
$IIDPT,062.6,-1.0,*42
$IIGLL,4629.876,N,00639.818,E,164236,A,A*59
$IIHDG,197,,,,*58
$IIMTW,+21.0,C*3B
$IIMWV,318,R,08.3,N,A*12
$IIMWV,293,T,06.0,N,A*1B
$IIRMC,164236,A,4629.876,N,00639.818,E,03.9,203,200808,,,A*49
$IIVHW,,,197,M,03.7,N,,*6F
$IIVWR,039,L,08.4,N,,,,*79
$IIDPT,062.6,-1.0,*42
$IIGLL,4629.874,N,00639.817,E,164238,A,A*5A
$IIHDG,197,,,,*58
$IIMTW,+20.5,C*3F
$IIMWV,321,R,08.4,N,A*1F
$IIMWV,293,T,06.0,N,A*1B
$IIRMB,A,0.00,L,,YVOI,,,,,016.00,241,03.1,V,A*62
$IIRMC,164238,A,4629.874,N,00639.817,E,03.9,200,200808,,,A*49
$IIVHW,,,195,M,03.7,N,,*6D
$IIVWR,039,L,08.2,N,,,,*7F
$IIDPT,036.4,-1.0,*41
$IIGLL,4629.874,N,00639.817,E,164238,A,A*5A
$IIHDG,195,,,,*5A
$IIMTW,+20.5,C*3F
$IIMWV,321,R,08.2,N,A*19
$IIMWV,296,T,05.6,N,A*1B
$IIRMB,A,0.00,L,,YVOI,,,,,016.00,241,02.9,V,A*6B
$IIRMC,164240,A,4629.872,N,00639.816,E,03.9,196,200808,,,A*4D
$IIVHW,,,195,M,03.7,N,,*6D
$IIVWR,037,L,08.3,N,,,,*70
$IIDPT,036.4,-1.0,*41
$IIGLL,4629.872,N,00639.816,E,164240,A,A*52
$IIHDG,193,,,,*5C
$IIMTW,+18.0,C*31
$IIMWV,324,R,08.4,N,A*1A
$IIMWV,300,T,05.6,N,A*15
$IIRMC,164240,A,4629.872,N,00639.816,E,03.9,196,200808,,,A*4D
$IIVHW,,,193,M,03.7,N,,*6B
$IIVWR,036,L,08.4,N,,,,*76
$IIDPT,036.4,-1.0,*41
$IIGLL,4629.870,N,00639.815,E,164242,A,A*51
$IIHDG,192,,,,*5D
$IIMTW,+20.5,C*3F
$IIMWV,325,R,08.4,N,A*1B
$IIMWV,302,T,05.7,N,A*16
$IIRMB,A,0.00,L,,YVOI,,,,,016.00,241,02.8,V,A*6A
$IIRMC,164242,A,4629.870,N,00639.815,E,04.0,194,200808,,,A*42
$IIVHW,,,192,M,03.7,N,,*6A
$IIVWR,034,L,08.5,N,,,,*75
$IIDPT,036.4,-1.0,*41
$IIGLL,4629.870,N,00639.815,E,164242,A,A*51
$IIHDG,191,,,,*5E
$IIMTW,+20.5,C*3F
$IIMWV,326,R,08.5,N,A*19
$IIMWV,303,T,05.5,N,A*15
$IIRMC,164242,A,4629.870,N,00639.815,E,04.0,194,200808,,,A*42
$IIVHW,,,190,M,03.8,N,,*67
$IIVWR,033,L,08.5,N,,,,*72
$IIDPT,036.4,-1.0,*41
$IIGLL,4629.868,N,00639.814,E,164244,A,A*5F
$IIHDG,190,,,,*5F
$IIMTW,+20.5,C*3F
$IIMWV,327,R,08.5,N,A*18
$IIMWV,304,T,05.6,N,A*11
$IIRMB,A,0.00,L,,YVOI,,,,,016.00,241,02.6,V,A*64
$IIRMC,164244,A,4629.868,N,00639.814,E,03.9,194,200808,,,A*42
$IIVHW,,,190,M,03.8,N,,*67
$IIVWR,033,L,08.5,N,,,,*72
$IIDPT,036.4,-1.0,*41
$IIGLL,4629.868,N,00639.814,E,164244,A,A*5F
$IIHDG,190,,,,*5F
$IIMTW,+20.5,C*3F
$IIMWV,327,R,08.5,N,A*18
$IIMWV,306,T,05.5,N,A*10
$IIRMB,A,0.00,L,,YVOI,,,,,016.00,241,02.7,V,A*65
$IIRMC,164246,A,4629.865,N,00639.813,E,04.0,188,200808,,,A*49
$IIVHW,,,189,M,03.8,N,,*6F
$IIVWR,033,L,08.6,N,,,,*71
$IIDPT,036.4,-1.0,*41
$IIGLL,4629.865,N,00639.813,E,164246,A,A*57
$IIHDG,188,,,,*56
$IIMTW,+21.0,C*3B
$IIMWV,328,R,08.6,N,A*14
$IIMWV,307,T,05.7,N,A*13
$IIRMC,164246,A,4629.865,N,00639.813,E,04.0,188,200808,,,A*49
$IIVHW,,,188,M,03.8,N,,*6E
$IIVWR,032,L,08.6,N,,,,*70
$IIDPT,036.4,-1.0,*41
$IIGLL,4629.863,N,00639.813,E,164248,A,A*5F
$IIHDG,189,,,,*57
$IIMTW,+21.0,C*3B
$IIMWV,329,R,08.3,N,A*10
$IIMWV,308,T,05.7,N,A*1C
$IIRMB,A,0.01,R,,YVOI,,,,,016.00,241,02.5,V,A*78
$IIRMC,164248,A,4629.863,N,00639.813,E,04.0,191,200808,,,A*49
$IIVHW,,,189,M,03.8,N,,*6F
$IIVWR,031,L,08.3,N,,,,*76
$IIDPT,036.4,-1.0,*41
$IIGLL,4629.863,N,00639.813,E,164248,A,A*5F
$IIHDG,187,,,,*59
$IIMTW,+20.5,C*3F
$IIMWV,329,R,08.3,N,A*10
$IIMWV,307,T,05.4,N,A*10
$IIRMC,164248,A,4629.863,N,00639.813,E,04.0,191,200808,,,A*49
$IIVHW,,,188,M,03.8,N,,*6E
$IIVWR,029,L,08.4,N,,,,*78
$IIDPT,036.4,-1.0,*41
$IIGLL,4629.861,N,00639.812,E,164250,A,A*55
$IIHDG,188,,,,*56
$IIMTW,+20.5,C*3F
$IIMWV,331,R,08.4,N,A*1E
$IIMWV,307,T,05.4,N,A*10
$IIRMB,A,0.01,R,,YVOI,,,,,015.99,241,02.6,V,A*78
$IIRMC,164250,A,4629.861,N,00639.812,E,04.0,190,200808,,,A*42
$IIVHW,,,185,M,03.8,N,,*63
$IIVWR,028,L,08.5,N,,,,*78
$IIDPT,036.4,-1.0,*41
$IIGLL,4629.861,N,00639.812,E,164250,A,A*55
$IIHDG,185,,,,*5B
$IIMTW,+20.5,C*3F
$IIMWV,332,R,08.5,N,A*1C
$IIMWV,313,T,05.3,N,A*12
$IIRMB,A,0.01,R,,YVOI,,,,,015.99,241,02.4,V,A*7A
$IIRMC,164252,A,4629.859,N,00639.811,E,04.0,187,200808,,,A*4E
$IIVHW,,,185,M,03.8,N,,*63
$IIVWR,028,L,08.7,N,,,,*7A
$IIDPT,036.5,-1.0,*40
$IIGLL,4629.859,N,00639.811,E,164252,A,A*5F
$IIHDG,184,,,,*5A
$IIMTW,+20.5,C*3F
$IIMWV,333,R,08.7,N,A*1F
$IIMWV,313,T,05.4,N,A*15
$IIRMC,164252,A,4629.859,N,00639.811,E,04.0,187,200808,,,A*4E
$IIVHW,,,184,M,03.8,N,,*62
$IIVWR,027,L,08.7,N,,,,*75
$IIDPT,032.7,-1.0,*46
$IIGLL,4629.857,N,00639.811,E,164254,A,A*57
$IIHDG,183,,,,*5D
$IIMTW,+20.5,C*3F
$IIMWV,333,R,08.7,N,A*1F
$IIMWV,314,T,05.4,N,A*12
$IIRMB,A,0.01,R,,YVOI,,,,,015.99,241,02.2,V,A*7C
$IIRMC,164254,A,4629.857,N,00639.811,E,04.0,185,200808,,,A*44
$IIVHW,,,183,M,03.8,N,,*65
$IIVWR,025,L,08.7,N,,,,*77
$IIDPT,036.5,-1.0,*40
$IIGLL,4629.857,N,00639.811,E,164254,A,A*57
$IIHDG,182,,,,*5C
$IIMTW,+20.5,C*3F
$IIMWV,335,R,08.7,N,A*19
$IIMWV,314,T,05.4,N,A*12
$IIRMC,164254,A,4629.857,N,00639.811,E,04.0,185,200808,,,A*44
$IIVHW,,,180,M,03.8,N,,*66
$IIVWR,025,L,08.7,N,,,,*77
$IIDPT,036.5,-1.0,*40
$IIGLL,4629.854,N,00639.811,E,164256,A,A*56
$IIHDG,180,,,,*5E
$IIMTW,+20.5,C*3F
$IIMWV,335,R,08.7,N,A*19
$IIMWV,319,T,05.4,N,A*1F
$IIRMB,A,0.01,R,,YVOI,,,,,015.99,241,02.0,V,A*7E
$IIRMC,164256,A,4629.854,N,00639.811,E,03.9,182,200808,,,A*4C
$IIVHW,,,179,M,03.8,N,,*60
$IIVWR,025,L,08.7,N,,,,*77
$IIDPT,036.5,-1.0,*40
$IIGLL,4629.854,N,00639.811,E,164256,A,A*56
$IIHDG,179,,,,*58
$IIMTW,+21.0,C*3B
$IIMWV,335,R,08.7,N,A*19
$IIMWV,319,T,05.4,N,A*1F
$IIRMB,A,0.01,R,,YVOI,,,,,015.99,241,02.0,V,A*7E
$IIRMC,164258,A,4629.852,N,00639.811,E,03.9,179,200808,,,A*40
$IIVHW,,,178,M,03.7,N,,*6E
$IIVWR,024,L,08.6,N,,,,*77
$IIDPT,036.5,-1.0,*40
$IIGLL,4629.852,N,00639.811,E,164258,A,A*5E
$IIHDG,175,,,,*54
$IIMTW,+20.5,C*3F
$IIMWV,337,R,08.6,N,A*1A
$IIMWV,319,T,05.3,N,A*18
$IIRMC,164258,A,4629.852,N,00639.811,E,03.9,179,200808,,,A*40
$IIVHW,,,175,M,03.7,N,,*63
$IIVWR,023,L,08.6,N,,,,*70
$IIDPT,036.5,-1.0,*40
$IIGLL,4629.850,N,00639.811,E,164300,A,A*50
$IIHDG,173,,,,*52
$IIMTW,+20.5,C*3F
$IIMWV,338,R,08.6,N,A*15
$IIMWV,321,T,05.2,N,A*12
$IIRMC,164300,A,4629.850,N,00639.811,E,03.9,175,200808,,,A*42
$IIVHW,,,173,M,03.7,N,,*65
$IIVWR,022,L,08.6,N,,,,*71
$IIDPT,034.1,-1.0,*46
$IIGLL,4629.850,N,00639.811,E,164300,A,A*50
$IIHDG,171,,,,*50
$IIMTW,+20.5,C*3F
$IIMWV,339,R,08.6,N,A*14
$IIMWV,323,T,05.2,N,A*10
$IIRMC,164300,A,4629.850,N,00639.811,E,03.9,175,200808,,,A*42
$IIVHW,,,171,M,03.7,N,,*67
$IIVWR,020,L,08.3,N,,,,*76
$IIDPT,031.7,-1.0,*45
$IIGLL,4629.848,N,00639.811,E,164302,A,A*5B
$IIHDG,169,,,,*59
$IIMTW,+20.5,C*3F
$IIMWV,340,R,08.3,N,A*1F
$IIMWV,324,T,05.1,N,A*14
$IIRMB,A,0.02,R,,YVOI,,,,,015.99,241,01.4,V,A*7A
$IIRMC,164304,A,4629.846,N,00639.812,E,03.6,167,200808,,,A*4E
$IIVHW,,,166,M,03.5,N,,*63
$IIVWR,017,L,08.4,N,,,,*75
$IIDPT,031.7,-1.0,*45
$IIGLL,4629.846,N,00639.812,E,164304,A,A*50
$IIHDG,166,,,,*56
$IIMTW,+20.5,C*3F
$IIMWV,343,R,08.4,N,A*1B
$IIMWV,331,T,05.0,N,A*11
$IIRMB,A,0.02,R,,YVOI,,,,,015.99,241,01.1,V,A*7F
$IIRMC,164304,A,4629.846,N,00639.812,E,03.6,167,200808,,,A*4E
$IIVHW,,,164,M,03.5,N,,*61
$IIVWR,018,L,08.2,N,,,,*7C
$IIDPT,036.8,-1.0,*4D
$IIGLL,4629.846,N,00639.812,E,164304,A,A*50
$IIHDG,164,,,,*54
$IIMTW,+20.5,C*3F
$IIMWV,344,R,08.3,N,A*1B
$IIMWV,329,T,04.8,N,A*11
$IIRMB,A,0.02,R,,YVOI,,,,,015.99,241,00.4,V,A*7B
$IIRMC,164306,A,4629.844,N,00639.813,E,03.5,160,200808,,,A*4B
$IIVHW,,,164,M,03.5,N,,*61
$IIVWR,016,L,08.3,N,,,,*73
$IIDPT,026.6,-1.0,*42
$IIGLL,4629.844,N,00639.813,E,164306,A,A*51
$IIHDG,164,,,,*54
$IIMTW,+20.5,C*3F
$IIMWV,346,R,08.1,N,A*1B
$IIMWV,333,T,04.9,N,A*1B
$IIRMC,164306,A,4629.844,N,00639.813,E,03.5,160,200808,,,A*4B
$IIVHW,,,164,M,03.4,N,,*60
$IIVWR,014,L,07.9,N,,,,*74
$IIDPT,026.6,-1.0,*42
$IIGLL,4629.842,N,00639.814,E,164308,A,A*5E
$IIHDG,163,,,,*53
$IIMTW,+18.0,C*31
$IIMWV,346,R,07.9,N,A*1C
$IIMWV,336,T,04.7,N,A*10
$IIRMB,A,0.02,R,,YVOI,,,,,015.99,241,00.2,V,A*7D
$IIRMC,164308,A,4629.842,N,00639.814,E,03.5,163,200808,,,A*47
$IIVHW,,,165,M,03.3,N,,*66
$IIVWR,014,L,08.1,N,,,,*73
$IIDPT,026.6,-1.0,*42
$IIGLL,4629.842,N,00639.814,E,164308,A,A*5E
$IIHDG,165,,,,*55
$IIMTW,+20.0,C*3A
$IIMWV,346,R,08.1,N,A*1B
$IIMWV,337,T,04.7,N,A*11
$IIRMB,A,0.03,R,,YVOI,,,,,015.99,241,00.8,V,A*76
$IIRMC,164310,A,4629.841,N,00639.815,E,03.2,159,200808,,,A*42
$IIVHW,,,165,M,03.3,N,,*66
$IIVWR,014,L,08.0,N,,,,*72
$IIDPT,026.6,-1.0,*42
$IIGLL,4629.841,N,00639.815,E,164310,A,A*55
$IIHDG,169,,,,*59
$IIMTW,+20.0,C*3A
$IIMWV,345,R,07.9,N,A*1F
$IIMWV,337,T,04.7,N,A*11
$IIRMC,164310,A,4629.841,N,00639.815,E,03.2,159,200808,,,A*42
$IIVHW,,,169,M,03.2,N,,*6B
$IIVWR,015,L,07.9,N,,,,*75
$IIDPT,026.6,-1.0,*42
$IIGLL,4629.839,N,00639.815,E,164312,A,A*58
$IIHDG,174,,,,*55
$IIMTW,+20.0,C*3A
$IIMWV,344,R,07.8,N,A*1F
$IIMWV,335,T,04.7,N,A*13
$IIRMB,A,0.03,R,,YVOI,,,,,015.99,241,00.8,V,A*76
$IIRMC,164312,A,4629.839,N,00639.815,E,03.3,172,200808,,,A*47
$IIVHW,,,174,M,03.2,N,,*67
$IIVWR,016,L,07.5,N,,,,*7A
$IIDPT,041.6,-1.0,*43
$IIGLL,4629.839,N,00639.815,E,164312,A,A*58
$IIHDG,176,,,,*57
$IIMTW,+20.5,C*3F
$IIMWV,344,R,07.5,N,A*12
$IIMWV,333,T,04.6,N,A*14
$IIRMC,164312,A,4629.839,N,00639.815,E,03.3,172,200808,,,A*47
$IIVHW,,,182,M,03.1,N,,*6D
$IIVWR,020,L,07.5,N,,,,*7F
$IIDPT,041.6,-1.0,*43
$IIGLL,4629.837,N,00639.815,E,164314,A,A*50
$IIHDG,182,,,,*5C
$IIMTW,+18.0,C*31
$IIMWV,340,R,07.5,N,A*16
$IIMWV,332,T,04.5,N,A*16
$IIRMB,A,0.03,R,,YVOI,,,,,015.98,241,01.3,V,A*7D
$IIRMC,164316,A,4629.835,N,00639.815,E,03.3,189,200808,,,A*4B
$IIVHW,,,186,M,03.1,N,,*69
$IIVWR,024,L,07.5,N,,,,*7B
$IIDPT,041.6,-1.0,*43
$IIGLL,4629.835,N,00639.815,E,164316,A,A*50
$IIHDG,186,,,,*58
$IIMTW,+20.0,C*3A
$IIMWV,336,R,07.5,N,A*17
$IIMWV,321,T,04.7,N,A*16
$IIRMB,A,0.03,R,,YVOI,,,,,015.98,241,01.8,V,A*76
$IIRMC,164316,A,4629.835,N,00639.815,E,03.3,189,200808,,,A*4B
$IIVHW,,,189,M,03.1,N,,*66
$IIVWR,025,L,07.3,N,,,,*7C
$IIDPT,041.6,-1.0,*43
$IIGLL,4629.835,N,00639.815,E,164316,A,A*50
$IIHDG,188,,,,*56
$IIMTW,+20.0,C*3A
$IIMWV,333,R,07.4,N,A*13
$IIMWV,319,T,04.6,N,A*1C
$IIRMB,A,0.03,R,,YVOI,,,,,015.98,241,02.2,V,A*7F
$IIRMC,164318,A,4629.833,N,00639.814,E,03.2,192,200808,,,A*49
$IIVHW,,,188,M,03.1,N,,*67
$IIVWR,027,L,07.4,N,,,,*79
$IIDPT,041.6,-1.0,*43
$IIGLL,4629.833,N,00639.814,E,164318,A,A*59
$IIHDG,185,,,,*5B
$IIMTW,+20.5,C*3F
$IIMWV,330,R,07.4,N,A*10
$IIMWV,316,T,04.7,N,A*12
$IIRMC,164318,A,4629.833,N,00639.814,E,03.2,192,200808,,,A*49
$IIVHW,,,185,M,03.1,N,,*6A
$IIVWR,029,L,07.4,N,,,,*77
$IIDPT,041.6,-1.0,*43
$IIGLL,4629.832,N,00639.814,E,164320,A,A*53
$IIHDG,186,,,,*58
$IIMTW,+20.5,C*3F
$IIMWV,331,R,07.4,N,A*11
$IIMWV,312,T,04.9,N,A*18
$IIRMB,A,0.03,R,,YVOI,,,,,015.98,241,02.1,V,A*7C
$IIRMC,164320,A,4629.832,N,00639.814,E,03.3,186,200808,,,A*47
$IIVHW,,,184,M,03.0,N,,*6A
$IIVWR,028,L,07.5,N,,,,*77
$IIDPT,041.6,-1.0,*43
$IIGLL,4629.832,N,00639.814,E,164320,A,A*53
$IIHDG,184,,,,*5A
$IIMTW,+20.5,C*3F
$IIMWV,332,R,07.5,N,A*13
$IIMWV,315,T,04.9,N,A*1F
$IIRMB,A,0.04,R,,YVOI,,,,,015.98,241,01.8,V,A*71
$IIRMC,164322,A,4629.830,N,00639.813,E,03.1,186,200808,,,A*42
$IIVHW,,,183,M,03.0,N,,*6D
$IIVWR,027,L,07.4,N,,,,*79
$IIDPT,019.9,-1.0,*41
$IIGLL,4629.830,N,00639.813,E,164322,A,A*54
$IIHDG,183,,,,*5D
$IIMTW,+20.5,C*3F
$IIMWV,335,R,07.5,N,A*14
$IIMWV,317,T,04.8,N,A*1C
$IIRMC,164322,A,4629.830,N,00639.813,E,03.1,186,200808,,,A*42
$IIVHW,,,183,M,03.0,N,,*6D
$IIVWR,025,L,07.5,N,,,,*7A
$IIDPT,019.9,-1.0,*41
$IIGLL,4629.828,N,00639.813,E,164324,A,A*5B
$IIHDG,182,,,,*5C
$IIMTW,+20.5,C*3F
$IIMWV,000,R,00.0,N,A*13
$IIMWV,321,T,04.9,N,A*18
$IIRMB,A,0.04,R,,YVOI,,,,,015.98,241,01.7,V,A*7E
$IIRMC,164324,A,4629.828,N,00639.813,E,03.2,184,200808,,,A*4C
$IIVHW,,,182,M,03.0,N,,*6C
$IIVWR,023,L,07.5,N,,,,*7C
$IIDPT,009.6,-1.0,*4F
$IIGLL,4629.828,N,00639.813,E,164324,A,A*5B
$IIHDG,182,,,,*5C
$IIMTW,+20.5,C*3F
$IIMWV,337,R,07.5,N,A*16
$IIMWV,000,T,03.0,N,A*16
$IIRMC,164324,A,4629.828,N,00639.813,E,03.2,184,200808,,,A*4C
$IIVHW,,,183,M,02.9,N,,*65
$IIVWR,025,L,07.3,N,,,,*7C
$IIDPT,009.6,-1.0,*4F
$IIGLL,4629.827,N,00639.813,E,164326,A,A*56
$IIHDG,183,,,,*5D
$IIMTW,+20.5,C*3F
$IIMWV,335,R,07.3,N,A*12
$IIMWV,323,T,04.8,N,A*1B
$IIRMB,A,0.04,R,,YVOI,,,,,015.98,241,01.5,V,A*7C
$IIRMC,164328,A,4629.825,N,00639.813,E,03.1,185,200808,,,A*4F
$IIVHW,,,184,M,02.8,N,,*63
$IIVWR,024,L,07.4,N,,,,*7A
$IIDPT,009.6,-1.0,*4F
$IIGLL,4629.825,N,00639.813,E,164328,A,A*5A
$IIHDG,184,,,,*5A
$IIMTW,+20.5,C*3F
$IIMWV,336,R,07.4,N,A*16
$IIMWV,322,T,04.8,N,A*1A
$IIRMB,A,0.04,R,,YVOI,,,,,015.98,241,01.7,V,A*7E
$IIRMC,164328,A,4629.825,N,00639.813,E,03.1,185,200808,,,A*4F
$IIVHW,,,184,M,02.8,N,,*63
$IIVWR,026,L,07.1,N,,,,*7D
$IIDPT,009.6,-1.0,*4F
$IIGLL,4629.825,N,00639.813,E,164328,A,A*5A
$IIHDG,185,,,,*5B
$IIMTW,+18.0,C*31
$IIMWV,335,R,07.3,N,A*12
$IIMWV,319,T,04.6,N,A*1C
$IIRMB,A,0.04,R,,YVOI,,,,,015.98,242,01.8,V,A*72
$IIRMC,164330,A,4629.823,N,00639.812,E,02.9,185,200808,,,A*48
$IIVHW,,,185,M,02.8,N,,*62
$IIVWR,025,L,07.3,N,,,,*7C
$IIDPT,009.6,-1.0,*4F
$IIGLL,4629.823,N,00639.812,E,164330,A,A*54
$IIHDG,185,,,,*5B
$IIMTW,+20.5,C*3F
$IIMWV,333,R,07.1,N,A*16
$IIMWV,322,T,04.8,N,A*1A
$IIRMC,164330,A,4629.823,N,00639.812,E,02.9,185,200808,,,A*48
$IIVHW,,,185,M,02.8,N,,*62
$IIVWR,027,L,07.0,N,,,,*7D
$IIDPT,009.6,-1.0,*4F
$IIGLL,4629.822,N,00639.812,E,164332,A,A*57
$IIHDG,185,,,,*5B
$IIMTW,+20.5,C*3F
$IIMWV,333,R,07.0,N,A*17
$IIMWV,319,T,04.6,N,A*1C
$IIRMB,A,0.04,R,,YVOI,,,,,015.98,242,01.7,V,A*7D
$IIRMC,164332,A,4629.822,N,00639.812,E,03.0,188,200808,,,A*4E
$IIVHW,,,185,M,02.7,N,,*6D
$IIVWR,024,L,06.9,N,,,,*76
$IIDPT,009.6,-1.0,*4F
$IIGLL,4629.822,N,00639.812,E,164332,A,A*57
$IIHDG,185,,,,*5B
$IIMTW,+20.5,C*3F
$IIMWV,336,R,06.9,N,A*1A
$IIMWV,321,T,04.4,N,A*15
$IIRMC,164334,A,4629.820,N,00639.812,E,02.8,186,200808,,,A*4D
$IIVHW,,,183,M,02.7,N,,*6B
$IIVWR,026,L,06.8,N,,,,*75
$IIDPT,009.7,-1.0,*4E
$IIGLL,4629.820,N,00639.812,E,164334,A,A*53
$IIHDG,183,,,,*5D
$IIMTW,+20.5,C*3F
$IIMWV,335,R,06.8,N,A*18
$IIMWV,320,T,04.4,N,A*14
$IIRMC,164334,A,4629.820,N,00639.812,E,02.8,186,200808,,,A*4D
$IIVHW,,,184,M,02.7,N,,*6C
$IIVWR,025,L,06.8,N,,,,*76
$IIDPT,010.2,-1.0,*43
$IIGLL,4629.820,N,00639.812,E,164334,A,A*53
$IIHDG,184,,,,*5A
$IIMTW,+20.5,C*3F
$IIMWV,335,R,06.8,N,A*18
$IIMWV,320,T,04.4,N,A*14
$IIRMB,A,0.04,R,,YVOI,,,,,015.97,242,01.8,V,A*7D
$IIRMC,164336,A,4629.818,N,00639.811,E,03.0,185,200808,,,A*4D
$IIVHW,,,185,M,02.7,N,,*6D
$IIVWR,025,L,06.8,N,,,,*76
$IIDPT,010.0,-1.0,*41
$IIGLL,4629.818,N,00639.811,E,164336,A,A*59
$IIHDG,185,,,,*5B
$IIMTW,+20.5,C*3F
$IIMWV,334,R,07.0,N,A*10
$IIMWV,320,T,04.4,N,A*14
$IIRMC,164336,A,4629.818,N,00639.811,E,03.0,185,200808,,,A*4D
$IIVHW,,,185,M,02.7,N,,*6D
$IIVWR,026,L,07.0,N,,,,*7C
$IIDPT,009.9,-1.0,*40
$IIGLL,4629.817,N,00639.811,E,164338,A,A*58
$IIHDG,186,,,,*58
$IIMTW,+20.5,C*3F
$IIMWV,333,R,07.2,N,A*15
$IIMWV,320,T,04.6,N,A*16
$IIRMB,A,0.05,R,,YVOI,,,,,015.97,242,01.9,V,A*7D
$IIRMC,164338,A,4629.817,N,00639.811,E,02.9,187,200808,,,A*46
$IIVHW,,,186,M,02.6,N,,*6F
$IIVWR,026,L,07.1,N,,,,*7D
$IIDPT,009.9,-1.0,*40
$IIGLL,4629.817,N,00639.811,E,164338,A,A*58
$IIHDG,185,,,,*5B
$IIMTW,+20.5,C*3F
$IIMWV,334,R,07.1,N,A*11
$IIMWV,320,T,04.9,N,A*19
$IIRMC,164338,A,4629.817,N,00639.811,E,02.9,187,200808,,,A*46
$IIVHW,,,185,M,02.6,N,,*6C
$IIVWR,024,L,07.2,N,,,,*7C
$IIDPT,009.9,-1.0,*40
$IIGLL,4629.815,N,00639.810,E,164340,A,A*54
$IIHDG,185,,,,*5B
$IIMTW,+20.5,C*3F
$IIMWV,336,R,07.2,N,A*10
$IIMWV,320,T,04.8,N,A*18
$IIRMB,A,0.05,R,,YVOI,,,,,015.97,242,01.9,V,A*7D
$IIRMC,164340,A,4629.815,N,00639.810,E,03.1,193,200808,,,A*46
$IIVHW,,,185,M,02.6,N,,*6C
$IIVWR,025,L,07.0,N,,,,*7F
$IIDPT,009.9,-1.0,*40
$IIGLL,4629.815,N,00639.810,E,164340,A,A*54
$IIHDG,185,,,,*5B
$IIMTW,+20.5,C*3F
$IIMWV,335,R,07.0,N,A*11
$IIMWV,321,T,04.6,N,A*17
$IIRMB,A,0.05,R,,YVOI,,,,,015.97,242,01.8,V,A*7C
$IIRMC,164342,A,4629.814,N,00639.810,E,02.8,189,200808,,,A*46
$IIVHW,,,185,M,02.7,N,,*6D
$IIVWR,029,L,06.9,N,,,,*7B
$IIDPT,009.9,-1.0,*40
$IIGLL,4629.814,N,00639.810,E,164342,A,A*57
$IIHDG,185,,,,*5B
$IIMTW,+20.5,C*3F
$IIMWV,332,R,06.9,N,A*1E
$IIMWV,315,T,04.6,N,A*10
$IIRMC,164342,A,4629.814,N,00639.810,E,02.8,189,200808,,,A*46
$IIVHW,,,185,M,02.7,N,,*6D
$IIVWR,028,L,06.9,N,,,,*7A
$IIDPT,009.7,-1.0,*4E
$IIGLL,4629.812,N,00639.810,E,164344,A,A*57
$IIHDG,184,,,,*5A
$IIMTW,+20.5,C*3F
$IIMWV,330,R,06.8,N,A*1D
$IIMWV,316,T,04.5,N,A*10
$IIRMB,A,0.05,R,,YVOI,,,,,015.97,242,01.7,V,A*73
$IIRMC,164344,A,4629.812,N,00639.810,E,03.0,189,200808,,,A*4F
$IIVHW,,,184,M,02.7,N,,*6C
$IIVWR,031,L,07.0,N,,,,*7A
$IIDPT,009.7,-1.0,*4E
$IIGLL,4629.812,N,00639.810,E,164344,A,A*57
$IIHDG,185,,,,*5B
$IIMTW,+20.5,C*3F
$IIMWV,329,R,07.0,N,A*1C
$IIMWV,312,T,04.6,N,A*17
$IIRMC,164344,A,4629.812,N,00639.810,E,03.0,189,200808,,,A*4F
$IIVHW,,,184,M,02.7,N,,*6C
$IIVWR,032,L,06.9,N,,,,*71
$IIDPT,009.7,-1.0,*4E
$IIGLL,4629.810,N,00639.809,E,164346,A,A*5F
$IIHDG,184,,,,*5A
$IIMTW,+20.5,C*3F
$IIMWV,328,R,06.9,N,A*15
$IIMWV,312,T,04.8,N,A*19
$IIRMB,A,0.05,R,,YVOI,,,,,015.97,242,01.8,V,A*7C
$IIRMC,164346,A,4629.810,N,00639.809,E,03.0,190,200808,,,A*4F
$IIVHW,,,184,M,02.8,N,,*63
$IIVWR,034,L,07.0,N,,,,*7F
$IIDPT,009.7,-1.0,*4E
$IIGLL,4629.810,N,00639.809,E,164346,A,A*5F
$IIHDG,184,,,,*5A
$IIMTW,+20.5,C*3F
$IIMWV,326,R,07.0,N,A*13
$IIMWV,308,T,04.9,N,A*13
$IIRMB,A,0.05,R,,YVOI,,,,,015.97,242,01.8,V,A*7C
$IIRMC,164348,A,4629.809,N,00639.809,E,03.0,185,200808,,,A*4D
$IIVHW,,,184,M,02.8,N,,*63
$IIVWR,028,L,07.0,N,,,,*72
$IIDPT,009.7,-1.0,*4E
$IIGLL,4629.809,N,00639.809,E,164348,A,A*59
$IIHDG,183,,,,*5D
$IIMTW,+20.5,C*3F
$IIMWV,330,R,07.1,N,A*15
$IIMWV,316,T,04.5,N,A*10
$IIRMC,164348,A,4629.809,N,00639.809,E,03.0,185,200808,,,A*4D
$IIVHW,,,183,M,02.8,N,,*64
$IIVWR,030,L,07.1,N,,,,*7A
$IIDPT,009.7,-1.0,*4E
$IIGLL,4629.809,N,00639.809,E,164348,A,A*59
$IIHDG,184,,,,*5A
$IIMTW,+20.5,C*3F
$IIMWV,331,R,06.9,N,A*1D
$IIMWV,313,T,04.8,N,A*18
$IIRMB,A,0.05,R,,YVOI,,,,,015.97,242,01.8,V,A*7C
$IIRMC,164348,A,4629.809,N,00639.809,E,03.0,185,200808,,,A*4D
$IIVHW,,,184,M,02.8,N,,*63
$IIVWR,027,L,06.9,N,,,,*75
$IIDPT,055.6,-1.0,*46
$IIGLL,4629.807,N,00639.809,E,164350,A,A*5E
$IIHDG,185,,,,*5B
$IIMTW,+20.5,C*3F
$IIMWV,333,R,06.9,N,A*1F
$IIMWV,314,T,04.5,N,A*12
$IIRMC,164350,A,4629.807,N,00639.809,E,03.0,185,200808,,,A*4A
$IIVHW,,,184,M,02.8,N,,*63
$IIVWR,027,L,06.8,N,,,,*74
$IIDPT,009.9,-1.0,*40
$IIGLL,4629.805,N,00639.808,E,164352,A,A*5F
$IIHDG,184,,,,*5A
$IIMTW,+20.5,C*3F
$IIMWV,333,R,06.8,N,A*1E
$IIMWV,317,T,04.5,N,A*11
$IIRMB,A,0.06,R,,YVOI,,,,,015.97,242,01.8,V,A*7F
$IIRMC,164352,A,4629.805,N,00639.808,E,03.0,188,200808,,,A*46
$IIVHW,,,185,M,02.8,N,,*62
$IIVWR,026,L,06.8,N,,,,*75
$IIDPT,009.8,-1.0,*41
$IIGLL,4629.805,N,00639.808,E,164352,A,A*5F
$IIHDG,185,,,,*5B
$IIMTW,+20.5,C*3F
$IIMWV,334,R,06.8,N,A*19
$IIMWV,319,T,04.3,N,A*19
$IIRMB,A,0.06,R,,YVOI,,,,,015.96,242,01.7,V,A*71
$IIRMC,164354,A,4629.804,N,00639.808,E,03.1,190,200808,,,A*49
$IIVHW,,,184,M,02.8,N,,*63
$IIVWR,028,L,06.7,N,,,,*74
$IIDPT,009.7,-1.0,*4E
$IIGLL,4629.804,N,00639.808,E,164354,A,A*58
$IIHDG,184,,,,*5A
$IIMTW,+20.5,C*3F
$IIMWV,332,R,06.9,N,A*1E
$IIMWV,314,T,04.3,N,A*14
$IIRMC,164354,A,4629.804,N,00639.808,E,03.1,190,200808,,,A*49
$IIVHW,,,184,M,02.8,N,,*63
$IIVWR,028,L,06.9,N,,,,*7A
$IIDPT,009.7,-1.0,*4E
$IIGLL,4629.802,N,00639.807,E,164356,A,A*53
$IIHDG,185,,,,*5B
$IIMTW,+20.5,C*3F
$IIMWV,333,R,06.9,N,A*1F
$IIMWV,315,T,04.5,N,A*13
$IIRMB,A,0.06,R,,YVOI,,,,,015.96,242,01.7,V,A*71
$IIRMC,164356,A,4629.802,N,00639.807,E,03.0,188,200808,,,A*4A
$IIVHW,,,185,M,02.8,N,,*62
$IIVWR,028,L,07.0,N,,,,*72
$IIDPT,009.7,-1.0,*4E
$IIGLL,4629.802,N,00639.807,E,164356,A,A*53
$IIHDG,184,,,,*5A
$IIMTW,+18.0,C*31
$IIMWV,332,R,07.0,N,A*16
$IIMWV,317,T,04.5,N,A*11
$IIRMC,164356,A,4629.802,N,00639.807,E,03.0,188,200808,,,A*4A
$IIVHW,,,184,M,02.8,N,,*63
$IIVWR,029,L,07.2,N,,,,*71
$IIDPT,009.7,-1.0,*4E
$IIGLL,4629.800,N,00639.807,E,164358,A,A*5F
$IIHDG,184,,,,*5A
$IIMTW,+19.5,C*35
$IIMWV,331,R,07.2,N,A*17
$IIMWV,315,T,04.5,N,A*13
$IIRMB,A,0.06,R,,YVOI,,,,,015.96,242,01.8,V,A*7E
$IIRMC,164358,A,4629.800,N,00639.807,E,03.0,187,200808,,,A*49
$IIVHW,,,184,M,02.8,N,,*63
$IIVWR,029,L,07.1,N,,,,*72
$IIDPT,009.8,-1.0,*41
$IIGLL,4629.800,N,00639.807,E,164358,A,A*5F
$IIHDG,184,,,,*5A
$IIMTW,+20.0,C*3A
$IIMWV,331,R,07.1,N,A*14
$IIMWV,313,T,04.6,N,A*16
$IIRMB,A,0.06,R,,YVOI,,,,,015.96,242,01.8,V,A*7E
$IIRMC,164400,A,4629.799,N,00639.807,E,03.1,185,200808,,,A*4F
$IIVHW,,,184,M,02.8,N,,*63
$IIVWR,028,L,07.2,N,,,,*70
$IIDPT,009.8,-1.0,*41
$IIGLL,4629.799,N,00639.807,E,164400,A,A*5A
$IIHDG,183,,,,*5D
$IIMTW,+20.0,C*3A
$IIMWV,331,R,07.2,N,A*17
$IIMWV,317,T,04.8,N,A*1C
$IIRMC,164400,A,4629.799,N,00639.807,E,03.1,185,200808,,,A*4F
$IIVHW,,,183,M,02.8,N,,*64
$IIVWR,029,L,07.2,N,,,,*71
$IIDPT,009.8,-1.0,*41
$IIGLL,4629.797,N,00639.806,E,164402,A,A*57
$IIHDG,183,,,,*5D
$IIMTW,+20.0,C*3A
$IIMWV,331,R,07.3,N,A*16
$IIMWV,315,T,04.8,N,A*1E
$IIRMB,A,0.06,R,,YVOI,,,,,015.96,242,01.7,V,A*71
$IIRMC,164402,A,4629.797,N,00639.806,E,03.0,186,200808,,,A*40
$IIVHW,,,183,M,02.8,N,,*64
$IIVWR,029,L,07.2,N,,,,*71
$IIDPT,009.8,-1.0,*41
$IIGLL,4629.797,N,00639.806,E,164402,A,A*57
$IIHDG,184,,,,*5A
$IIMTW,+20.0,C*3A
$IIMWV,331,R,07.2,N,A*17
$IIMWV,315,T,04.9,N,A*1F
$IIRMC,164402,A,4629.797,N,00639.806,E,03.0,186,200808,,,A*40
$IIVHW,,,183,M,02.8,N,,*64
$IIVWR,029,L,07.1,N,,,,*72
$IIDPT,009.8,-1.0,*41
$IIGLL,4629.795,N,00639.806,E,164404,A,A*53
$IIHDG,183,,,,*5D
$IIMTW,+20.0,C*3A
$IIMWV,331,R,07.1,N,A*14
$IIMWV,315,T,04.8,N,A*1E
$IIRMB,A,0.06,R,,YVOI,,,,,015.96,242,01.7,V,A*71
$IIRMC,164404,A,4629.795,N,00639.806,E,03.0,187,200808,,,A*45
$IIVHW,,,183,M,02.8,N,,*64
$IIVWR,028,L,07.2,N,,,,*70
$IIDPT,009.8,-1.0,*41
$IIGLL,4629.795,N,00639.806,E,164404,A,A*53
$IIHDG,183,,,,*5D
$IIMTW,+20.0,C*3A
$IIMWV,332,R,07.2,N,A*14
$IIMWV,317,T,04.8,N,A*1C
$IIRMB,A,0.06,R,,YVOI,,,,,015.96,242,01.6,V,A*70
$IIRMC,164406,A,4629.794,N,00639.806,E,02.9,187,200808,,,A*4E
$IIVHW,,,182,M,02.8,N,,*65
$IIVWR,028,L,07.2,N,,,,*70
$IIDPT,009.8,-1.0,*41
$IIGLL,4629.794,N,00639.806,E,164406,A,A*50
$IIHDG,183,,,,*5D
$IIMTW,+20.5,C*3F
$IIMWV,332,R,07.2,N,A*14
$IIMWV,317,T,04.8,N,A*1C
$IIRMC,164406,A,4629.794,N,00639.806,E,02.9,187,200808,,,A*4E
$IIVHW,,,183,M,02.8,N,,*64
$IIVWR,028,L,07.2,N,,,,*70
$IIDPT,009.8,-1.0,*41
$IIGLL,4629.792,N,00639.806,E,164408,A,A*58
$IIHDG,183,,,,*5D
$IIMTW,+20.5,C*3F
$IIMWV,332,R,07.2,N,A*14
$IIMWV,317,T,04.8,N,A*1C
$IIRMB,A,0.07,R,,YVOI,,,,,015.96,242,01.7,V,A*70
$IIRMC,164408,A,4629.792,N,00639.806,E,02.9,184,200808,,,A*45
$IIVHW,,,183,M,02.8,N,,*64
$IIVWR,027,L,07.3,N,,,,*7E
$IIDPT,009.9,-1.0,*40
$IIGLL,4629.792,N,00639.806,E,164408,A,A*58
$IIHDG,182,,,,*5C
$IIMTW,+20.5,C*3F
$IIMWV,333,R,07.3,N,A*14
$IIMWV,317,T,04.8,N,A*1C
$IIRMC,164408,A,4629.792,N,00639.806,E,02.9,184,200808,,,A*45
$IIVHW,,,182,M,02.8,N,,*65
$IIVWR,027,L,07.1,N,,,,*7C
$IIDPT,009.9,-1.0,*40
$IIGLL,4629.790,N,00639.805,E,164410,A,A*50
$IIHDG,182,,,,*5C
$IIMTW,+20.5,C*3F
$IIMWV,333,R,07.1,N,A*16
$IIMWV,318,T,04.8,N,A*13
$IIRMB,A,0.07,R,,YVOI,,,,,015.96,242,01.7,V,A*70
$IIRMC,164410,A,4629.790,N,00639.805,E,03.0,186,200808,,,A*47
$IIVHW,,,183,M,02.8,N,,*64
$IIVWR,027,L,07.1,N,,,,*7C
$IIDPT,009.9,-1.0,*40
$IIGLL,4629.790,N,00639.805,E,164410,A,A*50
$IIHDG,183,,,,*5D
$IIMTW,+20.5,C*3F
$IIMWV,333,R,07.1,N,A*16
$IIMWV,319,T,04.6,N,A*1C
$IIRMB,A,0.07,R,,YVOI,,,,,015.96,242,01.7,V,A*70
$IIRMC,164412,A,4629.789,N,00639.805,E,02.9,187,200808,,,A*44
$IIVHW,,,184,M,02.8,N,,*63
$IIVWR,026,L,07.1,N,,,,*7D
$IIDPT,009.9,-1.0,*40
$IIGLL,4629.789,N,00639.805,E,164412,A,A*5A
$IIHDG,184,,,,*5A
$IIMTW,+20.5,C*3F
$IIMWV,331,R,07.1,N,A*14
$IIMWV,319,T,04.6,N,A*1C
$IIRMC,164412,A,4629.789,N,00639.805,E,02.9,187,200808,,,A*44
$IIVHW,,,184,M,02.8,N,,*63
$IIVWR,029,L,07.1,N,,,,*72
$IIDPT,010.1,-1.0,*40
$IIGLL,4629.787,N,00639.804,E,164414,A,A*53
$IIHDG,185,,,,*5B
$IIMTW,+20.5,C*3F
$IIMWV,331,R,07.1,N,A*14
$IIMWV,313,T,04.6,N,A*16
$IIRMB,A,0.07,R,,YVOI,,,,,015.95,242,01.9,V,A*7D
$IIRMC,164414,A,4629.787,N,00639.804,E,03.0,188,200808,,,A*4A
$IIVHW,,,185,M,02.8,N,,*62
$IIVWR,029,L,07.1,N,,,,*72
$IIDPT,010.2,-1.0,*43
$IIGLL,4629.787,N,00639.804,E,164414,A,A*53
$IIHDG,185,,,,*5B
$IIMTW,+20.5,C*3F
$IIMWV,331,R,07.1,N,A*14
$IIMWV,313,T,04.6,N,A*16
$IIRMC,164414,A,4629.787,N,00639.804,E,03.0,188,200808,,,A*4A
$IIVHW,,,186,M,02.8,N,,*61
$IIVWR,032,L,07.1,N,,,,*78
$IIDPT,010.2,-1.0,*43
$IIGLL,4629.785,N,00639.804,E,164416,A,A*53
$IIHDG,186,,,,*58
$IIMTW,+20.5,C*3F
$IIMWV,328,R,07.1,N,A*1C
$IIMWV,313,T,04.6,N,A*16
$IIRMB,A,0.07,R,,YVOI,,,,,015.95,242,01.8,V,A*7C
$IIRMC,164416,A,4629.785,N,00639.804,E,03.1,193,200808,,,A*41
$IIVHW,,,186,M,02.9,N,,*60
$IIVWR,031,L,07.2,N,,,,*78
$IIDPT,010.2,-1.0,*43
$IIGLL,4629.785,N,00639.804,E,164416,A,A*53
$IIHDG,186,,,,*58
$IIMTW,+21.5,C*3E
$IIMWV,329,R,07.2,N,A*1E
$IIMWV,311,T,04.8,N,A*1A
$IIRMB,A,0.07,R,,YVOI,,,,,015.95,242,02.0,V,A*77
$IIRMC,164418,A,4629.784,N,00639.803,E,03.1,189,200808,,,A*42
$IIVHW,,,187,M,02.9,N,,*61
$IIVWR,030,L,07.1,N,,,,*7A
$IIDPT,010.2,-1.0,*43
$IIGLL,4629.784,N,00639.803,E,164418,A,A*5B
$IIHDG,187,,,,*59
$IIMTW,+20.5,C*3F
$IIMWV,329,R,07.1,N,A*1D
$IIMWV,312,T,04.7,N,A*16
$IIRMC,164418,A,4629.784,N,00639.803,E,03.1,189,200808,,,A*42
$IIVHW,,,187,M,02.9,N,,*61
$IIVWR,031,L,07.1,N,,,,*7B
$IIDPT,010.2,-1.0,*43
$IIGLL,4629.782,N,00639.803,E,164420,A,A*56
$IIHDG,187,,,,*59
$IIMTW,+20.5,C*3F
$IIMWV,327,R,07.1,N,A*13
$IIMWV,312,T,04.8,N,A*19
$IIRMB,A,0.07,R,,YVOI,,,,,015.95,242,02.0,V,A*77
$IIRMC,164420,A,4629.782,N,00639.803,E,03.2,192,200808,,,A*46
$IIVHW,,,187,M,02.9,N,,*61
$IIVWR,033,L,07.2,N,,,,*7A
$IIDPT,010.2,-1.0,*43
$IIGLL,4629.782,N,00639.803,E,164420,A,A*56
$IIHDG,188,,,,*56
$IIMTW,+21.5,C*3E
$IIMWV,327,R,07.2,N,A*10
$IIMWV,307,T,04.7,N,A*12
$IIRMC,164420,A,4629.782,N,00639.803,E,03.2,192,200808,,,A*46
$IIVHW,,,189,M,03.0,N,,*67
$IIVWR,034,L,07.2,N,,,,*7D
$IIDPT,010.2,-1.0,*43
$IIGLL,4629.780,N,00639.802,E,164422,A,A*57
$IIHDG,189,,,,*57
$IIMTW,+20.5,C*3F
$IIMWV,326,R,07.2,N,A*11
$IIMWV,308,T,04.8,N,A*12
$IIRMB,A,0.08,R,,YVOI,,,,,015.95,242,02.1,V,A*79
$IIRMC,164422,A,4629.780,N,00639.802,E,03.2,190,200808,,,A*45
$IIVHW,,,188,M,03.0,N,,*66
$IIVWR,034,L,07.2,N,,,,*7D
$IIDPT,010.2,-1.0,*43
$IIGLL,4629.780,N,00639.802,E,164422,A,A*57
$IIHDG,188,,,,*56
$IIMTW,+20.5,C*3F
$IIMWV,326,R,07.2,N,A*11
$IIMWV,306,T,04.9,N,A*1D
$IIRMB,A,0.08,R,,YVOI,,,,,015.95,242,02.2,V,A*7A
$IIRMC,164424,A,4629.779,N,00639.802,E,03.2,191,200808,,,A*44
$IIVHW,,,188,M,03.0,N,,*66
$IIVWR,034,L,07.3,N,,,,*7C
$IIDPT,010.2,-1.0,*43
$IIGLL,4629.779,N,00639.802,E,164424,A,A*57
$IIHDG,188,,,,*56
$IIMTW,+20.5,C*3F
$IIMWV,325,R,07.2,N,A*12
$IIMWV,306,T,04.9,N,A*1D
$IIRMC,164424,A,4629.779,N,00639.802,E,03.2,191,200808,,,A*44
$IIVHW,,,188,M,03.0,N,,*66
$IIVWR,035,L,07.2,N,,,,*7C
$IIDPT,010.2,-1.0,*43
$IIGLL,4629.777,N,00639.801,E,164426,A,A*58
$IIHDG,188,,,,*56
$IIMTW,+20.5,C*3F
$IIMWV,325,R,07.2,N,A*12
$IIMWV,304,T,04.9,N,A*1F
$IIRMB,A,0.08,R,,YVOI,,,,,015.95,242,02.2,V,A*7A
$IIRMC,164426,A,4629.777,N,00639.801,E,03.3,194,200808,,,A*4F
$IIVHW,,,188,M,03.0,N,,*66
$IIVWR,035,L,07.2,N,,,,*7C
$IIDPT,064.7,-1.0,*45
$IIGLL,4629.775,N,00639.801,E,164428,A,A*54
$IIHDG,189,,,,*57
$IIMTW,+20.5,C*3F
$IIMWV,325,R,07.2,N,A*12
$IIMWV,304,T,04.9,N,A*1F
$IIRMB,A,0.08,R,,YVOI,,,,,015.95,242,02.0,V,A*78
$IIRMC,164428,A,4629.775,N,00639.801,E,03.4,193,200808,,,A*43
