$IIRMC,132647,A,4612.888,N,00610.030,E,04.7,310,050814,,,A*48
$IIVHW,,,305,M,03.6,N,,*67
$IIVLW,53412,N,000.1,N*53
$IIVWR,042,R,13.1,N,,,,*64
$IIDPT,007.0,+0.7,*47
$IIGLL,4612.888,N,00610.030,E,132647,A,A*58
$IIHDG,306,,,,*52
$IIMTW,+21.0,C*3B
$IIMWV,042,R,12.4,N,A*12
$IIMWV,055,T,10.5,N,A*11
$IIRMC,132648,A,4612.889,N,00610.029,E,04.3,306,050814,,,A*4D
$IIVHW,,,306,M,03.6,N,,*64
$IIVLW,53412,N,000.1,N*53
$IIVWR,042,R,12.4,N,,,,*60
$IIDPT,007.0,+0.7,*47
$IIGLL,4612.891,N,00610.026,E,132650,A,A*51
$IIHDG,305,,,,*51
$IIMTW,+21.0,C*3B
$IIMWV,044,R,13.1,N,A*10
$IIMWV,056,T,10.5,N,A*12
$IIRMC,132650,A,4612.891,N,00610.026,E,03.8,292,050814,,,A*42
$IIVHW,,,305,M,03.6,N,,*67
$IIVLW,53412,N,000.1,N*53
$IIVWR,044,R,13.1,N,,,,*62
$IIDPT,007.0,+0.7,*47
$IIGLL,4612.891,N,00610.025,E,132651,A,A*53
$IIHDG,306,,,,*52
$IIMTW,+21.0,C*3B
$IIMWV,044,R,13.2,N,A*13
$IIMWV,057,T,10.7,N,A*11
$IIRMC,132651,A,4612.891,N,00610.025,E,04.0,306,050814,,,A*43
$IIVHW,,,306,M,03.6,N,,*64
$IIVLW,53412,N,000.1,N*53
$IIVWR,043,R,13.2,N,,,,*66
$IIDPT,007.0,+0.7,*47
$IIGLL,4612.892,N,00610.023,E,132652,A,A*55
$IIHDG,306,,,,*52
$IIMTW,+21.0,C*3B
$IIMWV,043,R,13.2,N,A*14
$IIMWV,057,T,10.8,N,A*1E
$IIRMC,132652,A,4612.892,N,00610.023,E,04.1,304,050814,,,A*46
$IIVHW,,,306,M,03.6,N,,*64
$IIVLW,53412,N,000.1,N*53
$IIVWR,042,R,14.1,N,,,,*63
$IIDPT,007.0,+0.7,*47
$IIGLL,4612.893,N,00610.022,E,132653,A,A*54
$IIHDG,306,,,,*52
$IIMTW,+21.0,C*3B
$IIMWV,042,R,14.1,N,A*11
$IIMWV,056,T,10.7,N,A*10
$IIRMC,132653,A,4612.893,N,00610.022,E,04.1,305,050814,,,A*46
$IIVHW,,,308,M,03.7,N,,*6B
$IIVLW,53412,N,000.1,N*53
$IIVWR,041,R,13.7,N,,,,*61
$IIDPT,007.0,+0.7,*47
$IIGLL,4612.893,N,00610.022,E,132653,A,A*54
$IIHDG,308,,,,*5C
$IIMTW,+21.0,C*3B
$IIMWV,041,R,13.7,N,A*13
$IIMWV,054,T,11.6,N,A*12
$IIRMC,132655,A,4612.894,N,00610.020,E,03.9,307,050814,,,A*48
$IIVHW,,,307,M,03.7,N,,*64
$IIVLW,53412,N,000.1,N*53
$IIVWR,042,R,13.5,N,,,,*60
$IIDPT,007.0,+0.7,*47
$IIGLL,4612.894,N,00610.020,E,132655,A,A*57
$IIHDG,307,,,,*53
$IIMTW,+21.0,C*3B
$IIMWV,042,R,13.5,N,A*12
$IIMWV,056,T,10.9,N,A*1E
$IIRMC,132656,A,4612.895,N,00610.019,E,04.4,308,050814,,,A*45
$IIVHW,,,308,M,03.6,N,,*6A
$IIVLW,53412,N,000.1,N*53
$IIVWR,043,R,14.1,N,,,,*62
$IIDPT,007.0,+0.7,*47
$IIGLL,4612.895,N,00610.019,E,132656,A,A*5F
$IIHDG,308,,,,*5C
$IIMTW,+21.0,C*3B
$IIMWV,044,R,14.6,N,A*10
$IIMWV,056,T,11.5,N,A*13
$IIRMC,132657,A,4612.895,N,00610.018,E,04.2,307,050814,,,A*4C
$IIVHW,,,308,M,03.6,N,,*6A
$IIVLW,53412,N,000.1,N*53
$IIVWR,044,R,14.6,N,,,,*62
$IIDPT,007.0,+0.7,*47
$IIGLL,4612.895,N,00610.018,E,132657,A,A*5F
$IIHDG,308,,,,*5C
$IIMTW,+21.0,C*3B
$IIMWV,043,R,14.0,N,A*11
$IIMWV,056,T,12.0,N,A*15
$IIRMC,132658,A,4612.896,N,00610.016,E,04.2,303,050814,,,A*4A
$IIVHW,,,309,M,03.6,N,,*6B
$IIVLW,53412,N,000.1,N*53
$IIVWR,043,R,14.0,N,,,,*63
$IIDPT,007.0,+0.7,*47
$IIGLL,4612.896,N,00610.016,E,132658,A,A*5D
$IIHDG,310,,,,*55
$IIMTW,+21.0,C*3B
$IIMWV,044,R,13.5,N,A*14
$IIMWV,055,T,11.5,N,A*10
$IIRMC,132659,A,4612.896,N,00610.015,E,03.7,305,050814,,,A*4C
$IIVHW,,,310,M,03.6,N,,*63
$IIVLW,53412,N,000.1,N*53
$IIVWR,044,R,13.5,N,,,,*66
$IIDPT,007.0,+0.7,*47
$IIGLL,4612.897,N,00610.014,E,132700,A,A*52
$IIHDG,311,,,,*54
$IIMTW,+21.0,C*3B
$IIMWV,044,R,14.1,N,A*17
$IIMWV,057,T,11.1,N,A*16
$IIRMC,132700,A,4612.897,N,00610.014,E,03.5,319,050814,,,A*4E
$IIVHW,,,311,M,03.6,N,,*62
$IIVLW,53412,N,000.2,N*50
$IIVWR,044,R,14.1,N,,,,*65
$IIDPT,007.0,+0.7,*47
$IIGLL,4612.898,N,00610.013,E,132701,A,A*5B
$IIHDG,311,,,,*54
$IIMTW,+21.0,C*3B
$IIMWV,043,R,13.9,N,A*1F
$IIMWV,056,T,11.6,N,A*10
$IIRMC,132701,A,4612.898,N,00610.013,E,04.1,306,050814,,,A*4A
$IIVHW,,,311,M,03.5,N,,*61
$IIVLW,53412,N,000.2,N*50
$IIVWR,043,R,14.6,N,,,,*65
$IIDPT,007.0,+0.7,*47
$IIGLL,4612.898,N,00610.013,E,132701,A,A*5B
$IIHDG,313,,,,*56
$IIMTW,+21.0,C*3B
$IIMWV,043,R,14.6,N,A*17
$IIMWV,055,T,11.4,N,A*11
$IIRMC,132701,A,4612.898,N,00610.013,E,04.1,306,050814,,,A*4A
$IIVHW,,,313,M,03.5,N,,*63
$IIVLW,53412,N,000.2,N*50
$IIVWR,042,R,14.1,N,,,,*63
$IIDPT,007.0,+0.7,*47
$IIGLL,4612.899,N,00610.010,E,132703,A,A*5B
$IIHDG,313,,,,*56
$IIMTW,+21.0,C*3B
$IIMWV,042,R,14.1,N,A*11
$IIMWV,055,T,12.1,N,A*17
$IIRMC,132703,A,4612.899,N,00610.010,E,03.8,312,050814,,,A*41
$IIVHW,,,313,M,03.6,N,,*60
$IIVLW,53412,N,000.2,N*50
$IIVWR,040,R,13.9,N,,,,*6E
$IIDPT,007.0,+0.7,*47
$IIGLL,4612.900,N,00610.009,E,132704,A,A*55
$IIHDG,313,,,,*56
$IIMTW,+21.0,C*3B
$IIMWV,040,R,13.9,N,A*1C
$IIMWV,054,T,11.6,N,A*12
$IIRMC,132705,A,4612.900,N,00610.008,E,03.4,281,050814,,,A*48
$IIVHW,,,314,M,03.6,N,,*67
$IIVLW,53412,N,000.2,N*50
$IIVWR,039,R,13.5,N,,,,*6C
$IIDPT,007.0,+0.7,*47
$IIGLL,4612.900,N,00610.008,E,132705,A,A*55
$IIHDG,314,,,,*51
$IIMTW,+21.0,C*3B
$IIMWV,039,R,13.5,N,A*1E
$IIMWV,051,T,10.9,N,A*19
$IIRMC,132706,A,4612.901,N,00610.007,E,03.7,325,050814,,,A*49
$IIVHW,,,313,M,03.6,N,,*60
$IIVLW,53412,N,000.2,N*50
$IIVWR,039,R,13.2,N,,,,*6B
$IIDPT,007.2,+0.7,*45
$IIGLL,4612.901,N,00610.007,E,132706,A,A*58
$IIHDG,313,,,,*56
$IIMTW,+21.0,C*3B
$IIMWV,039,R,14.3,N,A*1F
$IIMWV,052,T,10.6,N,A*15
$IIRMC,132707,A,4612.902,N,00610.006,E,04.7,312,050814,,,A*49
$IIVHW,,,314,M,03.5,N,,*64
$IIVLW,53412,N,000.2,N*50
$IIVWR,039,R,14.3,N,,,,*6D
$IIDPT,007.2,+0.7,*45
$IIGLL,4612.902,N,00610.006,E,132707,A,A*5B
$IIHDG,314,,,,*51
$IIMTW,+21.0,C*3B
$IIMWV,039,R,13.9,N,A*12
$IIMWV,050,T,11.7,N,A*17
$IIRMC,132708,A,4612.903,N,00610.004,E,03.4,296,050814,,,A*4C
$IIVHW,,,314,M,03.5,N,,*64
$IIVLW,53412,N,000.2,N*50
$IIVWR,039,R,13.9,N,,,,*60
$IIDPT,007.2,+0.7,*45
$IIGLL,4612.903,N,00610.004,E,132708,A,A*57
$IIHDG,313,,,,*56
$IIMTW,+21.0,C*3B
$IIMWV,037,R,13.9,N,A*1C
$IIMWV,050,T,11.2,N,A*12
$IIRMC,132709,A,4612.902,N,00610.003,E,03.7,308,050814,,,A*4E
$IIVHW,,,313,M,03.5,N,,*63
$IIVLW,53412,N,000.2,N*50
$IIVWR,037,R,13.9,N,,,,*6E
$IIDPT,007.2,+0.7,*45
$IIGLL,4612.904,N,00610.001,E,132711,A,A*5D
$IIHDG,314,,,,*51
$IIMTW,+21.0,C*3B
$IIMWV,037,R,13.6,N,A*13
$IIMWV,048,T,10.9,N,A*11
$IIRMC,132711,A,4612.904,N,00610.001,E,03.7,313,050814,,,A*49
$IIVHW,,,314,M,03.4,N,,*65
$IIVLW,53412,N,000.2,N*50
$IIVWR,037,R,13.6,N,,,,*61
$IIDPT,007.2,+0.7,*45
$IIGLL,4612.904,N,00610.000,E,132712,A,A*5F
$IIHDG,315,,,,*50
$IIMTW,+21.0,C*3B
$IIMWV,040,R,14.4,N,A*16
$IIMWV,048,T,10.9,N,A*11
$IIRMC,132712,A,4612.904,N,00610.000,E,03.7,299,050814,,,A*48
$IIVHW,,,315,M,03.4,N,,*64
$IIVLW,53412,N,000.2,N*50
$IIVWR,039,R,14.6,N,,,,*68
$IIDPT,007.2,+0.7,*45
$IIGLL,4612.905,N,00609.998,E,132713,A,A*5F
$IIHDG,316,,,,*53
$IIMTW,+21.0,C*3B
$IIMWV,039,R,14.6,N,A*1A
$IIMWV,051,T,11.8,N,A*19
$IIRMC,132713,A,4612.905,N,00609.998,E,04.0,319,050814,,,A*41
$IIVHW,,,316,M,03.4,N,,*67
$IIVLW,53412,N,000.2,N*50
$IIVWR,038,R,13.9,N,,,,*61
$IIDPT,007.2,+0.7,*45
$IIGLL,4612.906,N,00609.998,E,132714,A,A*5B
$IIHDG,316,,,,*53
$IIMTW,+21.0,C*3B
$IIMWV,038,R,13.9,N,A*13
$IIMWV,049,T,11.9,N,A*11
$IIRMC,132714,A,4612.906,N,00609.998,E,04.9,334,050814,,,A*43
$IIVHW,,,317,M,03.4,N,,*66
$IIVLW,53412,N,000.2,N*50
$IIVWR,037,R,13.6,N,,,,*61
$IIDPT,007.2,+0.7,*45
$IIGLL,4612.907,N,00609.997,E,132715,A,A*54
$IIHDG,317,,,,*52
$IIMTW,+21.0,C*3B
$IIMWV,037,R,13.6,N,A*13
$IIMWV,049,T,11.4,N,A*1C
$IIRMC,132716,A,4612.907,N,00609.996,E,02.9,272,050814,,,A*4B
$IIVHW,,,317,M,03.4,N,,*66
$IIVLW,53412,N,000.2,N*50
$IIVWR,038,R,14.1,N,,,,*6E
$IIDPT,007.2,+0.7,*45
$IIGLL,4612.907,N,00609.996,E,132716,A,A*56
$IIHDG,317,,,,*52
$IIMTW,+21.0,C*3B
$IIMWV,038,R,14.1,N,A*1C
$IIMWV,049,T,11.5,N,A*1D
$IIRMC,132717,A,4612.908,N,00609.994,E,03.7,316,050814,,,A*4B
$IIVHW,,,316,M,03.4,N,,*67
$IIVLW,53412,N,000.2,N*50
$IIVWR,038,R,13.9,N,,,,*61
$IIDPT,007.2,+0.7,*45
$IIGLL,4612.908,N,00609.994,E,132717,A,A*5A
$IIHDG,316,,,,*53
$IIMTW,+21.0,C*3B
$IIMWV,036,R,13.7,N,A*13
$IIMWV,049,T,11.3,N,A*1B
$IIRMC,132718,A,4612.909,N,00609.993,E,04.1,315,050814,,,A*40
$IIVHW,,,315,M,03.4,N,,*64
$IIVLW,53412,N,000.2,N*50
$IIVWR,036,R,13.7,N,,,,*61
$IIDPT,007.2,+0.7,*45
$IIGLL,4612.909,N,00609.993,E,132718,A,A*53
$IIHDG,315,,,,*50
$IIMTW,+21.0,C*3B
$IIMWV,037,R,13.7,N,A*12
$IIMWV,047,T,10.9,N,A*1E
$IIRMC,132719,A,4612.909,N,00609.992,E,08.0,325,050814,,,A*4E
$IIVHW,,,316,M,03.4,N,,*67
$IIVLW,53412,N,000.2,N*50
$IIVWR,037,R,13.7,N,,,,*60
$IIDPT,007.2,+0.7,*45
$IIGLL,4612.909,N,00609.992,E,132719,A,A*53
$IIHDG,315,,,,*50
$IIMTW,+21.0,C*3B
$IIMWV,037,R,13.7,N,A*12
$IIMWV,048,T,11.0,N,A*19
$IIRMC,132720,A,4612.910,N,00609.991,E,03.5,301,050814,,,A*47
$IIVHW,,,315,M,03.4,N,,*64
$IIVLW,53412,N,000.2,N*50
$IIVWR,037,R,13.7,N,,,,*60
$IIDPT,007.2,+0.7,*45
$IIGLL,4612.911,N,00609.989,E,132721,A,A*5B
$IIHDG,316,,,,*53
$IIMTW,+21.0,C*3B
$IIMWV,037,R,13.1,N,A*14
$IIMWV,048,T,11.1,N,A*18
$IIRMC,132721,A,4612.911,N,00609.989,E,04.7,315,050814,,,A*4E
$IIVHW,,,316,M,03.3,N,,*60
$IIVLW,53412,N,000.2,N*50
$IIVWR,037,R,13.1,N,,,,*66
$IIDPT,007.2,+0.7,*45
$IIGLL,4612.912,N,00609.988,E,132722,A,A*5A
$IIHDG,316,,,,*53
$IIMTW,+21.0,C*3B
$IIMWV,037,R,13.2,N,A*17
$IIMWV,048,T,10.4,N,A*1C
$IIRMC,132722,A,4612.912,N,00609.988,E,04.1,317,050814,,,A*4B
$IIVHW,,,316,M,03.3,N,,*60
$IIVLW,53412,N,000.2,N*50
$IIVWR,037,R,13.5,N,,,,*62
$IIDPT,007.2,+0.7,*45
$IIGLL,4612.913,N,00609.987,E,132723,A,A*55
$IIHDG,315,,,,*50
$IIMTW,+21.0,C*3B
$IIMWV,037,R,13.5,N,A*10
$IIMWV,048,T,10.6,N,A*1E
$IIRMC,132723,A,4612.913,N,00609.987,E,03.9,324,050814,,,A*4B
$IIVHW,,,315,M,03.3,N,,*63
$IIVLW,53412,N,000.2,N*50
$IIVWR,038,R,12.8,N,,,,*61
$IIDPT,007.2,+0.7,*45
$IIGLL,4612.914,N,00609.986,E,132724,A,A*54
$IIHDG,316,,,,*53
$IIMTW,+21.0,C*3B
$IIMWV,038,R,12.8,N,A*13
$IIMWV,047,T,11.0,N,A*16
$IIRMC,132724,A,4612.914,N,00609.986,E,03.4,313,050814,,,A*43
$IIVHW,,,315,M,03.2,N,,*62
$IIVLW,53412,N,000.2,N*50
$IIVWR,038,R,13.3,N,,,,*6B
$IIDPT,007.2,+0.7,*45
$IIGLL,4612.914,N,00609.986,E,132725,A,A*55
$IIHDG,315,,,,*50
$IIMTW,+21.0,C*3B
$IIMWV,038,R,13.3,N,A*19
$IIMWV,049,T,10.4,N,A*1D
$IIRMC,132725,A,4612.914,N,00609.986,E,03.5,314,050814,,,A*44
$IIVHW,,,315,M,03.3,N,,*63
$IIVLW,53412,N,000.2,N*50
$IIVWR,037,R,12.7,N,,,,*61
$IIDPT,007.2,+0.7,*45
$IIGLL,4612.914,N,00609.986,E,132725,A,A*55
$IIHDG,315,,,,*50
$IIMTW,+21.0,C*3B
$IIMWV,037,R,12.7,N,A*13
$IIMWV,048,T,10.1,N,A*19
$IIRMC,132727,A,4612.914,N,00609.984,E,02.1,282,050814,,,A*4F
$IIVHW,,,315,M,03.2,N,,*62
$IIVLW,53412,N,000.2,N*50
$IIVWR,037,R,13.1,N,,,,*66
$IIDPT,007.3,+0.7,*44
$IIGLL,4612.914,N,00609.984,E,132727,A,A*55
$IIHDG,315,,,,*50
$IIMTW,+21.0,C*3B
$IIMWV,038,R,12.7,N,A*1C
$IIMWV,048,T,10.5,N,A*1D
$IIRMC,132728,A,4612.915,N,00609.983,E,03.3,314,050814,,,A*4B
$IIVHW,,,315,M,03.3,N,,*63
$IIVLW,53412,N,000.2,N*50
$IIVWR,038,R,12.7,N,,,,*6E
$IIDPT,007.3,+0.7,*44
$IIGLL,4612.915,N,00609.983,E,132728,A,A*5C
$IIHDG,315,,,,*50
$IIMTW,+21.0,C*3B
$IIMWV,039,R,12.6,N,A*1C
$IIMWV,049,T,10.2,N,A*1B
$IIRMC,132729,A,4612.915,N,00609.983,E,01.2,324,050814,,,A*4A
$IIVHW,,,314,M,03.2,N,,*63
$IIVLW,53412,N,000.2,N*50
$IIVWR,039,R,12.6,N,,,,*6E
$IIDPT,007.4,+0.7,*43
$IIGLL,4612.915,N,00609.983,E,132729,A,A*5D
$IIHDG,314,,,,*51
$IIMTW,+21.0,C*3B
$IIMWV,038,R,13.1,N,A*1B
$IIMWV,050,T,10.2,N,A*13
$IIRMC,132730,A,4612.916,N,00609.982,E,02.6,317,050814,,,A*47
$IIVHW,,,314,M,03.2,N,,*63
$IIVLW,53412,N,000.2,N*50
$IIVWR,038,R,13.1,N,,,,*69
$IIDPT,007.4,+0.7,*43
$IIGLL,4612.916,N,00609.981,E,132731,A,A*55
$IIHDG,314,,,,*51
$IIMTW,+21.0,C*3B
$IIMWV,038,R,12.7,N,A*1C
$IIMWV,049,T,10.7,N,A*1E
$IIRMC,132731,A,4612.916,N,00609.981,E,03.9,301,050814,,,A*4C
$IIVHW,,,314,M,03.2,N,,*63
$IIVLW,53412,N,000.2,N*50
$IIVWR,038,R,12.7,N,,,,*6E
$IIDPT,007.4,+0.7,*43
$IIGLL,4612.917,N,00609.980,E,132732,A,A*56
$IIHDG,314,,,,*51
$IIMTW,+21.0,C*3B
$IIMWV,040,R,13.0,N,A*15
$IIMWV,049,T,10.3,N,A*1A
$IIRMC,132732,A,4612.917,N,00609.980,E,03.0,303,050814,,,A*44
$IIVHW,,,314,M,03.2,N,,*63
$IIVLW,53412,N,000.2,N*50
$IIVWR,040,R,12.8,N,,,,*6E
$IIDPT,007.4,+0.7,*43
$IIGLL,4612.917,N,00609.979,E,132733,A,A*51
$IIHDG,314,,,,*51
$IIMTW,+21.0,C*3B
$IIMWV,040,R,12.8,N,A*1C
$IIMWV,051,T,10.7,N,A*17
$IIRMC,132733,A,4612.917,N,00609.979,E,03.4,309,050814,,,A*4D
$IIVHW,,,314,M,03.1,N,,*60
$IIVLW,53412,N,000.2,N*50
$IIVWR,039,R,13.0,N,,,,*69
$IIDPT,007.4,+0.7,*43
$IIGLL,4612.918,N,00609.978,E,132734,A,A*58
$IIHDG,314,,,,*51
$IIMTW,+21.0,C*3B
$IIMWV,039,R,13.0,N,A*1B
$IIMWV,050,T,10.5,N,A*14
$IIRMC,132734,A,4612.918,N,00609.978,E,03.7,316,050814,,,A*49
$IIVHW,,,314,M,03.0,N,,*61
$IIVLW,53412,N,000.2,N*50
$IIVWR,041,R,13.2,N,,,,*64
$IIDPT,007.4,+0.7,*43
$IIGLL,4612.919,N,00609.977,E,132735,A,A*57
$IIHDG,314,,,,*51
$IIMTW,+21.0,C*3B
$IIMWV,041,R,13.2,N,A*16
$IIMWV,049,T,10.7,N,A*1E
$IIRMC,132736,A,4612.919,N,00609.975,E,05.0,279,050814,,,A*4E
$IIVHW,,,313,M,02.9,N,,*6E
$IIVLW,53412,N,000.2,N*50
$IIVWR,040,R,13.0,N,,,,*67
$IIDPT,052.3,+0.7,*44
$IIGLL,4612.919,N,00609.975,E,132736,A,A*56
$IIHDG,313,,,,*56
$IIMTW,+21.0,C*3B
$IIMWV,040,R,13.0,N,A*15
$IIMWV,049,T,10.9,N,A*10
$IIRMC,132737,A,4612.919,N,00609.974,E,02.8,306,050814,,,A*48
$IIVHW,,,313,M,02.9,N,,*6E
$IIVLW,53412,N,000.2,N*50
$IIVWR,040,R,12.7,N,,,,*61
$IIDPT,053.7,+0.7,*41
$IIGLL,4612.919,N,00609.974,E,132737,A,A*56
$IIHDG,313,,,,*56
$IIMTW,+21.0,C*3B
$IIMWV,040,R,12.7,N,A*13
$IIMWV,050,T,10.5,N,A*14
$IIRMC,132738,A,4612.920,N,00609.973,E,03.6,328,050814,,,A*49
$IIVHW,,,312,M,02.9,N,,*6F
$IIVLW,53412,N,000.2,N*50
$IIVWR,040,R,12.7,N,,,,*61
$IIDPT,053.7,+0.7,*41
$IIGLL,4612.920,N,00609.973,E,132738,A,A*54
$IIHDG,312,,,,*57
$IIMTW,+21.0,C*3B
$IIMWV,040,R,12.6,N,A*12
$IIMWV,050,T,10.5,N,A*14
$IIRMC,132739,A,4612.921,N,00609.973,E,03.6,323,050814,,,A*42
$IIVHW,,,311,M,02.8,N,,*6D
$IIVLW,53412,N,000.2,N*50
$IIVWR,040,R,12.6,N,,,,*60
$IIDPT,053.7,+0.7,*41
$IIGLL,4612.921,N,00609.973,E,132739,A,A*54
$IIHDG,311,,,,*54
$IIMTW,+21.0,C*3B
$IIMWV,041,R,12.4,N,A*11
$IIMWV,050,T,10.4,N,A*15
$IIRMC,132740,A,4612.922,N,00609.972,E,03.6,303,050814,,,A*4C
$IIVHW,,,311,M,02.8,N,,*6D
$IIVLW,53412,N,000.2,N*50
$IIVWR,041,R,12.4,N,,,,*63
$IIDPT,053.7,+0.7,*41
$IIGLL,4612.922,N,00609.970,E,132741,A,A*5B
$IIHDG,310,,,,*55
$IIMTW,+21.0,C*3B
$IIMWV,043,R,12.3,N,A*14
$IIMWV,051,T,10.3,N,A*13
$IIRMC,132741,A,4612.922,N,00609.970,E,02.9,301,050814,,,A*43
$IIVHW,,,310,M,02.8,N,,*6C
$IIVLW,53412,N,000.2,N*50
$IIVWR,043,R,12.3,N,,,,*66
$IIDPT,007.5,+0.7,*42
$IIGLL,4612.924,N,00609.970,E,132742,A,A*5E
$IIHDG,309,,,,*5D
$IIMTW,+21.0,C*3B
$IIMWV,043,R,12.8,N,A*1F
$IIMWV,054,T,10.3,N,A*16
$IIRMC,132742,A,4612.924,N,00609.970,E,04.0,320,050814,,,A*4A
$IIVHW,,,309,M,02.7,N,,*6B
$IIVLW,53412,N,000.2,N*50
$IIVWR,043,R,12.7,N,,,,*62
$IIDPT,007.5,+0.7,*42
$IIGLL,4612.924,N,00609.969,E,132743,A,A*57
$IIHDG,309,,,,*5D
$IIMTW,+21.0,C*3B
$IIMWV,043,R,12.7,N,A*10
$IIMWV,053,T,10.8,N,A*1A
$IIRMC,132743,A,4612.924,N,00609.969,E,02.9,314,050814,,,A*4B
$IIVHW,,,309,M,02.7,N,,*6B
$IIVLW,53412,N,000.2,N*50
$IIVWR,042,R,12.4,N,,,,*60
$IIDPT,007.5,+0.7,*42
$IIGLL,4612.925,N,00609.968,E,132744,A,A*50
$IIHDG,309,,,,*5D
$IIMTW,+21.0,C*3B
$IIMWV,042,R,12.4,N,A*12
$IIMWV,053,T,10.7,N,A*15
$IIRMC,132744,A,4612.925,N,00609.968,E,03.5,311,050814,,,A*44
$IIVHW,,,309,M,02.7,N,,*6B
$IIVLW,53412,N,000.2,N*50
$IIVWR,042,R,12.4,N,,,,*60
$IIDPT,007.5,+0.7,*42
$IIGLL,4612.925,N,00609.967,E,132745,A,A*5E
$IIHDG,309,,,,*5D
$IIMTW,+21.0,C*3B
$IIMWV,042,R,12.4,N,A*12
$IIMWV,053,T,10.4,N,A*16
$IIRMC,132746,A,4612.926,N,00609.965,E,04.2,301,050814,,,A*49
$IIVHW,,,309,M,02.7,N,,*6B
$IIVLW,53412,N,000.2,N*50
$IIVWR,042,R,12.3,N,,,,*67
$IIDPT,007.5,+0.7,*42
$IIGLL,4612.926,N,00609.965,E,132746,A,A*5C
$IIHDG,309,,,,*5D
$IIMTW,+21.0,C*3B
$IIMWV,042,R,12.3,N,A*15
$IIMWV,052,T,10.4,N,A*17
$IIRMC,132747,A,4612.927,N,00609.964,E,03.6,308,050814,,,A*42
$IIVHW,,,309,M,02.7,N,,*6B
$IIVLW,53412,N,000.2,N*50
$IIVWR,042,R,12.8,N,,,,*6C
$IIDPT,007.5,+0.7,*42
$IIGLL,4612.927,N,00609.964,E,132747,A,A*5D
$IIHDG,309,,,,*5D
$IIMTW,+21.0,C*3B
$IIMWV,043,R,12.7,N,A*10
$IIMWV,052,T,10.7,N,A*14
$IIRMC,132748,A,4612.927,N,00609.963,E,03.6,321,050814,,,A*41
$IIVHW,,,309,M,02.8,N,,*64
$IIVLW,53412,N,000.2,N*50
$IIVWR,043,R,12.7,N,,,,*62
$IIDPT,007.5,+0.7,*42
$IIGLL,4612.927,N,00609.963,E,132748,A,A*55
$IIHDG,309,,,,*5D
$IIMTW,+21.0,C*3B
$IIMWV,044,R,12.6,N,A*16
$IIMWV,053,T,10.7,N,A*15
$IIRMC,132749,A,4612.928,N,00609.962,E,03.4,319,050814,,,A*47
$IIVHW,,,308,M,02.8,N,,*65
$IIVLW,53412,N,000.2,N*50
$IIVWR,044,R,12.6,N,,,,*64
$IIDPT,007.5,+0.7,*42
$IIGLL,4612.928,N,00609.962,E,132749,A,A*5A
$IIHDG,308,,,,*5C
$IIMTW,+21.0,C*3B
$IIMWV,044,R,12.4,N,A*14
$IIMWV,054,T,10.6,N,A*13
$IIRMC,132750,A,4612.929,N,00609.961,E,03.2,309,050814,,,A*4A
$IIVHW,,,308,M,02.9,N,,*64
$IIVLW,53412,N,000.2,N*50
$IIVWR,044,R,12.4,N,,,,*66
$IIDPT,007.5,+0.7,*42
$IIGLL,4612.929,N,00609.961,E,132750,A,A*50
$IIHDG,307,,,,*53
$IIMTW,+21.0,C*3B
$IIMWV,043,R,12.3,N,A*14
$IIMWV,055,T,10.4,N,A*10
$IIRMC,132750,A,4612.929,N,00609.961,E,03.2,309,050814,,,A*4A
$IIVHW,,,307,M,02.9,N,,*6B
$IIVLW,53412,N,000.2,N*50
$IIVWR,043,R,12.3,N,,,,*66
$IIDPT,007.5,+0.7,*42
$IIGLL,4612.930,N,00609.959,E,132752,A,A*51
$IIHDG,307,,,,*53
$IIMTW,+21.0,C*3B
$IIMWV,044,R,12.3,N,A*13
$IIMWV,054,T,10.2,N,A*17
$IIRMC,132752,A,4612.930,N,00609.959,E,03.4,305,050814,,,A*41
$IIVHW,,,307,M,02.9,N,,*6B
$IIVLW,53412,N,000.2,N*50
$IIVWR,044,R,12.3,N,,,,*61
$IIDPT,007.5,+0.7,*42
$IIGLL,4612.930,N,00609.958,E,132753,A,A*51
$IIHDG,307,,,,*53
$IIMTW,+21.0,C*3B
$IIMWV,044,R,12.3,N,A*13
$IIMWV,055,T,10.2,N,A*16
$IIRMC,132753,A,4612.930,N,00609.958,E,03.4,305,050814,,,A*41
$IIVHW,,,307,M,02.9,N,,*6B
$IIVLW,53412,N,000.2,N*50
$IIVWR,043,R,11.8,N,,,,*6E
$IIDPT,007.5,+0.7,*42
$IIGLL,4612.931,N,00609.957,E,132754,A,A*58
$IIHDG,306,,,,*52
$IIMTW,+21.0,C*3B
$IIMWV,043,R,11.8,N,A*1C
$IIMWV,055,T,10.2,N,A*16
$IIRMC,132754,A,4612.931,N,00609.957,E,03.3,308,050814,,,A*42
$IIVHW,,,306,M,02.9,N,,*6A
$IIVLW,53412,N,000.2,N*50
$IIVWR,044,R,11.9,N,,,,*68
$IIDPT,007.5,+0.7,*42
$IIGLL,4612.931,N,00609.956,E,132755,A,A*58
$IIHDG,306,,,,*52
$IIMTW,+21.0,C*3B
$IIMWV,044,R,11.9,N,A*1A
$IIMWV,055,T,09.7,N,A*1B
$IIRMC,132756,A,4612.932,N,00609.955,E,03.4,306,050814,,,A*48
$IIVHW,,,305,M,02.9,N,,*69
$IIVLW,53412,N,000.2,N*50
$IIVWR,044,R,12.2,N,,,,*60
$IIDPT,007.5,+0.7,*42
$IIGLL,4612.932,N,00609.955,E,132756,A,A*5B
$IIHDG,305,,,,*51
$IIMTW,+21.0,C*3B
$IIMWV,044,R,12.2,N,A*12
$IIMWV,056,T,10.1,N,A*16
$IIRMC,132757,A,4612.932,N,00609.953,E,03.4,307,050814,,,A*4E
$IIVHW,,,304,M,03.0,N,,*60
$IIVLW,53412,N,000.2,N*50
$IIVWR,044,R,12.2,N,,,,*60
$IIDPT,007.5,+0.7,*42
$IIGLL,4612.932,N,00609.953,E,132757,A,A*5C
$IIHDG,304,,,,*50
$IIMTW,+21.0,C*3B
$IIMWV,044,R,11.8,N,A*1B
$IIMWV,056,T,10.1,N,A*16
$IIRMC,132758,A,4612.933,N,00609.952,E,03.4,303,050814,,,A*45
$IIVHW,,,303,M,03.0,N,,*67
$IIVLW,53412,N,000.2,N*50
$IIVWR,044,R,11.8,N,,,,*69
$IIDPT,007.5,+0.7,*42
$IIGLL,4612.933,N,00609.952,E,132758,A,A*53
$IIHDG,303,,,,*57
$IIMTW,+21.0,C*3B
$IIMWV,043,R,11.9,N,A*1D
$IIMWV,056,T,09.7,N,A*18
$IIRMC,132759,A,4612.934,N,00609.951,E,03.7,296,050814,,,A*4E
$IIVHW,,,302,M,03.1,N,,*67
$IIVLW,53412,N,000.2,N*50
$IIVWR,043,R,11.9,N,,,,*6F
$IIDPT,007.5,+0.7,*42
$IIGLL,4612.934,N,00609.951,E,132759,A,A*56
$IIHDG,302,,,,*56
$IIMTW,+21.0,C*3B
$IIMWV,045,R,12.0,N,A*11
$IIMWV,056,T,09.7,N,A*18
$IIRMC,132800,A,4612.934,N,00609.949,E,03.5,301,050814,,,A*49
$IIVHW,,,302,M,03.2,N,,*64
$IIVLW,53412,N,000.2,N*50
$IIVWR,045,R,12.0,N,,,,*63
$IIDPT,007.5,+0.7,*42
$IIGLL,4612.935,N,00609.948,E,132801,A,A*5D
$IIHDG,300,,,,*54
$IIMTW,+21.0,C*3B
$IIMWV,045,R,12.2,N,A*13
$IIMWV,058,T,10.0,N,A*19
$IIRMC,132801,A,4612.935,N,00609.948,E,03.8,290,050814,,,A*4C
$IIVHW,,,300,M,03.2,N,,*66
$IIVLW,53412,N,000.2,N*50
$IIVWR,045,R,12.2,N,,,,*61
$IIDPT,007.5,+0.7,*42
$IIGLL,4612.935,N,00609.948,E,132802,A,A*5E
$IIHDG,299,,,,*55
$IIMTW,+21.0,C*3B
$IIMWV,044,R,11.7,N,A*14
$IIMWV,058,T,10.1,N,A*18
$IIRMC,132802,A,4612.935,N,00609.948,E,03.5,318,050814,,,A*43
$IIVHW,,,299,M,03.3,N,,*66
$IIVLW,53412,N,000.2,N*50
$IIVWR,043,R,11.4,N,,,,*62
$IIDPT,007.5,+0.7,*42
$IIGLL,4612.935,N,00609.947,E,132803,A,A*50
$IIHDG,297,,,,*5B
$IIMTW,+21.0,C*3B
$IIMWV,043,R,11.4,N,A*10
$IIMWV,057,T,09.4,N,A*1A
$IIRMC,132803,A,4612.935,N,00609.947,E,03.1,289,050814,,,A*40
$IIVHW,,,297,M,03.4,N,,*6F
$IIVLW,53412,N,000.2,N*50
$IIVWR,043,R,11.3,N,,,,*65
$IIDPT,007.5,+0.7,*42
$IIGLL,4612.935,N,00609.946,E,132804,A,A*56
$IIHDG,297,,,,*5B
$IIMTW,+21.0,C*3B
$IIMWV,043,R,11.3,N,A*17
$IIMWV,057,T,09.1,N,A*1F
$IIRMC,132804,A,4612.935,N,00609.946,E,03.6,294,050814,,,A*4D
$IIVHW,,,297,M,03.6,N,,*6D
$IIVLW,53412,N,000.2,N*50
$IIVWR,044,R,11.3,N,,,,*62
$IIDPT,007.5,+0.7,*42
$IIGLL,4612.936,N,00609.945,E,132805,A,A*57
$IIHDG,297,,,,*5B
$IIMTW,+21.0,C*3B
$IIMWV,044,R,11.3,N,A*10
$IIMWV,058,T,08.9,N,A*19
$IIRMC,132806,A,4612.936,N,00609.943,E,04.1,292,050814,,,A*4F
$IIVHW,,,298,M,03.8,N,,*6C
$IIVLW,53412,N,000.2,N*50
$IIVWR,044,R,11.7,N,,,,*66
$IIDPT,007.5,+0.7,*42
$IIGLL,4612.936,N,00609.943,E,132806,A,A*52
$IIHDG,298,,,,*54
$IIMTW,+21.0,C*3B
$IIMWV,044,R,11.7,N,A*14
$IIMWV,060,T,09.2,N,A*18
$IIRMC,132807,A,4612.937,N,00609.942,E,04.5,309,050814,,,A*49
$IIVHW,,,299,M,03.9,N,,*6C
$IIVLW,53412,N,000.2,N*50
$IIVWR,045,R,12.3,N,,,,*60
$IIDPT,007.5,+0.7,*42
$IIGLL,4612.937,N,00609.942,E,132807,A,A*53
$IIHDG,299,,,,*55
$IIMTW,+21.0,C*3B
$IIMWV,046,R,12.8,N,A*1A
$IIMWV,061,T,09.8,N,A*13
$IIRMC,132808,A,4612.937,N,00609.941,E,04.5,294,050814,,,A*40
$IIVHW,,,299,M,04.0,N,,*62
$IIVLW,53412,N,000.2,N*50
$IIVWR,046,R,12.8,N,,,,*68
$IIDPT,007.5,+0.7,*42
$IIGLL,4612.937,N,00609.941,E,132808,A,A*5F
$IIHDG,299,,,,*55
$IIMTW,+21.0,C*3B
$IIMWV,046,R,13.6,N,A*15
$IIMWV,063,T,10.3,N,A*12
$IIRMC,132809,A,4612.938,N,00609.939,E,04.6,289,050814,,,A*4E
$IIVHW,,,299,M,04.2,N,,*60
$IIVLW,53412,N,000.2,N*50
$IIVWR,046,R,13.6,N,,,,*67
$IIDPT,007.5,+0.7,*42
$IIGLL,4612.938,N,00609.939,E,132809,A,A*5E
$IIHDG,298,,,,*54
$IIMTW,+21.0,C*3B
$IIMWV,044,R,14.0,N,A*16
$IIMWV,063,T,10.9,N,A*18
$IIRMC,132810,A,4612.938,N,00609.937,E,04.8,285,050814,,,A*4A
$IIVHW,,,298,M,04.3,N,,*60
$IIVLW,53412,N,000.2,N*50
$IIVWR,044,R,14.0,N,,,,*64
$IIDPT,007.5,+0.7,*42
$IIGLL,4612.939,N,00609.936,E,132811,A,A*59
$IIHDG,298,,,,*54
$IIMTW,+21.0,C*3B
$IIMWV,043,R,14.0,N,A*11
$IIMWV,060,T,11.1,N,A*12
$IIRMC,132811,A,4612.939,N,00609.936,E,04.9,296,050814,,,A*48
$IIVHW,,,298,M,04.4,N,,*67
$IIVLW,53412,N,000.2,N*50
$IIVWR,043,R,14.0,N,,,,*63
$IIDPT,007.5,+0.7,*42
$IIGLL,4612.939,N,00609.934,E,132812,A,A*58
$IIHDG,299,,,,*55
$IIMTW,+21.0,C*3B
$IIMWV,045,R,13.7,N,A*17
$IIMWV,059,T,11.0,N,A*19
$IIRMC,132812,A,4612.939,N,00609.934,E,05.3,316,050814,,,A*4B
$IIVHW,,,299,M,04.5,N,,*67
$IIVLW,53412,N,000.2,N*50
$IIVWR,046,R,13.6,N,,,,*67
$IIDPT,007.5,+0.7,*42
$IIGLL,4612.940,N,00609.933,E,132813,A,A*50
$IIHDG,299,,,,*55
$IIMTW,+21.0,C*3B
$IIMWV,046,R,13.6,N,A*15
$IIMWV,062,T,10.9,N,A*19
$IIRMC,132813,A,4612.940,N,00609.933,E,05.2,307,050814,,,A*42
$IIVHW,,,299,M,04.6,N,,*64
$IIVLW,53412,N,000.2,N*50
$IIVWR,046,R,14.0,N,,,,*66
$IIDPT,007.5,+0.7,*42
$IIGLL,4612.941,N,00609.931,E,132814,A,A*54
$IIHDG,298,,,,*54
$IIMTW,+21.0,C*3B
$IIMWV,046,R,14.0,N,A*14
$IIMWV,064,T,10.7,N,A*11
$IIRMC,132814,A,4612.941,N,00609.931,E,05.2,310,050814,,,A*40
$IIVHW,,,297,M,04.8,N,,*64
$IIVLW,53412,N,000.2,N*50
$IIVWR,046,R,13.9,N,,,,*68
$IIDPT,007.5,+0.7,*42
$IIGLL,4612.942,N,00609.930,E,132815,A,A*57
$IIHDG,297,,,,*5B
$IIMTW,+21.0,C*3B
$IIMWV,046,R,13.9,N,A*1A
$IIMWV,064,T,11.1,N,A*16
$IIRMC,132816,A,4612.943,N,00609.928,E,05.2,298,050814,,,A*49
$IIVHW,,,296,M,04.8,N,,*65
$IIVLW,53412,N,000.2,N*50
$IIVWR,045,R,13.6,N,,,,*64
$IIDPT,007.5,+0.7,*42
$IIGLL,4612.943,N,00609.928,E,132816,A,A*5C
$IIHDG,296,,,,*5A
$IIMTW,+21.0,C*3B
$IIMWV,045,R,13.6,N,A*16
$IIMWV,064,T,10.6,N,A*10
$IIRMC,132817,A,4612.943,N,00609.926,E,05.2,298,050814,,,A*46
$IIVHW,,,297,M,04.8,N,,*64
$IIVLW,53412,N,000.2,N*50
$IIVWR,044,R,14.1,N,,,,*65
$IIDPT,007.5,+0.7,*42
$IIGLL,4612.943,N,00609.926,E,132817,A,A*53
$IIHDG,297,,,,*5B
$IIMTW,+21.0,C*3B
$IIMWV,043,R,13.9,N,A*1F
$IIMWV,062,T,11.0,N,A*11
$IIRMC,132818,A,4612.944,N,00609.924,E,05.2,297,050814,,,A*43
$IIVHW,,,297,M,04.9,N,,*65
$IIVLW,53412,N,000.2,N*50
$IIVWR,043,R,13.9,N,,,,*6D
$IIDPT,007.5,+0.7,*42
$IIGLL,4612.944,N,00609.924,E,132818,A,A*59
$IIHDG,297,,,,*5B
$IIMTW,+21.0,C*3B
$IIMWV,045,R,13.7,N,A*17
$IIMWV,061,T,10.7,N,A*14
$IIRMC,132819,A,4612.945,N,00609.922,E,05.2,294,050814,,,A*46
$IIVHW,,,298,M,04.9,N,,*6A
$IIVLW,53412,N,000.2,N*50
$IIVWR,045,R,13.7,N,,,,*65
$IIDPT,007.5,+0.7,*42
$IIGLL,4612.945,N,00609.922,E,132819,A,A*5F
$IIHDG,297,,,,*5B
$IIMTW,+21.0,C*3B
$IIMWV,045,R,13.7,N,A*17
$IIMWV,064,T,10.8,N,A*1E
$IIRMC,132820,A,4612.945,N,00609.920,E,05.2,295,050814,,,A*4F
$IIVHW,,,297,M,04.9,N,,*65
$IIVLW,53412,N,000.2,N*50
$IIVWR,045,R,13.7,N,,,,*65
$IIDPT,007.5,+0.7,*42
$IIGLL,4612.946,N,00609.918,E,132821,A,A*5E
$IIHDG,297,,,,*5B
$IIMTW,+21.0,C*3B
$IIMWV,044,R,13.6,N,A*17
$IIMWV,064,T,10.8,N,A*1E
$IIRMC,132821,A,4612.946,N,00609.918,E,05.2,290,050814,,,A*43
$IIVHW,,,297,M,04.9,N,,*65
$IIVLW,53412,N,000.2,N*50
$IIVWR,044,R,13.6,N,,,,*65
$IIDPT,007.5,+0.7,*42
$IIGLL,4612.946,N,00609.916,E,132822,A,A*53
$IIHDG,297,,,,*5B
$IIMTW,+21.0,C*3B
$IIMWV,044,R,14.0,N,A*16
$IIMWV,063,T,10.4,N,A*15
$IIRMC,132822,A,4612.946,N,00609.916,E,05.3,289,050814,,,A*47
$IIVHW,,,297,M,04.9,N,,*65
$IIVLW,53412,N,000.2,N*50
$IIVWR,044,R,13.9,N,,,,*6A
$IIDPT,007.5,+0.7,*42
$IIGLL,4612.947,N,00609.914,E,132823,A,A*51
$IIHDG,298,,,,*54
$IIMTW,+21.0,C*3B
$IIMWV,044,R,13.9,N,A*18
$IIMWV,062,T,10.8,N,A*18
$IIRMC,132823,A,4612.947,N,00609.914,E,05.3,297,050814,,,A*4A
$IIVHW,,,298,M,04.9,N,,*6A
$IIVLW,53412,N,000.2,N*50
$IIVWR,044,R,14.1,N,,,,*65
$IIDPT,007.5,+0.7,*42
$IIGLL,4612.947,N,00609.913,E,132824,A,A*51
$IIHDG,298,,,,*54
$IIMTW,+21.0,C*3B
$IIMWV,044,R,14.1,N,A*17
$IIMWV,062,T,10.7,N,A*17
$IIRMC,132824,A,4612.947,N,00609.913,E,05.3,300,050814,,,A*45
$IIVHW,,,299,M,04.9,N,,*6B
$IIVLW,53412,N,000.2,N*50
$IIVWR,045,R,14.3,N,,,,*66
$IIDPT,007.5,+0.7,*42
$IIGLL,4612.948,N,00609.911,E,132825,A,A*5D
$IIHDG,299,,,,*55
$IIMTW,+21.0,C*3B
$IIMWV,045,R,14.3,N,A*14
$IIMWV,062,T,10.9,N,A*19
$IIRMC,132826,A,4612.949,N,00609.909,E,05.4,296,050814,,,A*4B
$IIVHW,,,299,M,05.0,N,,*63
$IIVLW,53412,N,000.2,N*50
$IIVWR,044,R,14.0,N,,,,*64
$IIDPT,007.5,+0.7,*42
$IIGLL,4612.949,N,00609.909,E,132826,A,A*56
$IIHDG,299,,,,*55
$IIMTW,+21.0,C*3B
$IIMWV,044,R,14.0,N,A*16
$IIMWV,063,T,10.8,N,A*19
$IIRMC,132827,A,4612.949,N,00609.907,E,05.4,298,050814,,,A*4A
$IIVHW,,,299,M,05.0,N,,*63
$IIVLW,53412,N,000.2,N*50
$IIVWR,044,R,13.9,N,,,,*6A
$IIDPT,007.5,+0.7,*42
$IIGLL,4612.949,N,00609.907,E,132827,A,A*59
$IIHDG,299,,,,*55
$IIMTW,+21.0,C*3B
$IIMWV,044,R,14.1,N,A*17
$IIMWV,062,T,10.7,N,A*17
$IIRMC,132828,A,4612.950,N,00609.905,E,05.4,300,050814,,,A*4F
$IIVHW,,,299,M,05.0,N,,*63
$IIVLW,53412,N,000.2,N*50
$IIVWR,044,R,14.1,N,,,,*65
$IIDPT,007.5,+0.7,*42
$IIGLL,4612.950,N,00609.905,E,132828,A,A*5C
$IIHDG,299,,,,*55
$IIMTW,+21.0,C*3B
$IIMWV,044,R,14.0,N,A*16
$IIMWV,062,T,10.9,N,A*19
$IIRMC,132829,A,4612.950,N,00609.903,E,05.4,295,050814,,,A*45
$IIVHW,,,299,M,04.9,N,,*6B
$IIVLW,53412,N,000.2,N*50
$IIVWR,044,R,14.0,N,,,,*64
$IIDPT,007.5,+0.7,*42
$IIGLL,4612.950,N,00609.903,E,132829,A,A*5B
$IIHDG,299,,,,*55
$IIMTW,+21.0,C*3B
$IIMWV,044,R,13.9,N,A*18
$IIMWV,063,T,10.8,N,A*19
$IIRMC,132830,A,4612.951,N,00609.902,E,05.4,307,050814,,,A*47
$IIVHW,,,299,M,04.9,N,,*6B
$IIVLW,53412,N,000.2,N*50
$IIVWR,044,R,13.9,N,,,,*6A
$IIDPT,007.5,+0.7,*42
$IIGLL,4612.952,N,00609.900,E,132831,A,A*53
$IIHDG,300,,,,*54
$IIMTW,+21.0,C*3B
$IIMWV,043,R,13.2,N,A*14
$IIMWV,062,T,10.7,N,A*17
$IIRMC,132831,A,4612.952,N,00609.900,E,05.4,295,050814,,,A*4D
$IIVHW,,,300,M,04.9,N,,*6A
$IIVLW,53412,N,000.2,N*50
$IIVWR,043,R,13.2,N,,,,*66
$IIDPT,007.5,+0.7,*42
$IIGLL,4612.952,N,00609.900,E,132831,A,A*53
$IIHDG,299,,,,*55
$IIMTW,+21.0,C*3B
$IIMWV,043,R,13.2,N,A*14
$IIMWV,063,T,10.0,N,A*11
$IIRMC,132831,A,4612.952,N,00609.900,E,05.4,295,050814,,,A*4D
$IIVHW,,,299,M,04.9,N,,*6B
$IIVLW,53412,N,000.2,N*50
$IIVWR,042,R,13.3,N,,,,*66
$IIDPT,007.5,+0.7,*42
$IIGLL,4612.953,N,00609.896,E,132833,A,A*5E
$IIHDG,299,,,,*55
$IIMTW,+21.0,C*3B
$IIMWV,042,R,13.3,N,A*14
$IIMWV,063,T,10.0,N,A*11
$IIRMC,132833,A,4612.953,N,00609.896,E,05.3,290,050814,,,A*42
$IIVHW,,,299,M,05.0,N,,*63
$IIVLW,53412,N,000.2,N*50
$IIVWR,042,R,13.5,N,,,,*60
$IIDPT,007.4,+0.7,*43
$IIGLL,4612.953,N,00609.894,E,132834,A,A*5B
$IIHDG,299,,,,*55
$IIMTW,+21.0,C*3B
$IIMWV,042,R,13.5,N,A*12
$IIMWV,062,T,10.1,N,A*11
$IIRMC,132834,A,4612.953,N,00609.894,E,05.3,296,050814,,,A*41
$IIVHW,,,298,M,05.0,N,,*62
$IIVLW,53412,N,000.2,N*50
$IIVWR,042,R,13.0,N,,,,*65
$IIDPT,007.4,+0.7,*43
$IIGLL,4612.954,N,00609.892,E,132835,A,A*5B
$IIHDG,298,,,,*54
$IIMTW,+21.0,C*3B
$IIMWV,042,R,13.0,N,A*17
$IIMWV,062,T,10.2,N,A*12
$IIRMC,132836,A,4612.955,N,00609.890,E,05.3,295,050814,,,A*42
$IIVHW,,,299,M,05.0,N,,*63
$IIVLW,53412,N,000.2,N*50
$IIVWR,044,R,13.2,N,,,,*61
$IIDPT,007.4,+0.7,*43
$IIGLL,4612.955,N,00609.890,E,132836,A,A*5B
$IIHDG,299,,,,*55
$IIMTW,+21.0,C*3B
$IIMWV,044,R,13.2,N,A*13
$IIMWV,064,T,10.1,N,A*17
$IIRMC,132837,A,4612.955,N,00609.888,E,05.3,292,050814,,,A*4D
$IIVHW,,,299,M,04.9,N,,*6B
$IIVLW,53412,N,000.3,N*51
$IIVWR,044,R,13.2,N,,,,*61
$IIDPT,007.4,+0.7,*43
$IIGLL,4612.955,N,00609.888,E,132837,A,A*53
$IIHDG,299,,,,*55
$IIMTW,+21.0,C*3B
$IIMWV,044,R,13.3,N,A*12
$IIMWV,064,T,10.1,N,A*17
$IIRMC,132838,A,4612.956,N,00609.886,E,05.3,294,050814,,,A*49
$IIVHW,,,299,M,04.9,N,,*6B
$IIVLW,53412,N,000.3,N*51
$IIVWR,044,R,13.3,N,,,,*60
$IIDPT,007.4,+0.7,*43
$IIGLL,4612.956,N,00609.886,E,132838,A,A*51
$IIHDG,299,,,,*55
$IIMTW,+21.0,C*3B
$IIMWV,044,R,13.7,N,A*16
$IIMWV,064,T,10.1,N,A*17
$IIRMC,132839,A,4612.956,N,00609.884,E,05.7,278,050814,,,A*4C
$IIVHW,,,300,M,04.9,N,,*6A
$IIVLW,53412,N,000.3,N*51
$IIVWR,044,R,13.7,N,,,,*64
$IIDPT,007.4,+0.7,*43
$IIGLL,4612.956,N,00609.884,E,132839,A,A*52
$IIHDG,300,,,,*54
$IIMTW,+21.0,C*3B
$IIMWV,045,R,13.7,N,A*17
$IIMWV,063,T,10.6,N,A*17
$IIRMC,132839,A,4612.956,N,00609.884,E,05.7,278,050814,,,A*4C
$IIVHW,,,300,M,04.9,N,,*6A
$IIVLW,53412,N,000.3,N*51
$IIVWR,045,R,13.7,N,,,,*65
$IIDPT,007.4,+0.7,*43
$IIGLL,4612.957,N,00609.880,E,132841,A,A*58
$IIHDG,301,,,,*55
$IIMTW,+21.0,C*3B
$IIMWV,046,R,13.6,N,A*15
$IIMWV,064,T,10.7,N,A*11
$IIRMC,132841,A,4612.957,N,00609.880,E,06.6,283,050814,,,A*40
$IIVHW,,,301,M,04.9,N,,*6B
$IIVLW,53412,N,000.3,N*51
$IIVWR,046,R,13.6,N,,,,*67
$IIDPT,007.4,+0.7,*43
$IIGLL,4612.958,N,00609.878,E,132842,A,A*53
$IIHDG,302,,,,*56
$IIMTW,+21.0,C*3B
$IIMWV,045,R,14.0,N,A*17
$IIMWV,066,T,10.6,N,A*12
$IIRMC,132842,A,4612.958,N,00609.878,E,05.1,302,050814,,,A*47
$IIVHW,,,302,M,04.9,N,,*68
$IIVLW,53412,N,000.3,N*51
$IIVWR,042,R,13.2,N,,,,*67
$IIDPT,007.4,+0.7,*43
$IIGLL,4612.959,N,00609.876,E,132843,A,A*5D
$IIHDG,301,,,,*55
$IIMTW,+21.0,C*3B
$IIMWV,042,R,13.2,N,A*15
$IIMWV,063,T,11.0,N,A*10
$IIRMC,132843,A,4612.959,N,00609.876,E,05.2,298,050814,,,A*48
$IIVHW,,,301,M,04.9,N,,*6B
$IIVLW,53412,N,000.3,N*51
$IIVWR,042,R,13.3,N,,,,*66
$IIDPT,007.4,+0.7,*43
$IIGLL,4612.960,N,00609.874,E,132844,A,A*52
$IIHDG,301,,,,*55
$IIMTW,+21.0,C*3B
$IIMWV,042,R,13.3,N,A*14
$IIMWV,062,T,09.9,N,A*11
$IIRMC,132844,A,4612.960,N,00609.874,E,05.7,287,050814,,,A*4C
$IIVHW,,,301,M,04.9,N,,*6B
$IIVLW,53412,N,000.3,N*51
$IIVWR,042,R,13.5,N,,,,*60
$IIDPT,007.4,+0.7,*43
$IIGLL,4612.960,N,00609.872,E,132845,A,A*55
$IIHDG,301,,,,*55
$IIMTW,+21.0,C*3B
$IIMWV,042,R,13.5,N,A*12
$IIMWV,062,T,10.1,N,A*11
$IIRMC,132846,A,4612.961,N,00609.869,E,05.5,292,050814,,,A*45
$IIVHW,,,302,M,04.9,N,,*68
$IIVLW,53412,N,000.3,N*51
$IIVWR,043,R,13.6,N,,,,*62
$IIDPT,007.4,+0.7,*43
$IIGLL,4612.961,N,00609.869,E,132846,A,A*5D
$IIHDG,302,,,,*56
$IIMTW,+21.0,C*3B
$IIMWV,043,R,13.6,N,A*10
$IIMWV,062,T,10.4,N,A*14
$IIRMC,132847,A,4612.962,N,00609.868,E,05.0,311,050814,,,A*49
$IIVHW,,,302,M,04.9,N,,*68
$IIVLW,53412,N,000.3,N*51
$IIVWR,043,R,13.5,N,,,,*61
$IIDPT,007.4,+0.7,*43
$IIGLL,4612.962,N,00609.868,E,132847,A,A*5E
$IIHDG,302,,,,*56
$IIMTW,+21.0,C*3B
$IIMWV,043,R,14.1,N,A*10
$IIMWV,062,T,10.2,N,A*12
$IIRMC,132848,A,4612.963,N,00609.866,E,05.2,300,050814,,,A*4B
$IIVHW,,,302,M,04.9,N,,*68
$IIVLW,53412,N,000.3,N*51
$IIVWR,043,R,14.1,N,,,,*62
$IIDPT,007.4,+0.7,*43
$IIGLL,4612.963,N,00609.866,E,132848,A,A*5E
$IIHDG,302,,,,*56
$IIMTW,+21.0,C*3B
$IIMWV,043,R,13.9,N,A*1F
$IIMWV,061,T,10.8,N,A*1B
$IIRMC,132849,A,4612.964,N,00609.864,E,05.2,298,050814,,,A*4F
$IIVHW,,,302,M,04.8,N,,*69
$IIVLW,53412,N,000.3,N*51
$IIVWR,043,R,13.9,N,,,,*6D
$IIDPT,007.4,+0.7,*43
$IIGLL,4612.964,N,00609.864,E,132849,A,A*5A
$IIHDG,302,,,,*56
$IIMTW,+21.0,C*3B
$IIMWV,042,R,13.7,N,A*10
$IIMWV,061,T,10.7,N,A*14
$IIRMC,132850,A,4612.964,N,00609.862,E,05.1,300,050814,,,A*42
$IIVHW,,,302,M,04.8,N,,*69
$IIVLW,53412,N,000.3,N*51
$IIVWR,042,R,13.7,N,,,,*62
$IIDPT,007.4,+0.7,*43
$IIGLL,4612.966,N,00609.859,E,132852,A,A*5C
$IIHDG,303,,,,*57
$IIMTW,+21.0,C*3B
$IIMWV,041,R,13.2,N,A*16
$IIMWV,061,T,09.9,N,A*12
$IIRMC,132852,A,4612.966,N,00609.859,E,05.6,298,050814,,,A*4D
$IIVHW,,,303,M,04.8,N,,*68
$IIVLW,53412,N,000.3,N*51
$IIVWR,041,R,13.2,N,,,,*64
$IIDPT,007.3,+0.7,*44
$IIGLL,4612.967,N,00609.857,E,132853,A,A*52
$IIHDG,304,,,,*50
$IIMTW,+21.0,C*3B
$IIMWV,042,R,13.2,N,A*15
$IIMWV,060,T,10.0,N,A*12
$IIRMC,132853,A,4612.967,N,00609.857,E,04.8,305,050814,,,A*49
$IIVHW,,,304,M,04.8,N,,*6F
$IIVLW,53412,N,000.3,N*51
$IIVWR,040,R,13.3,N,,,,*64
$IIDPT,007.3,+0.7,*44
$IIGLL,4612.968,N,00609.855,E,132854,A,A*58
$IIHDG,304,,,,*50
$IIMTW,+21.0,C*3B
$IIMWV,040,R,13.3,N,A*16
$IIMWV,061,T,10.0,N,A*13
$IIRMC,132854,A,4612.968,N,00609.855,E,05.9,286,050814,,,A*49
$IIVHW,,,304,M,04.8,N,,*6F
$IIVLW,53412,N,000.3,N*51
$IIVWR,039,R,13.5,N,,,,*6C
$IIDPT,007.3,+0.7,*44
$IIGLL,4612.968,N,00609.853,E,132855,A,A*5F
$IIHDG,304,,,,*50
$IIMTW,+21.0,C*3B
$IIMWV,039,R,13.5,N,A*1E
$IIMWV,057,T,10.0,N,A*16
$IIRMC,132855,A,4612.968,N,00609.853,E,05.1,288,050814,,,A*48
$IIVHW,,,307,M,04.8,N,,*6C
$IIVLW,53412,N,000.3,N*51
$IIVWR,042,R,14.3,N,,,,*61
$IIDPT,007.3,+0.7,*44
$IIGLL,4612.969,N,00609.852,E,132856,A,A*5C
$IIHDG,307,,,,*53
$IIMTW,+21.0,C*3B
$IIMWV,042,R,14.3,N,A*13
$IIMWV,056,T,10.2,N,A*15
$IIRMC,132857,A,4612.970,N,00609.850,E,05.8,307,050814,,,A*4F
$IIVHW,,,308,M,04.8,N,,*63
$IIVLW,53412,N,000.3,N*51
$IIVWR,042,R,14.5,N,,,,*67
$IIDPT,007.3,+0.7,*44
$IIGLL,4612.970,N,00609.850,E,132857,A,A*57
$IIHDG,308,,,,*5C
$IIMTW,+21.0,C*3B
$IIMWV,042,R,14.5,N,A*15
$IIMWV,059,T,11.3,N,A*1A
$IIRMC,132858,A,4612.971,N,00609.848,E,05.5,315,050814,,,A*46
$IIVHW,,,309,M,04.9,N,,*63
$IIVLW,53412,N,000.3,N*51
$IIVWR,042,R,13.9,N,,,,*6C
$IIDPT,007.3,+0.7,*44
$IIGLL,4612.971,N,00609.848,E,132858,A,A*50
$IIHDG,309,,,,*5D
$IIMTW,+21.0,C*3B
$IIMWV,040,R,14.1,N,A*13
$IIMWV,060,T,10.7,N,A*15
$IIRMC,132858,A,4612.971,N,00609.848,E,05.5,315,050814,,,A*46
$IIVHW,,,310,M,04.9,N,,*6B
$IIVLW,53412,N,000.3,N*51
$IIVWR,040,R,14.1,N,,,,*61
$IIDPT,007.3,+0.7,*44
$IIGLL,4612.971,N,00609.848,E,132858,A,A*50
$IIHDG,310,,,,*55
$IIMTW,+21.0,C*3B
$IIMWV,040,R,13.9,N,A*1C
$IIMWV,057,T,10.7,N,A*11
$IIRMC,132900,A,4612.973,N,00609.845,E,05.8,309,050814,,,A*45
$IIVHW,,,308,M,04.9,N,,*62
$IIVLW,53412,N,000.3,N*51
$IIVWR,040,R,13.9,N,,,,*6E
$IIDPT,007.3,+0.7,*44
$IIGLL,4612.973,N,00609.845,E,132900,A,A*53
$IIHDG,306,,,,*52
$IIMTW,+21.0,C*3B
$IIMWV,041,R,13.7,N,A*13
$IIMWV,057,T,10.4,N,A*12
$IIRMC,132901,A,4612.974,N,00609.843,E,05.6,309,050814,,,A*4B
$IIVHW,,,306,M,04.9,N,,*6C
$IIVLW,53412,N,000.3,N*51
$IIVWR,041,R,13.7,N,,,,*61
$IIDPT,007.3,+0.7,*44
$IIGLL,4612.975,N,00609.842,E,132902,A,A*50
$IIHDG,303,,,,*57
$IIMTW,+21.0,C*3B
$IIMWV,040,R,13.6,N,A*13
$IIMWV,060,T,10.3,N,A*11
$IIRMC,132902,A,4612.975,N,00609.842,E,05.6,307,050814,,,A*46
$IIVHW,,,303,M,05.1,N,,*60
$IIVLW,53412,N,000.3,N*51
$IIVWR,040,R,13.6,N,,,,*61
$IIDPT,007.4,+0.7,*43
$IIGLL,4612.976,N,00609.840,E,132903,A,A*50
$IIHDG,302,,,,*56
$IIMTW,+21.0,C*3B
$IIMWV,039,R,13.3,N,A*18
$IIMWV,059,T,10.1,N,A*19
$IIRMC,132903,A,4612.976,N,00609.840,E,05.6,299,050814,,,A*40
$IIVHW,,,302,M,05.1,N,,*61
$IIVLW,53412,N,000.3,N*51
$IIVWR,037,R,13.5,N,,,,*62
$IIDPT,007.4,+0.7,*43
$IIGLL,4612.977,N,00609.838,E,132904,A,A*59
$IIHDG,301,,,,*55
$IIMTW,+21.0,C*3B
$IIMWV,037,R,13.5,N,A*10
$IIMWV,058,T,09.7,N,A*16
$IIRMC,132904,A,4612.977,N,00609.838,E,05.7,298,050814,,,A*49
$IIVHW,,,301,M,05.2,N,,*61
$IIVLW,53412,N,000.3,N*51
$IIVWR,037,R,14.0,N,,,,*60
$IIDPT,007.4,+0.7,*43
$IIGLL,4612.977,N,00609.836,E,132905,A,A*56
$IIHDG,301,,,,*55
$IIMTW,+21.0,C*3B
$IIMWV,037,R,14.0,N,A*12
$IIMWV,055,T,09.8,N,A*14
$IIRMC,132905,A,4612.977,N,00609.836,E,05.5,290,050814,,,A*4C
$IIVHW,,,301,M,05.3,N,,*60
$IIVLW,53412,N,000.3,N*51
$IIVWR,038,R,13.9,N,,,,*61
$IIDPT,007.4,+0.7,*43
$IIGLL,4612.978,N,00609.834,E,132906,A,A*58
$IIHDG,301,,,,*55
$IIMTW,+21.0,C*3B
$IIMWV,038,R,13.9,N,A*13
$IIMWV,055,T,10.2,N,A*16
$IIRMC,132907,A,4612.979,N,00609.832,E,06.0,297,050814,,,A*45
$IIVHW,,,302,M,05.4,N,,*64
$IIVLW,53412,N,000.3,N*51
$IIVWR,038,R,14.1,N,,,,*6E
$IIDPT,007.4,+0.7,*43
$IIGLL,4612.979,N,00609.832,E,132907,A,A*5E
$IIHDG,302,,,,*56
$IIMTW,+21.0,C*3B
$IIMWV,038,R,14.1,N,A*1C
$IIMWV,057,T,10.4,N,A*12
$IIRMC,132908,A,4612.980,N,00609.829,E,06.9,300,050814,,,A*40
$IIVHW,,,303,M,05.4,N,,*65
$IIVLW,53412,N,000.3,N*51
$IIVWR,039,R,14.4,N,,,,*6A
$IIDPT,007.4,+0.7,*43
$IIGLL,4612.980,N,00609.829,E,132908,A,A*5D
$IIHDG,303,,,,*57
$IIMTW,+21.0,C*3B
$IIMWV,040,R,14.9,N,A*1B
$IIMWV,058,T,10.6,N,A*1F
$IIRMC,132909,A,4612.981,N,00609.827,E,05.9,301,050814,,,A*4C
$IIVHW,,,303,M,05.5,N,,*64
$IIVLW,53412,N,000.3,N*51
$IIVWR,040,R,14.9,N,,,,*69
$IIDPT,007.4,+0.7,*43
$IIGLL,4612.981,N,00609.827,E,132909,A,A*53
$IIHDG,303,,,,*57
$IIMTW,+21.0,C*3B
$IIMWV,039,R,14.8,N,A*14
$IIMWV,058,T,11.1,N,A*19
$IIRMC,132910,A,4612.981,N,00609.825,E,05.9,302,050814,,,A*45
$IIVHW,,,303,M,05.5,N,,*64
$IIVLW,53412,N,000.3,N*51
$IIVWR,039,R,14.8,N,,,,*66
$IIDPT,007.4,+0.7,*43
$IIGLL,4612.981,N,00609.825,E,132910,A,A*59
$IIHDG,303,,,,*57
$IIMTW,+21.0,C*3B
$IIMWV,038,R,15.2,N,A*1E
$IIMWV,057,T,11.0,N,A*17
$IIRMC,132911,A,4612.982,N,00609.823,E,06.3,299,050814,,,A*4B
$IIVHW,,,303,M,05.5,N,,*64
$IIVLW,53412,N,000.3,N*51
$IIVWR,038,R,15.2,N,,,,*6C
$IIDPT,007.4,+0.7,*43
$IIGLL,4612.983,N,00609.821,E,132912,A,A*5D
$IIHDG,304,,,,*50
$IIMTW,+21.0,C*3B
$IIMWV,038,R,15.0,N,A*1C
$IIMWV,055,T,11.4,N,A*11
$IIRMC,132912,A,4612.983,N,00609.821,E,06.1,301,050814,,,A*49
$IIVHW,,,304,M,05.5,N,,*63
$IIVLW,53412,N,000.3,N*51
$IIVWR,038,R,15.0,N,,,,*6E
$IIDPT,007.4,+0.7,*43
$IIGLL,4612.984,N,00609.819,E,132913,A,A*50
$IIHDG,306,,,,*52
$IIMTW,+21.0,C*3B
$IIMWV,037,R,14.9,N,A*1B
$IIMWV,056,T,11.1,N,A*17
$IIRMC,132913,A,4612.984,N,00609.819,E,06.4,301,050814,,,A*41
$IIVHW,,,306,M,05.6,N,,*62
$IIVLW,53412,N,000.3,N*51
$IIVWR,037,R,15.3,N,,,,*62
$IIDPT,007.5,+0.7,*42
$IIGLL,4612.985,N,00609.817,E,132914,A,A*58
$IIHDG,308,,,,*5C
$IIMTW,+21.0,C*3B
$IIMWV,037,R,15.3,N,A*10
$IIMWV,055,T,10.9,N,A*1D
$IIRMC,132914,A,4612.985,N,00609.817,E,06.1,305,050814,,,A*48
$IIVHW,,,308,M,05.7,N,,*6D
$IIVLW,53412,N,000.3,N*51
$IIVWR,037,R,15.4,N,,,,*65
$IIDPT,007.5,+0.7,*42
$IIGLL,4612.986,N,00609.816,E,132915,A,A*5B
$IIHDG,311,,,,*54
$IIMTW,+21.0,C*3B
$IIMWV,037,R,15.4,N,A*17
$IIMWV,054,T,11.1,N,A*15
$IIRMC,132915,A,4612.986,N,00609.816,E,05.8,299,050814,,,A*45
$IIVHW,,,311,M,05.8,N,,*6A
$IIVLW,53412,N,000.3,N*51
$IIVWR,036,R,15.6,N,,,,*66
$IIDPT,007.5,+0.7,*42
$IIGLL,4612.987,N,00609.814,E,132916,A,A*5B
$IIHDG,311,,,,*54
$IIMTW,+21.0,C*3B
$IIMWV,036,R,15.6,N,A*14
$IIMWV,055,T,11.2,N,A*17
$IIRMC,132917,A,4612.988,N,00609.812,E,06.6,314,050814,,,A*44
$IIVHW,,,312,M,05.9,N,,*68
$IIVLW,53412,N,000.3,N*51
$IIVWR,035,R,15.7,N,,,,*64
$IIDPT,007.5,+0.7,*42
$IIGLL,4612.988,N,00609.812,E,132917,A,A*53
$IIHDG,312,,,,*57
$IIMTW,+21.0,C*3B
$IIMWV,035,R,15.7,N,A*16
$IIMWV,053,T,11.2,N,A*11
$IIRMC,132918,A,4612.989,N,00609.809,E,06.2,314,050814,,,A*44
$IIVHW,,,313,M,05.9,N,,*69
$IIVLW,53412,N,000.3,N*51
$IIVWR,037,R,15.7,N,,,,*66
$IIDPT,007.5,+0.7,*42
$IIGLL,4612.989,N,00609.809,E,132918,A,A*57
$IIHDG,313,,,,*56
$IIMTW,+21.0,C*3B
$IIMWV,038,R,15.8,N,A*14
$IIMWV,055,T,11.4,N,A*11
$IIRMC,132919,A,4612.990,N,00609.807,E,06.6,310,050814,,,A*43
$IIVHW,,,312,M,05.9,N,,*68
$IIVLW,53412,N,000.3,N*51
$IIVWR,038,R,15.8,N,,,,*66
$IIDPT,007.5,+0.7,*42
$IIGLL,4612.990,N,00609.807,E,132919,A,A*50
$IIHDG,312,,,,*57
$IIMTW,+21.0,C*3B
$IIMWV,037,R,15.4,N,A*17
$IIMWV,057,T,11.6,N,A*11
$IIRMC,132920,A,4612.991,N,00609.805,E,06.1,314,050814,,,A*49
$IIVHW,,,312,M,06.0,N,,*62
$IIVLW,53412,N,000.3,N*51
$IIVWR,037,R,15.4,N,,,,*65
$IIDPT,007.6,+0.7,*41
$IIGLL,4612.991,N,00609.805,E,132920,A,A*59
$IIHDG,312,,,,*57
$IIMTW,+21.0,C*3B
$IIMWV,039,R,15.6,N,A*1B
$IIMWV,056,T,11.1,N,A*17
$IIRMC,132921,A,4612.992,N,00609.804,E,06.1,315,050814,,,A*4B
$IIVHW,,,312,M,06.0,N,,*62
$IIVLW,53412,N,000.3,N*51
$IIVWR,039,R,15.6,N,,,,*69
$IIDPT,007.6,+0.7,*41
$IIGLL,4612.994,N,00609.801,E,132922,A,A*5A
$IIHDG,310,,,,*55
$IIMTW,+21.0,C*3B
$IIMWV,038,R,15.2,N,A*1E
$IIMWV,058,T,11.4,N,A*1C
$IIRMC,132922,A,4612.994,N,00609.801,E,06.3,311,050814,,,A*4D
$IIVHW,,,310,M,06.0,N,,*60
$IIVLW,53412,N,000.3,N*51
$IIVWR,038,R,15.2,N,,,,*6C
$IIDPT,007.6,+0.7,*41
$IIGLL,4612.995,N,00609.799,E,132923,A,A*54
$IIHDG,310,,,,*55
$IIMTW,+21.0,C*3B
$IIMWV,038,R,15.4,N,A*18
$IIMWV,057,T,11.1,N,A*16
$IIRMC,132923,A,4612.995,N,00609.799,E,06.7,306,050814,,,A*41
$IIVHW,,,310,M,06.0,N,,*60
$IIVLW,53412,N,000.3,N*51
$IIVWR,037,R,15.2,N,,,,*63
$IIDPT,007.6,+0.7,*41
$IIGLL,4612.996,N,00609.797,E,132924,A,A*5E
$IIHDG,310,,,,*55
$IIMTW,+21.0,C*3B
$IIMWV,037,R,15.2,N,A*11
$IIMWV,058,T,11.2,N,A*1A
$IIRMC,132924,A,4612.996,N,00609.797,E,06.4,310,050814,,,A*4F
$IIVHW,,,310,M,06.0,N,,*60
$IIVLW,53412,N,000.3,N*51
$IIVWR,037,R,15.3,N,,,,*62
$IIDPT,007.6,+0.7,*41
$IIGLL,4612.997,N,00609.795,E,132925,A,A*5C
$IIHDG,311,,,,*54
$IIMTW,+21.0,C*3B
$IIMWV,037,R,15.3,N,A*10
$IIMWV,057,T,10.9,N,A*1F
$IIRMC,132925,A,4612.997,N,00609.795,E,06.4,305,050814,,,A*49
$IIVHW,,,311,M,06.0,N,,*61
$IIVLW,53412,N,000.3,N*51
$IIVWR,035,R,15.6,N,,,,*65
$IIDPT,007.7,+0.7,*40
$IIGLL,4612.998,N,00609.793,E,132926,A,A*56
$IIHDG,311,,,,*54
$IIMTW,+21.0,C*3B
$IIMWV,035,R,15.6,N,A*17
$IIMWV,056,T,10.9,N,A*1E
$IIRMC,132927,A,4613.000,N,00609.791,E,06.5,310,050814,,,A*4C
$IIVHW,,,312,M,06.0,N,,*62
$IIVLW,53412,N,000.3,N*51
$IIVWR,035,R,15.7,N,,,,*64
$IIDPT,007.7,+0.7,*40
$IIGLL,4613.000,N,00609.791,E,132927,A,A*5C
$IIHDG,312,,,,*57
$IIMTW,+21.0,C*3B
$IIMWV,035,R,15.7,N,A*16
$IIMWV,053,T,11.2,N,A*11
$IIRMC,132928,A,4613.001,N,00609.789,E,06.2,313,050814,,,A*4F
$IIVHW,,,312,M,05.9,N,,*68
$IIVLW,53412,N,000.3,N*51
$IIVWR,036,R,15.3,N,,,,*63
$IIDPT,007.7,+0.7,*40
$IIGLL,4613.001,N,00609.789,E,132928,A,A*5B
$IIHDG,312,,,,*57
$IIMTW,+21.0,C*3B
$IIMWV,036,R,15.6,N,A*14
$IIMWV,055,T,10.9,N,A*1D
$IIRMC,132929,A,4613.002,N,00609.787,E,06.2,313,050814,,,A*43
$IIVHW,,,312,M,05.9,N,,*68
$IIVLW,53412,N,000.3,N*51
$IIVWR,036,R,15.6,N,,,,*66
$IIDPT,007.7,+0.7,*40
$IIGLL,4613.002,N,00609.787,E,132929,A,A*57
$IIHDG,312,,,,*57
$IIMTW,+21.0,C*3B
$IIMWV,037,R,15.7,N,A*14
$IIMWV,054,T,11.3,N,A*17
$IIRMC,132930,A,4613.003,N,00609.785,E,06.4,312,050814,,,A*4F
$IIVHW,,,312,M,05.9,N,,*68
$IIVLW,53412,N,000.3,N*51
$IIVWR,037,R,15.7,N,,,,*66
$IIDPT,007.7,+0.7,*40
$IIGLL,4613.003,N,00609.785,E,132930,A,A*5C
$IIHDG,312,,,,*57
$IIMTW,+21.0,C*3B
$IIMWV,037,R,15.7,N,A*14
$IIMWV,055,T,11.4,N,A*11
$IIRMC,132931,A,4613.004,N,00609.784,E,06.4,311,050814,,,A*4B
$IIVHW,,,312,M,05.9,N,,*68
$IIVLW,53412,N,000.3,N*51
$IIVWR,037,R,15.7,N,,,,*66
$IIDPT,007.7,+0.7,*40
$IIGLL,4613.006,N,00609.782,E,132932,A,A*5C
$IIHDG,312,,,,*57
$IIMTW,+21.0,C*3B
$IIMWV,037,R,15.8,N,A*1B
$IIMWV,055,T,11.4,N,A*11
$IIRMC,132932,A,4613.006,N,00609.782,E,06.5,311,050814,,,A*4D
$IIVHW,,,312,M,06.0,N,,*62
$IIVLW,53412,N,000.3,N*51
$IIVWR,037,R,15.8,N,,,,*69
$IIDPT,007.7,+0.7,*40
$IIGLL,4613.007,N,00609.780,E,132933,A,A*5E
$IIHDG,312,,,,*57
$IIMTW,+21.0,C*3B
$IIMWV,036,R,15.8,N,A*1A
$IIMWV,055,T,11.4,N,A*11
$IIRMC,132933,A,4613.007,N,00609.780,E,06.1,312,050814,,,A*48
$IIVHW,,,312,M,06.0,N,,*62
$IIVLW,53412,N,000.3,N*51
$IIVWR,035,R,16.3,N,,,,*63
$IIDPT,007.7,+0.7,*40
$IIGLL,4613.008,N,00609.778,E,132934,A,A*51
$IIHDG,313,,,,*56
$IIMTW,+21.0,C*3B
$IIMWV,035,R,16.3,N,A*11
$IIMWV,055,T,11.4,N,A*11
$IIRMC,132934,A,4613.008,N,00609.778,E,07.1,316,050814,,,A*42
$IIVHW,,,313,M,06.0,N,,*63
$IIVLW,53412,N,000.3,N*51
$IIVWR,037,R,16.6,N,,,,*64
$IIDPT,007.7,+0.7,*40
$IIGLL,4613.008,N,00609.778,E,132934,A,A*51
$IIHDG,314,,,,*51
$IIMTW,+21.0,C*3B
$IIMWV,037,R,16.6,N,A*16
$IIMWV,052,T,11.6,N,A*14
$IIRMC,132934,A,4613.008,N,00609.778,E,07.1,316,050814,,,A*42
$IIVHW,,,313,M,06.1,N,,*62
$IIVLW,53412,N,000.3,N*51
$IIVWR,036,R,16.7,N,,,,*64
$IIDPT,007.7,+0.7,*40
$IIGLL,4613.010,N,00609.773,E,132936,A,A*51
$IIHDG,313,,,,*56
$IIMTW,+21.0,C*3B
$IIMWV,036,R,16.7,N,A*16
$IIMWV,054,T,12.1,N,A*16
$IIRMC,132937,A,4613.011,N,00609.771,E,06.9,315,050814,,,A*4A
$IIVHW,,,314,M,06.1,N,,*65
$IIVLW,53412,N,000.3,N*51
$IIVWR,037,R,16.5,N,,,,*67
$IIDPT,007.7,+0.7,*40
$IIGLL,4613.011,N,00609.771,E,132937,A,A*53
$IIHDG,314,,,,*51
$IIMTW,+21.0,C*3B
$IIMWV,037,R,16.5,N,A*15
$IIMWV,055,T,12.1,N,A*17
$IIRMC,132938,A,4613.013,N,00609.770,E,06.2,309,050814,,,A*40
$IIVHW,,,313,M,06.2,N,,*61
$IIVLW,53412,N,000.3,N*51
$IIVWR,037,R,16.7,N,,,,*65
$IIDPT,007.7,+0.7,*40
$IIGLL,4613.013,N,00609.770,E,132938,A,A*5F
$IIHDG,313,,,,*56
$IIMTW,+21.0,C*3B
$IIMWV,037,R,16.9,N,A*19
$IIMWV,055,T,12.2,N,A*14
$IIRMC,132939,A,4613.013,N,00609.767,E,07.0,324,050814,,,A*4B
$IIVHW,,,312,M,06.3,N,,*61
$IIVLW,53412,N,000.3,N*51
$IIVWR,037,R,16.9,N,,,,*6B
$IIDPT,007.7,+0.7,*40
$IIGLL,4613.013,N,00609.767,E,132939,A,A*58
$IIHDG,312,,,,*57
$IIMTW,+21.0,C*3B
$IIMWV,037,R,16.9,N,A*19
$IIMWV,054,T,12.4,N,A*13
$IIRMC,132940,A,4613.015,N,00609.766,E,06.6,305,050814,,,A*46
$IIVHW,,,313,M,06.3,N,,*60
$IIVLW,53412,N,000.3,N*51
$IIVWR,037,R,16.9,N,,,,*6B
$IIDPT,007.7,+0.7,*40
$IIGLL,4613.015,N,00609.766,E,132940,A,A*51
$IIHDG,313,,,,*56
$IIMTW,+21.0,C*3B
$IIMWV,036,R,16.6,N,A*17
$IIMWV,054,T,12.4,N,A*13
$IIRMC,132941,A,4613.016,N,00609.763,E,06.6,308,050814,,,A*4C
$IIVHW,,,313,M,06.3,N,,*60
$IIVLW,53412,N,000.3,N*51
$IIVWR,036,R,16.6,N,,,,*65
$IIDPT,007.7,+0.7,*40
$IIGLL,4613.017,N,00609.761,E,132942,A,A*56
$IIHDG,313,,,,*56
$IIMTW,+21.0,C*3B
$IIMWV,037,R,16.7,N,A*17
$IIMWV,054,T,11.9,N,A*1D
$IIRMC,132942,A,4613.017,N,00609.761,E,07.3,320,050814,,,A*42
$IIVHW,,,313,M,06.4,N,,*67
$IIVLW,53412,N,000.4,N*56
$IIVWR,037,R,16.7,N,,,,*65
$IIDPT,007.7,+0.7,*40
$IIGLL,4613.019,N,00609.759,E,132943,A,A*52
$IIHDG,313,,,,*56
$IIMTW,+21.0,C*3B
$IIMWV,038,R,16.9,N,A*16
$IIMWV,055,T,12.1,N,A*17
$IIRMC,132943,A,4613.019,N,00609.759,E,07.0,310,050814,,,A*46
$IIVHW,,,313,M,06.4,N,,*67
$IIVLW,53412,N,000.4,N*56
$IIVWR,038,R,17.2,N,,,,*6E
$IIDPT,007.7,+0.7,*40
$IIGLL,4613.020,N,00609.757,E,132944,A,A*51
$IIHDG,313,,,,*56
$IIMTW,+21.0,C*3B
$IIMWV,038,R,17.2,N,A*1C
$IIMWV,057,T,12.4,N,A*10
$IIRMC,132944,A,4613.020,N,00609.757,E,06.9,310,050814,,,A*4D
$IIVHW,,,313,M,06.4,N,,*67
$IIVLW,53412,N,000.4,N*56
$IIVWR,039,R,17.2,N,,,,*6F
$IIDPT,007.7,+0.7,*40
$IIGLL,4613.021,N,00609.755,E,132945,A,A*53
$IIHDG,313,,,,*56
$IIMTW,+21.0,C*3B
$IIMWV,039,R,17.2,N,A*1D
$IIMWV,057,T,12.7,N,A*13
$IIRMC,132945,A,4613.021,N,00609.755,E,06.4,315,050814,,,A*47
$IIVHW,,,312,M,06.4,N,,*66
$IIVLW,53412,N,000.4,N*56
$IIVWR,039,R,17.2,N,,,,*6F
$IIDPT,007.7,+0.7,*40
$IIGLL,4613.022,N,00609.753,E,132946,A,A*55
$IIHDG,312,,,,*57
$IIMTW,+21.0,C*3B
$IIMWV,039,R,17.2,N,A*1D
$IIMWV,057,T,12.8,N,A*1C
$IIRMC,132947,A,4613.024,N,00609.752,E,06.7,309,050814,,,A*49
$IIVHW,,,311,M,06.5,N,,*64
$IIVLW,53412,N,000.4,N*56
$IIVWR,040,R,17.1,N,,,,*62
$IIDPT,007.7,+0.7,*40
$IIGLL,4613.024,N,00609.752,E,132947,A,A*53
$IIHDG,311,,,,*54
$IIMTW,+21.0,C*3B
$IIMWV,040,R,17.1,N,A*10
$IIMWV,059,T,12.7,N,A*1D
$IIRMC,132948,A,4613.025,N,00609.749,E,07.1,306,050814,,,A*45
$IIVHW,,,309,M,06.6,N,,*6E
$IIVLW,53412,N,000.4,N*56
$IIVWR,040,R,16.7,N,,,,*65
$IIDPT,007.7,+0.7,*40
$IIGLL,4613.025,N,00609.749,E,132948,A,A*57
$IIHDG,309,,,,*5D
$IIMTW,+21.0,C*3B
$IIMWV,040,R,16.7,N,A*17
$IIMWV,060,T,12.2,N,A*12
$IIRMC,132949,A,4613.026,N,00609.747,E,07.1,303,050814,,,A*4C
$IIVHW,,,310,M,06.6,N,,*66
$IIVLW,53412,N,000.4,N*56
$IIVWR,040,R,16.7,N,,,,*65
$IIDPT,007.7,+0.7,*40
$IIGLL,4613.026,N,00609.747,E,132949,A,A*5B
$IIHDG,310,,,,*55
$IIMTW,+21.0,C*3B
$IIMWV,040,R,16.9,N,A*19
$IIMWV,060,T,12.2,N,A*12
$IIRMC,132950,A,4613.028,N,00609.745,E,06.4,311,050814,,,A*4F
$IIVHW,,,309,M,06.6,N,,*6E
$IIVLW,53412,N,000.4,N*56
$IIVWR,040,R,16.9,N,,,,*6B
$IIDPT,007.7,+0.7,*40
$IIGLL,4613.028,N,00609.745,E,132950,A,A*5F
$IIHDG,309,,,,*5D
$IIMTW,+21.0,C*3B
$IIMWV,039,R,16.9,N,A*17
$IIMWV,059,T,12.5,N,A*1F
$IIRMC,132951,A,4613.029,N,00609.743,E,07.1,314,050814,,,A*48
$IIVHW,,,309,M,06.6,N,,*6E
$IIVLW,53412,N,000.4,N*56
$IIVWR,039,R,16.9,N,,,,*65
$IIDPT,007.7,+0.7,*40
$IIGLL,4613.030,N,00609.741,E,132952,A,A*50
$IIHDG,310,,,,*55
$IIMTW,+21.0,C*3B
$IIMWV,039,R,16.9,N,A*17
$IIMWV,059,T,12.3,N,A*19
$IIRMC,132952,A,4613.030,N,00609.741,E,07.5,310,050814,,,A*41
$IIVHW,,,310,M,06.6,N,,*66
$IIVLW,53412,N,000.4,N*56
$IIVWR,039,R,16.9,N,,,,*65
$IIDPT,007.7,+0.7,*40
$IIGLL,4613.032,N,00609.739,E,132953,A,A*5C
$IIHDG,310,,,,*55
$IIMTW,+21.0,C*3B
$IIMWV,038,R,17.0,N,A*1E
$IIMWV,059,T,12.3,N,A*19
$IIRMC,132953,A,4613.032,N,00609.739,E,06.0,302,050814,,,A*4A
$IIVHW,,,310,M,06.7,N,,*67
$IIVLW,53412,N,000.4,N*56
$IIVWR,038,R,17.0,N,,,,*6C
$IIDPT,007.7,+0.7,*40
$IIGLL,4613.032,N,00609.737,E,132954,A,A*55
$IIHDG,310,,,,*55
$IIMTW,+21.0,C*3B
$IIMWV,038,R,17.0,N,A*1E
$IIMWV,058,T,12.4,N,A*1F
$IIRMC,132954,A,4613.032,N,00609.737,E,06.4,297,050814,,,A*4A
$IIVHW,,,310,M,06.8,N,,*68
$IIVLW,53412,N,000.4,N*56
$IIVWR,038,R,17.0,N,,,,*6C
$IIDPT,007.8,+0.7,*4F
$IIGLL,4613.033,N,00609.734,E,132955,A,A*56
$IIHDG,310,,,,*55
$IIMTW,+21.0,C*3B
$IIMWV,038,R,17.0,N,A*1E
$IIMWV,058,T,12.4,N,A*1F
$IIRMC,132955,A,4613.033,N,00609.734,E,07.3,307,050814,,,A*47
$IIVHW,,,311,M,06.7,N,,*66
$IIVLW,53412,N,000.4,N*56
$IIVWR,039,R,17.1,N,,,,*6C
$IIDPT,007.9,+0.7,*4E
$IIGLL,4613.035,N,00609.732,E,132956,A,A*55
$IIHDG,311,,,,*54
$IIMTW,+21.0,C*3B
$IIMWV,039,R,17.1,N,A*1E
$IIMWV,058,T,12.4,N,A*1F
$IIRMC,132957,A,4613.036,N,00609.730,E,05.7,311,050814,,,A*45
$IIVHW,,,311,M,06.7,N,,*66
$IIVLW,53412,N,000.4,N*56
$IIVWR,039,R,17.1,N,,,,*6C
$IIDPT,007.9,+0.7,*4E
$IIGLL,4613.036,N,00609.730,E,132957,A,A*55
$IIHDG,311,,,,*54
$IIMTW,+21.0,C*3B
$IIMWV,039,R,17.1,N,A*1E
$IIMWV,058,T,12.5,N,A*1E
$IIRMC,132958,A,4613.037,N,00609.728,E,07.6,312,050814,,,A*42
$IIVHW,,,311,M,06.6,N,,*67
$IIVLW,53412,N,000.4,N*56
$IIVWR,039,R,17.1,N,,,,*6C
$IIDPT,007.9,+0.7,*4E
$IIGLL,4613.037,N,00609.728,E,132958,A,A*52
$IIHDG,311,,,,*54
$IIMTW,+21.0,C*3B
$IIMWV,038,R,17.4,N,A*1A
$IIMWV,058,T,12.5,N,A*1E
$IIRMC,132959,A,4613.038,N,00609.726,E,06.8,306,050814,,,A*48
$IIVHW,,,311,M,06.6,N,,*67
$IIVLW,53412,N,000.4,N*56
$IIVWR,038,R,17.4,N,,,,*68
$IIDPT,008.0,+0.7,*48
$IIGLL,4613.038,N,00609.726,E,132959,A,A*52
$IIHDG,311,,,,*54
$IIMTW,+21.0,C*3B
$IIMWV,039,R,17.2,N,A*1D
$IIMWV,057,T,12.8,N,A*1C
$IIRMC,133000,A,4613.039,N,00609.723,E,08.1,305,050814,,,A*4C
$IIVHW,,,311,M,06.6,N,,*67
$IIVLW,53412,N,000.4,N*56
$IIVWR,039,R,17.2,N,,,,*6F
$IIDPT,008.1,+0.7,*49
$IIGLL,4613.039,N,00609.723,E,133000,A,A*52
$IIHDG,311,,,,*54
$IIMTW,+21.0,C*3B
$IIMWV,038,R,17.4,N,A*1A
$IIMWV,058,T,12.7,N,A*1C
$IIRMC,133001,A,4613.040,N,00609.720,E,07.7,305,050814,,,A*49
$IIVHW,,,311,M,06.6,N,,*67
$IIVLW,53412,N,000.4,N*56
$IIVWR,038,R,17.4,N,,,,*68
$IIDPT,008.1,+0.7,*49
$IIGLL,4613.042,N,00609.718,E,133002,A,A*54
$IIHDG,311,,,,*54
$IIMTW,+21.0,C*3B
$IIMWV,038,R,17.2,N,A*1C
$IIMWV,057,T,12.8,N,A*1C
$IIRMC,133002,A,4613.042,N,00609.718,E,07.5,305,050814,,,A*41
$IIVHW,,,311,M,06.6,N,,*67
$IIVLW,53412,N,000.4,N*56
$IIVWR,038,R,17.2,N,,,,*6E
$IIDPT,008.1,+0.7,*49
$IIGLL,4613.043,N,00609.715,E,133003,A,A*59
$IIHDG,312,,,,*57
$IIMTW,+21.0,C*3B
$IIMWV,038,R,17.2,N,A*1C
$IIMWV,057,T,12.6,N,A*12
$IIRMC,133003,A,4613.043,N,00609.715,E,07.2,311,050814,,,A*4E
$IIVHW,,,312,M,06.6,N,,*64
$IIVLW,53412,N,000.4,N*56
$IIVWR,037,R,17.4,N,,,,*67
$IIDPT,008.1,+0.7,*49
$IIGLL,4613.044,N,00609.713,E,133004,A,A*5F
$IIHDG,313,,,,*56
$IIMTW,+21.0,C*3B
$IIMWV,037,R,17.4,N,A*15
$IIMWV,057,T,12.5,N,A*11
$IIRMC,133004,A,4613.044,N,00609.713,E,07.2,311,050814,,,A*48
$IIVHW,,,313,M,06.6,N,,*65
$IIVLW,53412,N,000.4,N*56
$IIVWR,037,R,17.2,N,,,,*61
$IIDPT,008.1,+0.7,*49
$IIGLL,4613.046,N,00609.711,E,133005,A,A*5E
$IIHDG,314,,,,*51
$IIMTW,+21.0,C*3B
$IIMWV,037,R,17.2,N,A*13
$IIMWV,055,T,12.7,N,A*11
$IIRMC,133005,A,4613.046,N,00609.711,E,06.9,311,050814,,,A*43
$IIVHW,,,314,M,06.6,N,,*62
$IIVLW,53412,N,000.4,N*56
$IIVWR,037,R,17.4,N,,,,*67
$IIDPT,008.1,+0.7,*49
$IIGLL,4613.047,N,00609.709,E,133006,A,A*55
$IIHDG,314,,,,*51
$IIMTW,+21.0,C*3B
$IIMWV,037,R,17.4,N,A*15
$IIMWV,056,T,12.4,N,A*11
$IIRMC,133007,A,4613.048,N,00609.707,E,07.1,314,050814,,,A*44
$IIVHW,,,315,M,06.5,N,,*60
$IIVLW,53412,N,000.4,N*56
$IIVWR,037,R,17.1,N,,,,*62
$IIDPT,008.2,+0.7,*4A
$IIGLL,4613.048,N,00609.707,E,133007,A,A*55
$IIHDG,315,,,,*50
$IIMTW,+21.0,C*3B
$IIMWV,037,R,17.1,N,A*10
$IIMWV,056,T,12.3,N,A*16
$IIRMC,133008,A,4613.049,N,00609.704,E,07.8,329,050814,,,A*4E
$IIVHW,,,315,M,06.5,N,,*60
$IIVLW,53412,N,000.4,N*56
$IIVWR,037,R,17.1,N,,,,*62
$IIDPT,008.3,+0.7,*4B
$IIGLL,4613.049,N,00609.704,E,133008,A,A*58
$IIHDG,315,,,,*50
$IIMTW,+21.0,C*3B
$IIMWV,037,R,16.9,N,A*19
$IIMWV,056,T,12.3,N,A*16
$IIRMC,133009,A,4613.051,N,00609.702,E,07.3,309,050814,,,A*49
$IIVHW,,,315,M,06.5,N,,*60
$IIVLW,53412,N,000.4,N*56
$IIVWR,037,R,16.9,N,,,,*6B
$IIDPT,008.3,+0.7,*4B
$IIGLL,4613.051,N,00609.702,E,133009,A,A*56
$IIHDG,315,,,,*50
$IIMTW,+21.0,C*3B
$IIMWV,037,R,17.1,N,A*10
$IIMWV,055,T,12.2,N,A*14
$IIRMC,133010,A,4613.052,N,00609.700,E,05.9,304,050814,,,A*45
$IIVHW,,,315,M,06.5,N,,*60
$IIVLW,53412,N,000.4,N*56
$IIVWR,037,R,17.1,N,,,,*62
$IIDPT,008.3,+0.7,*4B
$IIGLL,4613.052,N,00609.700,E,133010,A,A*5F
$IIHDG,315,,,,*50
$IIMTW,+21.0,C*3B
$IIMWV,038,R,17.2,N,A*1C
$IIMWV,055,T,12.4,N,A*12
$IIRMC,133011,A,4613.054,N,00609.698,E,07.3,310,050814,,,A*4F
$IIVHW,,,315,M,06.5,N,,*60
$IIVLW,53412,N,000.4,N*56
$IIVWR,038,R,17.2,N,,,,*6E
$IIDPT,008.3,+0.7,*4B
$IIGLL,4613.056,N,00609.696,E,133012,A,A*57
$IIHDG,316,,,,*53
$IIMTW,+21.0,C*3B
$IIMWV,038,R,17.2,N,A*1C
$IIMWV,057,T,12.7,N,A*13
$IIRMC,133012,A,4613.056,N,00609.696,E,07.3,311,050814,,,A*41
$IIVHW,,,316,M,06.5,N,,*63
$IIVLW,53412,N,000.4,N*56
$IIVWR,038,R,17.2,N,,,,*6E
$IIDPT,008.3,+0.7,*4B
$IIGLL,4613.057,N,00609.694,E,133013,A,A*55
$IIHDG,316,,,,*53
$IIMTW,+21.0,C*3B
$IIMWV,038,R,17.1,N,A*1F
$IIMWV,057,T,12.7,N,A*13
$IIRMC,133013,A,4613.057,N,00609.694,E,07.1,314,050814,,,A*44
$IIVHW,,,316,M,06.4,N,,*62
$IIVLW,53412,N,000.4,N*56
$IIVWR,038,R,16.7,N,,,,*6A
$IIDPT,008.3,+0.7,*4B
$IIGLL,4613.058,N,00609.692,E,133014,A,A*5B
$IIHDG,317,,,,*52
$IIMTW,+21.0,C*3B
$IIMWV,038,R,16.7,N,A*18
$IIMWV,057,T,12.7,N,A*13
$IIRMC,133014,A,4613.058,N,00609.692,E,07.1,315,050814,,,A*4B
$IIVHW,,,317,M,06.4,N,,*63
$IIVLW,53412,N,000.4,N*56
$IIVWR,038,R,16.9,N,,,,*64
$IIDPT,008.4,+0.7,*4C
$IIGLL,4613.060,N,00609.690,E,133015,A,A*53
$IIHDG,317,,,,*52
$IIMTW,+21.0,C*3B
$IIMWV,038,R,16.9,N,A*16
$IIMWV,057,T,12.2,N,A*16
$IIRMC,133015,A,4613.060,N,00609.690,E,06.9,315,050814,,,A*4A
$IIVHW,,,317,M,06.5,N,,*62
$IIVLW,53412,N,000.4,N*56
$IIVWR,037,R,16.9,N,,,,*6B
$IIDPT,008.5,+0.7,*4D
$IIGLL,4613.061,N,00609.688,E,133016,A,A*58
$IIHDG,317,,,,*52
$IIMTW,+21.0,C*3B
$IIMWV,037,R,16.9,N,A*19
$IIMWV,057,T,12.4,N,A*10
$IIRMC,133017,A,4613.063,N,00609.686,E,07.1,317,050814,,,A*47
$IIVHW,,,317,M,06.5,N,,*62
$IIVLW,53412,N,000.4,N*56
$IIVWR,036,R,17.1,N,,,,*63
$IIDPT,008.5,+0.7,*4D
$IIGLL,4613.063,N,00609.686,E,133017,A,A*55
$IIHDG,317,,,,*52
$IIMTW,+21.0,C*3B
$IIMWV,036,R,17.1,N,A*11
$IIMWV,054,T,12.3,N,A*14
$IIRMC,133018,A,4613.064,N,00609.684,E,06.8,308,050814,,,A*4B
$IIVHW,,,316,M,06.5,N,,*63
$IIVLW,53412,N,000.4,N*56
$IIVWR,036,R,16.9,N,,,,*6A
$IIDPT,008.5,+0.7,*4D
$IIGLL,4613.064,N,00609.684,E,133018,A,A*5F
$IIHDG,316,,,,*53
$IIMTW,+21.0,C*3B
$IIMWV,036,R,16.9,N,A*18
$IIMWV,055,T,12.1,N,A*17
$IIRMC,133019,A,4613.065,N,00609.682,E,07.4,315,050814,,,A*4C
$IIVHW,,,316,M,06.5,N,,*63
$IIVLW,53412,N,000.4,N*56
$IIVWR,036,R,16.9,N,,,,*6A
$IIDPT,008.5,+0.7,*4D
$IIGLL,4613.065,N,00609.682,E,133019,A,A*59
$IIHDG,316,,,,*53
$IIMTW,+21.0,C*3B
$IIMWV,036,R,16.9,N,A*18
$IIMWV,055,T,12.1,N,A*17
$IIRMC,133020,A,4613.067,N,00609.680,E,07.1,313,050814,,,A*45
$IIVHW,,,317,M,06.5,N,,*62
$IIVLW,53412,N,000.4,N*56
$IIVWR,036,R,16.9,N,,,,*6A
$IIDPT,008.5,+0.7,*4D
$IIGLL,4613.067,N,00609.680,E,133020,A,A*53
$IIHDG,316,,,,*53
$IIMTW,+21.0,C*3B
$IIMWV,036,R,16.9,N,A*18
$IIMWV,054,T,12.1,N,A*16
$IIRMC,133020,A,4613.067,N,00609.680,E,07.1,313,050814,,,A*45
$IIVHW,,,316,M,06.4,N,,*62
$IIVLW,53412,N,000.4,N*56
$IIVWR,036,R,16.9,N,,,,*6A
$IIDPT,008.5,+0.7,*4D
$IIGLL,4613.071,N,00609.674,E,133023,A,A*5C
$IIHDG,316,,,,*53
$IIMTW,+21.0,C*3B
$IIMWV,036,R,16.7,N,A*16
$IIMWV,056,T,12.0,N,A*15
$IIRMC,133023,A,4613.071,N,00609.674,E,06.9,313,050814,,,A*43
$IIVHW,,,316,M,06.3,N,,*65
$IIVLW,53412,N,000.4,N*56
$IIVWR,036,R,16.7,N,,,,*64
$IIDPT,008.5,+0.7,*4D
$IIGLL,4613.072,N,00609.673,E,133024,A,A*5F
$IIHDG,316,,,,*53
$IIMTW,+21.0,C*3B
$IIMWV,036,R,16.5,N,A*14
$IIMWV,054,T,12.1,N,A*16
$IIRMC,133024,A,4613.072,N,00609.673,E,06.5,312,050814,,,A*4D
$IIVHW,,,316,M,06.3,N,,*65
$IIVLW,53412,N,000.4,N*56
$IIVWR,036,R,16.2,N,,,,*61
$IIDPT,008.5,+0.7,*4D
$IIGLL,4613.074,N,00609.670,E,133025,A,A*5B
$IIHDG,316,,,,*53
$IIMTW,+21.0,C*3B
$IIMWV,036,R,16.2,N,A*13
$IIMWV,055,T,11.9,N,A*1C
$IIRMC,133025,A,4613.074,N,00609.670,E,07.4,309,050814,,,A*43
$IIVHW,,,316,M,06.3,N,,*65
$IIVLW,53412,N,000.4,N*56
$IIVWR,035,R,16.5,N,,,,*65
$IIDPT,008.5,+0.7,*4D
$IIGLL,4613.075,N,00609.668,E,133026,A,A*50
$IIHDG,316,,,,*53
$IIMTW,+21.0,C*3B
$IIMWV,035,R,16.5,N,A*17
$IIMWV,055,T,11.6,N,A*13
$IIRMC,133026,A,4613.075,N,00609.668,E,06.6,313,050814,,,A*40
$IIVHW,,,316,M,06.4,N,,*62
$IIVLW,53412,N,000.4,N*56
$IIVWR,035,R,16.6,N,,,,*66
$IIDPT,008.5,+0.7,*4D
$IIGLL,4613.076,N,00609.666,E,133027,A,A*5C
$IIHDG,316,,,,*53
$IIMTW,+21.0,C*3B
$IIMWV,035,R,16.6,N,A*14
$IIMWV,053,T,11.7,N,A*14
$IIRMC,133028,A,4613.078,N,00609.664,E,07.3,313,050814,,,A*4B
$IIVHW,,,316,M,06.4,N,,*62
$IIVLW,53412,N,000.4,N*56
$IIVWR,035,R,16.5,N,,,,*65
$IIDPT,008.5,+0.7,*4D
$IIGLL,4613.078,N,00609.664,E,133028,A,A*5F
$IIHDG,316,,,,*53
$IIMTW,+21.0,C*3B
$IIMWV,035,R,16.5,N,A*17
$IIMWV,053,T,11.7,N,A*14
$IIRMC,133029,A,4613.079,N,00609.662,E,05.9,312,050814,,,A*44
$IIVHW,,,316,M,06.4,N,,*62
$IIVLW,53412,N,000.4,N*56
$IIVWR,036,R,16.6,N,,,,*65
$IIDPT,008.5,+0.7,*4D
$IIGLL,4613.079,N,00609.662,E,133029,A,A*59
$IIHDG,316,,,,*53
$IIMTW,+21.0,C*3B
$IIMWV,037,R,16.7,N,A*17
$IIMWV,054,T,11.9,N,A*1D
$IIRMC,133030,A,4613.080,N,00609.661,E,06.3,315,050814,,,A*47
$IIVHW,,,316,M,06.4,N,,*62
$IIVLW,53412,N,000.4,N*56
$IIVWR,037,R,16.7,N,,,,*65
$IIDPT,008.5,+0.7,*4D
$IIGLL,4613.080,N,00609.661,E,133030,A,A*54
$IIHDG,316,,,,*53
$IIMTW,+21.0,C*3B
$IIMWV,037,R,17.2,N,A*13
$IIMWV,056,T,12.0,N,A*15
$IIRMC,133031,A,4613.082,N,00609.659,E,07.8,311,050814,,,A*41
$IIVHW,,,316,M,06.4,N,,*62
$IIVLW,53412,N,000.4,N*56
$IIVWR,037,R,17.2,N,,,,*61
$IIDPT,008.5,+0.7,*4D
$IIGLL,4613.082,N,00609.659,E,133031,A,A*5C
$IIHDG,316,,,,*53
$IIMTW,+21.0,C*3B
$IIMWV,037,R,17.1,N,A*10
$IIMWV,055,T,12.5,N,A*13
$IIRMC,133032,A,4613.083,N,00609.657,E,07.0,314,050814,,,A*40
$IIVHW,,,316,M,06.5,N,,*63
$IIVLW,53412,N,000.4,N*56
$IIVWR,037,R,17.1,N,,,,*62
$IIDPT,008.5,+0.7,*4D
$IIGLL,4613.086,N,00609.653,E,133034,A,A*57
$IIHDG,316,,,,*53
$IIMTW,+21.0,C*3B
$IIMWV,035,R,17.0,N,A*13
$IIMWV,054,T,12.3,N,A*14
$IIRMC,133034,A,4613.086,N,00609.653,E,07.2,314,050814,,,A*45
$IIVHW,,,316,M,06.6,N,,*60
$IIVLW,53412,N,000.4,N*56
$IIVWR,035,R,17.0,N,,,,*61
$IIDPT,008.5,+0.7,*4D
$IIGLL,4613.086,N,00609.653,E,133034,A,A*57
$IIHDG,316,,,,*53
$IIMTW,+21.0,C*3B
$IIMWV,035,R,17.1,N,A*12
$IIMWV,053,T,12.0,N,A*10
$IIRMC,133034,A,4613.086,N,00609.653,E,07.2,314,050814,,,A*45
$IIVHW,,,316,M,06.6,N,,*60
$IIVLW,53412,N,000.4,N*56
$IIVWR,035,R,17.1,N,,,,*60
$IIDPT,008.5,+0.7,*4D
$IIGLL,4613.088,N,00609.649,E,133036,A,A*50
$IIHDG,317,,,,*52
$IIMTW,+21.0,C*3B
$IIMWV,035,R,17.1,N,A*12
$IIMWV,053,T,12.1,N,A*11
$IIRMC,133036,A,4613.088,N,00609.649,E,07.6,311,050814,,,A*43
$IIVHW,,,317,M,06.6,N,,*61
$IIVLW,53412,N,000.4,N*56
$IIVWR,036,R,17.5,N,,,,*67
$IIDPT,008.5,+0.7,*4D
$IIGLL,4613.090,N,00609.647,E,133037,A,A*56
$IIHDG,318,,,,*5D
$IIMTW,+21.0,C*3B
$IIMWV,036,R,17.5,N,A*15
$IIMWV,053,T,12.1,N,A*11
$IIRMC,133037,A,4613.090,N,00609.647,E,07.1,319,050814,,,A*4A
$IIVHW,,,320,M,06.6,N,,*65
$IIVLW,53412,N,000.5,N*57
$IIVWR,036,R,17.8,N,,,,*6A
$IIDPT,008.5,+0.7,*4D
$IIGLL,4613.091,N,00609.645,E,133038,A,A*5A
$IIHDG,320,,,,*56
$IIMTW,+21.0,C*3B
$IIMWV,036,R,17.8,N,A*18
$IIMWV,054,T,12.7,N,A*10
