$IIHDG,181,,,01,E*1B
$IIGLL,4612.829,N,00610.244,E,075941,A,A*59
$IIHDG,046,,,01,E*11
$IIMTW,+00.0,C*38
$IIRMC,075941,A,4612.829,N,00610.244,E,00.0,000,220714,01,E,A*06
$IIGLL,4612.829,N,00610.244,E,075942,A,A*5A
$IIHDG,034,,,01,E*14
$IIMTW,+17.5,C*3B
$IIRMC,075942,A,4612.829,N,00610.244,E,00.0,000,220714,01,E,A*05
$IIVLW,53412,N,000.0,N*52
$IIGLL,4612.829,N,00610.244,E,075943,A,A*5B
$IIHDG,032,,,01,E*12
$IIMTW,+17.5,C*3B
$IIRMC,075943,A,4612.829,N,00610.244,E,00.0,000,220714,01,E,A*04
$IIVLW,53412,N,000.0,N*52
$IIDPT,002.6,+0.7,*44
$IIGLL,4612.829,N,00610.244,E,075943,A,A*5B
$IIHDG,031,,,01,E*11
$IIMTW,+17.5,C*3B
$IIRMC,075943,A,4612.829,N,00610.244,E,00.0,000,220714,01,E,A*04
$IIVLW,53412,N,000.0,N*52
$IIDPT,002.6,+0.7,*44
$IIGLL,4612.829,N,00610.244,E,075945,A,A*5D
$IIHDG,030,,,01,E*10
$IIMTW,+17.5,C*3B
$IIRMC,075945,A,4612.829,N,00610.244,E,00.0,000,220714,01,E,A*02
$IIVLW,53412,N,000.0,N*52
$IIDPT,002.6,+0.7,*44
$IIGLL,4612.829,N,00610.244,E,075946,A,A*5E
$IIHDG,030,,,01,E*10
$IIMTW,+17.5,C*3B
$IIRMC,075946,A,4612.829,N,00610.244,E,00.0,000,220714,01,E,A*01
$IIVLW,53412,N,000.0,N*52
$IIDPT,002.6,+0.7,*44
$IIGLL,4612.829,N,00610.244,E,075947,A,A*5F
$IIHDG,030,,,01,E*10
$IIMTW,+17.5,C*3B
$IIRMC,075947,A,4612.829,N,00610.244,E,00.0,000,220714,01,E,A*00
$IIVLW,53412,N,000.0,N*52
$IIDPT,002.6,+0.7,*44
$IIGLL,4612.829,N,00610.244,E,075948,A,A*50
$IIHDG,030,,,01,E*10
$IIMTW,+17.5,C*3B
$IIRMC,075948,A,4612.829,N,00610.244,E,00.0,000,220714,01,E,A*0F
$IIVLW,53412,N,000.0,N*52
$IIDPT,002.6,+0.7,*44
$IIGLL,4612.829,N,00610.244,E,075949,A,A*51
$IIHDG,030,,,01,E*10
$IIMTW,+17.5,C*3B
$IIRMC,075949,A,4612.829,N,00610.244,E,00.0,000,220714,01,E,A*0E
$IIVLW,53412,N,000.0,N*52
$IIDPT,002.6,+0.7,*44
$IIGLL,4612.829,N,00610.244,E,075950,A,A*59
$IIHDG,030,,,01,E*10
$IIMTW,+17.5,C*3B
$IIRMC,075950,A,4612.829,N,00610.244,E,00.0,000,220714,01,E,A*06
$IIVLW,53412,N,000.0,N*52
$IIDPT,002.6,+0.7,*44
$IIGLL,4612.829,N,00610.244,E,075951,A,A*58
$IIHDG,030,,,01,E*10
$IIMTW,+17.5,C*3B
$IIRMC,075951,A,4612.829,N,00610.244,E,00.0,000,220714,01,E,A*07
$IIVLW,53412,N,000.0,N*52
$IIDPT,002.6,+0.7,*44
$IIGLL,4612.829,N,00610.244,E,075952,A,A*5B
$IIHDG,030,,,01,E*10
$IIMTW,+17.5,C*3B
$IIRMC,075952,A,4612.829,N,00610.244,E,00.0,000,220714,01,E,A*04
$IIVLW,53412,N,000.0,N*52
$IIDPT,002.6,+0.7,*44
$IIGLL,4612.829,N,00610.244,E,075953,A,A*5A
$IIHDG,030,,,01,E*10
$IIMTW,+17.5,C*3B
$IIRMC,075953,A,4612.829,N,00610.244,E,00.0,000,220714,01,E,A*05
$IIVLW,53412,N,000.0,N*52
$IIDPT,002.6,+0.7,*44
$IIGLL,4612.829,N,00610.244,E,075954,A,A*5D
$IIHDG,030,,,01,E*10
$IIMTW,+17.5,C*3B
$IIRMC,075954,A,4612.829,N,00610.244,E,00.0,000,220714,01,E,A*02
$IIVLW,53412,N,000.0,N*52
$IIDPT,002.6,+0.7,*44
$IIGLL,4612.829,N,00610.244,E,075955,A,A*5C
$IIHDG,030,,,01,E*10
$IIMTW,+17.5,C*3B
$IIRMC,075955,A,4612.829,N,00610.244,E,00.0,000,220714,01,E,A*03
$IIVLW,53412,N,000.0,N*52
$IIDPT,002.6,+0.7,*44
$IIGLL,4612.829,N,00610.244,E,075955,A,A*5C
$IIHDG,030,,,01,E*10
$IIMTW,+17.5,C*3B
$IIRMC,075955,A,4612.829,N,00610.244,E,00.0,000,220714,01,E,A*03
$IIVLW,53412,N,000.0,N*52
$IIDPT,002.6,+0.7,*44
$IIGLL,4612.829,N,00610.244,E,075957,A,A*5E
$IIHDG,030,,,01,E*10
$IIMTW,+17.5,C*3B
$IIRMC,075958,A,4612.829,N,00610.244,E,00.0,000,220714,01,E,A*0E
$IIVLW,53412,N,000.0,N*52
$IIDPT,002.6,+0.7,*44
$IIGLL,4612.829,N,00610.244,E,075958,A,A*51
$IIHDG,030,,,01,E*10
$IIMTW,+17.5,C*3B
$IIRMC,075959,A,4612.828,N,00610.244,E,00.0,000,220714,01,E,A*0E
$IIVLW,53412,N,000.0,N*52
$IIDPT,002.6,+0.7,*44
$IIGLL,4612.828,N,00610.244,E,075959,A,A*51
$IIHDG,030,,,01,E*10
$IIMTW,+17.5,C*3B
$IIRMC,080000,A,4612.828,N,00610.244,E,00.0,000,220714,01,E,A*01
$IIVLW,53412,N,000.0,N*52
$IIDPT,002.6,+0.7,*44
$IIGLL,4612.828,N,00610.244,E,080000,A,A*5E
$IIHDG,030,,,01,E*10
$IIMTW,+17.5,C*3B
$IIRMC,080001,A,4612.828,N,00610.244,E,00.0,000,220714,01,E,A*00
$IIVLW,53412,N,000.0,N*52
$IIDPT,002.6,+0.7,*44
$IIGLL,4612.828,N,00610.244,E,080001,A,A*5F
$IIHDG,030,,,01,E*10
$IIMTW,+17.5,C*3B
$IIRMC,080002,A,4612.828,N,00610.244,E,00.0,000,220714,01,E,A*03
$IIVLW,53412,N,000.0,N*52
$IIDPT,002.6,+0.7,*44
$IIGLL,4612.828,N,00610.244,E,080002,A,A*5C
$IIHDG,030,,,01,E*10
$IIMTW,+17.5,C*3B
$IIRMC,080003,A,4612.828,N,00610.244,E,00.0,000,220714,01,E,A*02
$IIVLW,53412,N,000.0,N*52
$IIDPT,002.6,+0.7,*44
$IIGLL,4612.828,N,00610.244,E,080003,A,A*5D
$IIHDG,030,,,01,E*10
$IIMTW,+17.5,C*3B
$IIRMC,080004,A,4612.828,N,00610.244,E,00.0,000,220714,01,E,A*05
$IIVLW,53412,N,000.0,N*52
$IIDPT,002.6,+0.7,*44
$IIGLL,4612.828,N,00610.244,E,080004,A,A*5A
$IIHDG,030,,,01,E*10
$IIMTW,+17.5,C*3B
$IIRMC,080005,A,4612.828,N,00610.244,E,00.0,000,220714,01,E,A*04
$IIVLW,53412,N,000.0,N*52
$IIDPT,002.6,+0.7,*44
$IIGLL,4612.828,N,00610.244,E,080005,A,A*5B
$IIHDG,030,,,01,E*10
$IIMTW,+17.5,C*3B
$IIRMC,080006,A,4612.828,N,00610.244,E,00.0,000,220714,01,E,A*07
$IIVLW,53412,N,000.0,N*52
$IIDPT,002.6,+0.7,*44
$IIGLL,4612.828,N,00610.244,E,080006,A,A*58
$IIHDG,030,,,01,E*10
$IIMTW,+17.5,C*3B
$IIRMC,080007,A,4612.828,N,00610.244,E,00.0,000,220714,01,E,A*06
$IIVLW,53412,N,000.0,N*52
$IIDPT,002.6,+0.7,*44
$IIGLL,4612.828,N,00610.244,E,080007,A,A*59
$IIHDG,030,,,01,E*10
$IIMTW,+17.5,C*3B
$IIRMC,080008,A,4612.828,N,00610.244,E,00.0,000,220714,01,E,A*09
$IIVLW,53412,N,000.0,N*52
$IIDPT,002.6,+0.7,*44
$IIGLL,4612.828,N,00610.244,E,080008,A,A*56
$IIHDG,030,,,01,E*10
$IIMTW,+17.5,C*3B
$IIRMC,080009,A,4612.828,N,00610.244,E,00.0,000,220714,01,E,A*08
$IIVLW,53412,N,000.0,N*52
$IIDPT,002.6,+0.7,*44
$IIGLL,4612.828,N,00610.244,E,080009,A,A*57
$IIHDG,030,,,01,E*10
$IIMTW,+17.5,C*3B
$IIRMC,080010,A,4612.828,N,00610.244,E,00.0,000,220714,01,E,A*00
$IIVLW,53412,N,000.0,N*52
$IIDPT,002.6,+0.7,*44
$IIGLL,4612.828,N,00610.244,E,080010,A,A*5F
$IIHDG,030,,,01,E*10
$IIMTW,+17.5,C*3B
$IIRMC,080011,A,4612.828,N,00610.244,E,00.0,000,220714,01,E,A*01
$IIVLW,53412,N,000.0,N*52
$IIDPT,002.6,+0.7,*44
$IIGLL,4612.828,N,00610.244,E,080011,A,A*5E
$IIHDG,030,,,01,E*10
$IIMTW,+17.5,C*3B
$IIRMC,080012,A,4612.828,N,00610.244,E,00.0,000,220714,01,E,A*02
$IIVLW,53412,N,000.0,N*52
$IIDPT,002.6,+0.7,*44
$IIGLL,4612.828,N,00610.244,E,080012,A,A*5D
$IIHDG,030,,,01,E*10
$IIMTW,+17.5,C*3B
$IIRMC,080013,A,4612.828,N,00610.244,E,00.0,000,220714,01,E,A*03
$IIVLW,53412,N,000.0,N*52
$IIDPT,002.6,+0.7,*44
$IIGLL,4612.828,N,00610.244,E,080013,A,A*5C
$IIHDG,030,,,01,E*10
$IIMTW,+17.5,C*3B
$IIRMC,080014,A,4612.828,N,00610.244,E,00.0,000,220714,01,E,A*04
$IIVLW,53412,N,000.0,N*52
$IIDPT,002.6,+0.7,*44
$IIGLL,4612.828,N,00610.244,E,080014,A,A*5B
$IIHDG,030,,,01,E*10
$IIMTW,+17.5,C*3B
$IIRMC,080015,A,4612.828,N,00610.244,E,00.0,000,220714,01,E,A*05
$IIVLW,53412,N,000.0,N*52
$IIDPT,002.6,+0.7,*44
$IIGLL,4612.828,N,00610.244,E,080015,A,A*5A
$IIHDG,030,,,01,E*10
$IIMTW,+17.5,C*3B
$IIRMC,080015,A,4612.828,N,00610.244,E,00.0,000,220714,01,E,A*05
$IIVLW,53412,N,000.0,N*52
$IIDPT,002.6,+0.7,*44
$IIGLL,4612.828,N,00610.244,E,080015,A,A*5A
$IIHDG,030,,,01,E*10
$IIMTW,+17.5,C*3B
$IIRMC,080017,A,4612.827,N,00610.244,E,00.0,000,220714,01,E,A*08
$IIVLW,53412,N,000.0,N*52
$IIDPT,002.6,+0.7,*44
$IIGLL,4612.827,N,00610.244,E,080017,A,A*57
$IIHDG,030,,,01,E*10
$IIMTW,+17.5,C*3B
$IIRMC,080018,A,4612.827,N,00610.244,E,00.0,000,220714,01,E,A*07
$IIVLW,53412,N,000.0,N*52
$IIDPT,002.6,+0.7,*44
$IIGLL,4612.827,N,00610.244,E,080018,A,A*58
$IIHDG,030,,,01,E*10
$IIMTW,+17.5,C*3B
$IIRMC,080019,A,4612.827,N,00610.244,E,00.0,000,220714,01,E,A*06
$IIVLW,53412,N,000.0,N*52
$IIDPT,002.6,+0.7,*44
$IIGLL,4612.827,N,00610.244,E,080019,A,A*59
$IIHDG,030,,,01,E*10
$IIMTW,+17.5,C*3B
$IIRMC,080020,A,4612.827,N,00610.244,E,00.0,000,220714,01,E,A*0C
$IIVLW,53412,N,000.0,N*52
$IIDPT,002.6,+0.7,*44
$IIGLL,4612.827,N,00610.244,E,080020,A,A*53
$IIHDG,030,,,01,E*10
$IIMTW,+17.5,C*3B
$IIRMC,080021,A,4612.827,N,00610.244,E,00.0,000,220714,01,E,A*0D
$IIVLW,53412,N,000.0,N*52
$IIDPT,002.6,+0.7,*44
$IIGLL,4612.827,N,00610.244,E,080021,A,A*52
$IIHDG,030,,,01,E*10
$IIMTW,+17.5,C*3B
$IIRMC,080022,A,4612.827,N,00610.243,E,00.0,000,220714,01,E,A*09
$IIVLW,53412,N,000.0,N*52
$IIDPT,002.6,+0.7,*44
$IIGLL,4612.827,N,00610.243,E,080022,A,A*56
$IIRMC,080023,A,4612.827,N,00610.243,E,00.0,000,220714,01,E,A*08
$IIVLW,53412,N,000.0,N*52
$IIGLL,4612.827,N,00610.243,E,080023,A,A*57
$IIRMC,080024,A,4612.827,N,00610.243,E,00.0,000,220714,01,E,A*0F
$IIVLW,53412,N,000.0,N*52
$IIGLL,4612.827,N,00610.243,E,080024,A,A*50
$IIRMC,080025,A,4612.827,N,00610.243,E,00.0,000,220714,01,E,A*0E
$IIVLW,53412,N,000.0,N*52
$IIGLL,4612.827,N,00610.243,E,080025,A,A*51
$IIRMC,080038,A,4612.827,N,00610.243,E,00.0,000,220714,01,E,A*02
$IIGLL,4612.827,N,00610.243,E,080038,A,A*5D
$IIRMC,080039,A,4612.827,N,00610.243,E,00.0,000,220714,01,E,A*03
$IIGLL,4612.827,N,00610.243,E,080039,A,A*5C
$IIRMC,080040,A,4612.827,N,00610.243,E,00.0,000,220714,01,E,A*0D
$IIGLL,4612.827,N,00610.243,E,080040,A,A*52
$IIRMC,080041,A,4612.827,N,00610.243,E,00.0,000,220714,01,E,A*0C
$IIGLL,4612.827,N,00610.243,E,080041,A,A*53
$IIRMC,080042,A,4612.827,N,00610.243,E,00.0,000,220714,01,E,A*0F
$IIGLL,4612.827,N,00610.243,E,080042,A,A*50
$IIRMC,080043,A,4612.827,N,00610.243,E,00.0,000,220714,01,E,A*0E
$IIGLL,4612.827,N,00610.243,E,080043,A,A*51
$IIRMC,080044,A,4612.827,N,00610.243,E,00.0,000,220714,01,E,A*09
$IIGLL,4612.827,N,00610.243,E,080044,A,A*56
$IIRMC,080045,A,4612.827,N,00610.243,E,00.0,000,220714,01,E,A*08
$IIGLL,4612.827,N,00610.243,E,080045,A,A*57
$IIRMC,080046,A,4612.827,N,00610.243,E,00.0,000,220714,01,E,A*0B
$IIGLL,4612.827,N,00610.243,E,080046,A,A*54
$IIRMC,080047,A,4612.827,N,00610.243,E,00.0,000,220714,01,E,A*0A
$IIGLL,4612.827,N,00610.243,E,080047,A,A*55
$IIRMC,080048,A,4612.827,N,00610.243,E,00.0,000,220714,01,E,A*05
$IIGLL,4612.827,N,00610.243,E,080048,A,A*5A
$IIRMC,080049,A,4612.827,N,00610.243,E,00.0,000,220714,01,E,A*04
$IIGLL,4612.827,N,00610.243,E,080049,A,A*5B
$IIRMC,080050,A,4612.827,N,00610.243,E,00.0,000,220714,01,E,A*0C
$IIGLL,4612.827,N,00610.243,E,080050,A,A*53
$IIRMC,080051,A,4612.827,N,00610.243,E,00.0,000,220714,01,E,A*0D
$IIGLL,4612.827,N,00610.243,E,080051,A,A*52
$IIRMC,080052,A,4612.827,N,00610.243,E,00.0,000,220714,01,E,A*0E
$IIGLL,4612.827,N,00610.243,E,080052,A,A*51
$IIRMC,080053,A,4612.827,N,00610.243,E,00.0,000,220714,01,E,A*0F
$IIGLL,4612.827,N,00610.243,E,080053,A,A*50
$IIRMC,080054,A,4612.827,N,00610.243,E,00.0,000,220714,01,E,A*08
$IIGLL,4612.827,N,00610.243,E,080054,A,A*57
$IIRMC,080055,A,4612.827,N,00610.243,E,00.0,000,220714,01,E,A*09
$IIGLL,4612.827,N,00610.243,E,080055,A,A*56
$IIRMC,080056,A,4612.827,N,00610.243,E,00.0,000,220714,01,E,A*0A
$IIGLL,4612.827,N,00610.243,E,080056,A,A*55
$IIRMC,080057,A,4612.827,N,00610.243,E,00.0,000,220714,01,E,A*0B
$IIGLL,4612.827,N,00610.243,E,080057,A,A*54
$IIRMC,080058,A,4612.827,N,00610.243,E,00.0,000,220714,01,E,A*04
$IIGLL,4612.827,N,00610.243,E,080058,A,A*5B
$IIRMC,080059,A,4612.827,N,00610.243,E,00.0,000,220714,01,E,A*05
$IIGLL,4612.827,N,00610.243,E,080059,A,A*5A
$IIRMC,080100,A,4612.827,N,00610.243,E,00.0,000,220714,01,E,A*08
$IIGLL,4612.827,N,00610.243,E,080100,A,A*57
$IIRMC,080101,A,4612.827,N,00610.243,E,00.0,000,220714,01,E,A*09
$IIGLL,4612.827,N,00610.243,E,080101,A,A*56
$IIRMC,080102,A,4612.827,N,00610.243,E,00.0,000,220714,01,E,A*0A
$IIGLL,4612.827,N,00610.243,E,080102,A,A*55
$IIRMC,080103,A,4612.827,N,00610.243,E,00.0,000,220714,01,E,A*0B
$IIGLL,4612.827,N,00610.243,E,080103,A,A*54
$IIHDG,032,,,01,E*12
$IIMTW,+17.5,C*3B
$IIRMC,080104,A,4612.827,N,00610.243,E,00.0,000,220714,01,E,A*0C
$IIVLW,53412,N,000.0,N*52
$IIDPT,002.2,+0.7,*40
$IIGLL,4612.827,N,00610.243,E,080104,A,A*53
$IIHDG,032,,,01,E*12
$IIMTW,+17.5,C*3B
$IIRMC,080105,A,4612.827,N,00610.243,E,00.0,000,220714,01,E,A*0D
$IIVLW,53412,N,000.0,N*52
$IIDPT,002.2,+0.7,*40
$IIGLL,4612.827,N,00610.243,E,080105,A,A*52
$IIHDG,032,,,01,E*12
$IIMTW,+17.5,C*3B
$IIRMC,080106,A,4612.827,N,00610.243,E,00.0,000,220714,01,E,A*0E
$IIVLW,53412,N,000.0,N*52
$IIDPT,002.2,+0.7,*40
$IIGLL,4612.827,N,00610.243,E,080106,A,A*51
$IIHDG,032,,,01,E*12
$IIMTW,+17.5,C*3B
$IIRMC,080107,A,4612.827,N,00610.243,E,00.0,000,220714,01,E,A*0F
$IIVLW,53412,N,000.0,N*52
$IIDPT,002.2,+0.7,*40
$IIGLL,4612.827,N,00610.243,E,080107,A,A*50
$IIHDG,032,,,01,E*12
$IIMTW,+17.5,C*3B
$IIRMC,080108,A,4612.827,N,00610.243,E,00.0,000,220714,01,E,A*00
$IIVLW,53412,N,000.0,N*52
$IIDPT,002.3,+0.7,*41
$IIGLL,4612.827,N,00610.243,E,080108,A,A*5F
$IIHDG,032,,,01,E*12
$IIMTW,+17.5,C*3B
$IIRMC,080109,A,4612.827,N,00610.243,E,00.0,000,220714,01,E,A*01
$IIVLW,53412,N,000.0,N*52
$IIDPT,002.3,+0.7,*41
$IIGLL,4612.827,N,00610.243,E,080109,A,A*5E
$IIHDG,032,,,01,E*12
$IIMTW,+17.5,C*3B
$IIRMC,080109,A,4612.827,N,00610.243,E,00.0,000,220714,01,E,A*01
$IIVLW,53412,N,000.0,N*52
$IIDPT,002.3,+0.7,*41
$IIGLL,4612.827,N,00610.243,E,080109,A,A*5E
$IIHDG,032,,,01,E*12
$IIMTW,+17.5,C*3B
$IIRMC,080111,A,4612.827,N,00610.243,E,00.0,000,220714,01,E,A*08
$IIVLW,53412,N,000.0,N*52
$IIDPT,002.2,+0.7,*40
$IIGLL,4612.827,N,00610.243,E,080111,A,A*57
$IIHDG,032,,,01,E*12
$IIMTW,+17.5,C*3B
$IIRMC,080112,A,4612.827,N,00610.243,E,00.0,000,220714,01,E,A*0B
$IIVLW,53412,N,000.0,N*52
$IIDPT,002.2,+0.7,*40
$IIGLL,4612.827,N,00610.243,E,080112,A,A*54
$IIHDG,032,,,01,E*12
$IIMTW,+17.5,C*3B
$IIRMC,080113,A,4612.827,N,00610.243,E,00.0,000,220714,01,E,A*0A
$IIVLW,53412,N,000.0,N*52
$IIDPT,002.2,+0.7,*40
$IIGLL,4612.827,N,00610.243,E,080113,A,A*55
$IIHDG,032,,,01,E*12
$IIMTW,+17.5,C*3B
$IIRMC,080114,A,4612.827,N,00610.243,E,00.0,000,220714,01,E,A*0D
$IIVLW,53412,N,000.0,N*52
$IIDPT,002.2,+0.7,*40
$IIGLL,4612.827,N,00610.243,E,080114,A,A*52
$IIHDG,032,,,01,E*12
$IIMTW,+17.5,C*3B
$IIRMC,080114,A,4612.827,N,00610.243,E,00.0,000,220714,01,E,A*0D
$IIVLW,53412,N,000.0,N*52
$IIDPT,002.2,+0.7,*40
$IIGLL,4612.827,N,00610.243,E,080114,A,A*52
$IIHDG,032,,,01,E*12
$IIMTW,+17.5,C*3B
$IIRMC,080116,A,4612.827,N,00610.243,E,00.0,000,220714,01,E,A*0F
$IIVLW,53412,N,000.0,N*52
$IIDPT,002.2,+0.7,*40
$IIGLL,4612.827,N,00610.243,E,080116,A,A*50
$IIHDG,032,,,01,E*12
$IIMTW,+17.5,C*3B
$IIRMC,080117,A,4612.827,N,00610.243,E,00.0,000,220714,01,E,A*0E
$IIVLW,53412,N,000.0,N*52
$IIDPT,002.2,+0.7,*40
$IIGLL,4612.827,N,00610.243,E,080117,A,A*51
$IIHDG,032,,,01,E*12
$IIMTW,+17.5,C*3B
$IIRMC,080118,A,4612.827,N,00610.243,E,00.0,000,220714,01,E,A*01
$IIVLW,53412,N,000.0,N*52
$IIDPT,002.2,+0.7,*40
$IIGLL,4612.827,N,00610.243,E,080118,A,A*5E
$IIHDG,032,,,01,E*12
$IIMTW,+17.5,C*3B
$IIRMC,080118,A,4612.827,N,00610.243,E,00.0,000,220714,01,E,A*01
$IIVLW,53412,N,000.0,N*52
$IIDPT,002.2,+0.7,*40
$IIGLL,4612.827,N,00610.243,E,080118,A,A*5E
$IIHDG,032,,,01,E*12
$IIMTW,+17.5,C*3B
$IIRMC,080120,A,4612.827,N,00610.243,E,00.0,000,220714,01,E,A*0A
$IIVLW,53412,N,000.0,N*52
$IIDPT,002.2,+0.7,*40
$IIGLL,4612.827,N,00610.243,E,080120,A,A*55
$IIHDG,032,,,01,E*12
$IIMTW,+17.5,C*3B
$IIRMC,080121,A,4612.827,N,00610.243,E,00.0,000,220714,01,E,A*0B
$IIVLW,53412,N,000.0,N*52
$IIDPT,002.2,+0.7,*40
$IIGLL,4612.827,N,00610.243,E,080121,A,A*54
$IIHDG,032,,,01,E*12
$IIMTW,+17.5,C*3B
$IIRMC,080122,A,4612.827,N,00610.243,E,00.0,000,220714,01,E,A*08
$IIVLW,53412,N,000.0,N*52
$IIDPT,002.2,+0.7,*40
$IIGLL,4612.827,N,00610.243,E,080122,A,A*57
$IIHDG,032,,,01,E*12
$IIMTW,+17.5,C*3B
$IIRMC,080122,A,4612.827,N,00610.243,E,00.0,000,220714,01,E,A*08
$IIVLW,53412,N,000.0,N*52
$IIDPT,002.2,+0.7,*40
$IIGLL,4612.827,N,00610.243,E,080122,A,A*57
$IIHDG,032,,,01,E*12
$IIMTW,+17.5,C*3B
$IIRMC,080124,A,4612.827,N,00610.243,E,00.0,000,220714,01,E,A*0E
$IIVLW,53412,N,000.0,N*52
$IIDPT,002.2,+0.7,*40
$IIGLL,4612.827,N,00610.243,E,080124,A,A*51
$IIHDG,032,,,01,E*12
$IIMTW,+17.5,C*3B
$IIRMC,080125,A,4612.827,N,00610.243,E,00.0,000,220714,01,E,A*0F
$IIVLW,53412,N,000.0,N*52
$IIDPT,002.2,+0.7,*40
$IIGLL,4612.827,N,00610.243,E,080125,A,A*50
$IIHDG,032,,,01,E*12
$IIMTW,+17.5,C*3B
$IIRMC,080126,A,4612.827,N,00610.243,E,00.0,000,220714,01,E,A*0C
$IIVLW,53412,N,000.0,N*52
$IIDPT,002.2,+0.7,*40
$IIGLL,4612.827,N,00610.243,E,080126,A,A*53
$IIHDG,032,,,01,E*12
$IIMTW,+17.5,C*3B
$IIRMC,080127,A,4612.827,N,00610.243,E,00.0,000,220714,01,E,A*0D
$IIVLW,53412,N,000.0,N*52
$IIDPT,002.2,+0.7,*40
$IIGLL,4612.827,N,00610.243,E,080127,A,A*52
$IIHDG,032,,,01,E*12
$IIMTW,+17.5,C*3B
$IIRMC,080128,A,4612.827,N,00610.243,E,00.0,000,220714,01,E,A*02
$IIVLW,53412,N,000.0,N*52
$IIDPT,002.2,+0.7,*40
$IIGLL,4612.827,N,00610.243,E,080128,A,A*5D
$IIHDG,032,,,01,E*12
$IIMTW,+17.5,C*3B
$IIRMC,080130,A,4612.827,N,00610.243,E,00.0,000,220714,01,E,A*0B
$IIVLW,53412,N,000.0,N*52
$IIDPT,002.2,+0.7,*40
$IIGLL,4612.827,N,00610.243,E,080130,A,A*54
$IIHDG,032,,,01,E*12
$IIMTW,+17.5,C*3B
$IIRMC,080131,A,4612.827,N,00610.243,E,00.0,000,220714,01,E,A*0A
$IIVLW,53412,N,000.0,N*52
$IIDPT,002.2,+0.7,*40
$IIGLL,4612.827,N,00610.243,E,080131,A,A*55
$IIHDG,031,,,01,E*11
$IIMTW,+17.5,C*3B
$IIRMC,080132,A,4612.827,N,00610.243,E,00.0,000,220714,01,E,A*09
$IIVLW,53412,N,000.0,N*52
$IIDPT,002.2,+0.7,*40
$IIGLL,4612.827,N,00610.243,E,080132,A,A*56
$IIHDG,032,,,01,E*12
$IIMTW,+17.5,C*3B
$IIRMC,080133,A,4612.827,N,00610.243,E,00.0,000,220714,01,E,A*08
$IIVLW,53412,N,000.0,N*52
$IIDPT,002.2,+0.7,*40
$IIGLL,4612.827,N,00610.243,E,080133,A,A*57
$IIHDG,031,,,01,E*11
$IIMTW,+17.5,C*3B
$IIRMC,080134,A,4612.827,N,00610.243,E,00.0,000,220714,01,E,A*0F
$IIVLW,53412,N,000.0,N*52
$IIDPT,002.2,+0.7,*40
$IIGLL,4612.827,N,00610.243,E,080134,A,A*50
$IIHDG,031,,,01,E*11
$IIMTW,+17.5,C*3B
$IIRMC,080135,A,4612.827,N,00610.243,E,00.0,000,220714,01,E,A*0E
$IIVLW,53412,N,000.0,N*52
$IIDPT,002.2,+0.7,*40
$IIGLL,4612.827,N,00610.243,E,080135,A,A*51
$IIHDG,032,,,01,E*12
$IIMTW,+17.5,C*3B
$IIRMC,080136,A,4612.827,N,00610.243,E,00.0,000,220714,01,E,A*0D
$IIVLW,53412,N,000.0,N*52
$IIDPT,002.2,+0.7,*40
$IIGLL,4612.827,N,00610.243,E,080136,A,A*52
$IIHDG,032,,,01,E*12
$IIMTW,+17.5,C*3B
$IIRMC,080137,A,4612.827,N,00610.243,E,00.0,000,220714,01,E,A*0C
$IIVLW,53412,N,000.0,N*52
$IIDPT,002.6,+0.7,*44
$IIGLL,4612.827,N,00610.243,E,080137,A,A*53
$IIHDG,030,,,01,E*10
$IIMTW,+17.5,C*3B
$IIRMC,080138,A,4612.827,N,00610.243,E,00.0,000,220714,01,E,A*03
$IIVLW,53412,N,000.0,N*52
$IIDPT,002.6,+0.7,*44
$IIGLL,4612.827,N,00610.243,E,080138,A,A*5C
$IIHDG,030,,,01,E*10
$IIMTW,+17.5,C*3B
$IIRMC,080139,A,4612.827,N,00610.243,E,00.0,000,220714,01,E,A*02
$IIVLW,53412,N,000.0,N*52
$IIDPT,002.6,+0.7,*44
$IIGLL,4612.827,N,00610.243,E,080139,A,A*5D
$IIHDG,030,,,01,E*10
$IIMTW,+17.5,C*3B
$IIRMC,080140,A,4612.827,N,00610.243,E,00.0,000,220714,01,E,A*0C
$IIVLW,53412,N,000.0,N*52
$IIDPT,002.6,+0.7,*44
$IIGLL,4612.827,N,00610.243,E,080140,A,A*53
$IIHDG,030,,,01,E*10
$IIMTW,+17.5,C*3B
$IIRMC,080141,A,4612.827,N,00610.243,E,00.0,000,220714,01,E,A*0D
$IIVLW,53412,N,000.0,N*52
$IIDPT,002.6,+0.7,*44
$IIGLL,4612.827,N,00610.243,E,080141,A,A*52
$IIHDG,030,,,01,E*10
$IIMTW,+17.5,C*3B
$IIRMC,080142,A,4612.827,N,00610.243,E,00.0,000,220714,01,E,A*0E
$IIVLW,53412,N,000.0,N*52
$IIDPT,002.6,+0.7,*44
$IIGLL,4612.827,N,00610.243,E,080142,A,A*51
$IIHDG,030,,,01,E*10
$IIMTW,+17.5,C*3B
$IIRMC,080143,A,4612.827,N,00610.243,E,00.0,000,220714,01,E,A*0F
$IIVLW,53412,N,000.0,N*52
$IIDPT,002.6,+0.7,*44
$IIGLL,4612.827,N,00610.243,E,080143,A,A*50
$IIHDG,030,,,01,E*10
$IIMTW,+17.5,C*3B
$IIRMC,080144,A,4612.826,N,00610.243,E,00.0,000,220714,01,E,A*09
$IIVLW,53412,N,000.0,N*52
$IIDPT,002.6,+0.7,*44
$IIGLL,4612.826,N,00610.243,E,080144,A,A*56
$IIHDG,030,,,01,E*10
$IIMTW,+17.5,C*3B
$IIRMC,080145,A,4612.826,N,00610.243,E,00.0,000,220714,01,E,A*08
$IIVLW,53412,N,000.0,N*52
$IIDPT,002.6,+0.7,*44
$IIGLL,4612.826,N,00610.243,E,080145,A,A*57
$IIHDG,030,,,01,E*10
$IIMTW,+17.5,C*3B
$IIRMC,080146,A,4612.826,N,00610.243,E,00.0,000,220714,01,E,A*0B
$IIVLW,53412,N,000.0,N*52
$IIDPT,002.6,+0.7,*44
$IIGLL,4612.826,N,00610.243,E,080146,A,A*54
$IIHDG,030,,,01,E*10
$IIMTW,+17.5,C*3B
$IIRMC,080147,A,4612.826,N,00610.243,E,00.0,000,220714,01,E,A*0A
$IIVLW,53412,N,000.0,N*52
$IIDPT,002.6,+0.7,*44
$IIGLL,4612.826,N,00610.243,E,080147,A,A*55
$IIHDG,030,,,01,E*10
$IIMTW,+17.5,C*3B
$IIRMC,080148,A,4612.826,N,00610.243,E,00.0,000,220714,01,E,A*05
$IIVLW,53412,N,000.0,N*52
$IIDPT,002.6,+0.7,*44
$IIGLL,4612.826,N,00610.243,E,080148,A,A*5A
$IIHDG,030,,,01,E*10
$IIMTW,+17.5,C*3B
$IIRMC,080149,A,4612.826,N,00610.243,E,00.0,000,220714,01,E,A*04
$IIVLW,53412,N,000.0,N*52
$IIDPT,002.6,+0.7,*44
$IIGLL,4612.826,N,00610.243,E,080149,A,A*5B
$IIHDG,030,,,01,E*10
$IIMTW,+17.5,C*3B
$IIRMC,080150,A,4612.826,N,00610.243,E,00.0,000,220714,01,E,A*0C
$IIVLW,53412,N,000.0,N*52
$IIDPT,002.6,+0.7,*44
$IIGLL,4612.826,N,00610.243,E,080150,A,A*53
$IIHDG,030,,,01,E*10
$IIMTW,+17.5,C*3B
$IIRMC,080151,A,4612.826,N,00610.243,E,00.0,000,220714,01,E,A*0D
$IIVLW,53412,N,000.0,N*52
$IIDPT,002.6,+0.7,*44
$IIGLL,4612.826,N,00610.243,E,080151,A,A*52
$IIHDG,030,,,01,E*10
$IIMTW,+17.5,C*3B
$IIRMC,080152,A,4612.826,N,00610.243,E,00.0,000,220714,01,E,A*0E
$IIVLW,53412,N,000.0,N*52
$IIDPT,002.6,+0.7,*44
$IIGLL,4612.826,N,00610.243,E,080152,A,A*51
$IIHDG,030,,,01,E*10
$IIMTW,+17.5,C*3B
$IIRMC,080153,A,4612.826,N,00610.243,E,00.0,000,220714,01,E,A*0F
$IIVLW,53412,N,000.0,N*52
$IIDPT,002.6,+0.7,*44
$IIGLL,4612.826,N,00610.243,E,080153,A,A*50
$IIHDG,030,,,01,E*10
$IIMTW,+17.5,C*3B
$IIRMC,080154,A,4612.826,N,00610.243,E,00.0,000,220714,01,E,A*08
$IIVLW,53412,N,000.0,N*52
$IIDPT,002.6,+0.7,*44
$IIGLL,4612.826,N,00610.243,E,080154,A,A*57
$IIHDG,030,,,01,E*10
$IIMTW,+17.5,C*3B
$IIRMC,080155,A,4612.826,N,00610.243,E,00.0,000,220714,01,E,A*09
$IIVLW,53412,N,000.0,N*52
$IIDPT,002.6,+0.7,*44
$IIGLL,4612.826,N,00610.243,E,080155,A,A*56
$IIHDG,030,,,01,E*10
$IIMTW,+17.5,C*3B
$IIRMC,080156,A,4612.826,N,00610.243,E,00.0,000,220714,01,E,A*0A
$IIVLW,53412,N,000.0,N*52
$IIDPT,002.6,+0.7,*44
$IIGLL,4612.826,N,00610.243,E,080156,A,A*55
$IIHDG,030,,,01,E*10
$IIMTW,+17.5,C*3B
$IIRMC,080157,A,4612.826,N,00610.243,E,00.0,000,220714,01,E,A*0B
$IIVLW,53412,N,000.0,N*52
$IIDPT,002.6,+0.7,*44
$IIGLL,4612.826,N,00610.243,E,080157,A,A*54
$IIHDG,030,,,01,E*10
$IIMTW,+17.5,C*3B
$IIRMC,080158,A,4612.826,N,00610.243,E,00.0,000,220714,01,E,A*04
$IIVLW,53412,N,000.0,N*52
$IIDPT,002.6,+0.7,*44
$IIGLL,4612.826,N,00610.243,E,080158,A,A*5B
$IIHDG,030,,,01,E*10
$IIMTW,+17.5,C*3B
$IIRMC,080159,A,4612.826,N,00610.243,E,00.0,000,220714,01,E,A*05
$IIVLW,53412,N,000.0,N*52
$IIDPT,002.6,+0.7,*44
$IIGLL,4612.826,N,00610.243,E,080159,A,A*5A
$IIHDG,030,,,01,E*10
$IIMTW,+17.5,C*3B
$IIRMC,080200,A,4612.826,N,00610.243,E,00.0,000,220714,01,E,A*0A
$IIVLW,53412,N,000.0,N*52
$IIDPT,002.6,+0.7,*44
$IIGLL,4612.826,N,00610.243,E,080200,A,A*55
$IIHDG,030,,,01,E*10
$IIMTW,+17.5,C*3B
$IIRMC,080201,A,4612.826,N,00610.243,E,00.0,000,220714,01,E,A*0B
$IIVLW,53412,N,000.0,N*52
$IIDPT,002.6,+0.7,*44
$IIGLL,4612.826,N,00610.243,E,080201,A,A*54
$IIHDG,030,,,01,E*10
$IIMTW,+17.5,C*3B
$IIRMC,080202,A,4612.826,N,00610.243,E,00.0,000,220714,01,E,A*08
$IIVLW,53412,N,000.0,N*52
$IIDPT,002.6,+0.7,*44
$IIGLL,4612.826,N,00610.243,E,080202,A,A*57
$IIHDG,030,,,01,E*10
$IIMTW,+17.5,C*3B
$IIRMC,080202,A,4612.826,N,00610.243,E,00.0,000,220714,01,E,A*08
$IIVLW,53412,N,000.0,N*52
$IIDPT,002.6,+0.7,*44
$IIGLL,4612.826,N,00610.243,E,080202,A,A*57
$IIHDG,030,,,01,E*10
$IIMTW,+17.5,C*3B
$IIRMC,080204,A,4612.826,N,00610.243,E,00.0,000,220714,01,E,A*0E
$IIVLW,53412,N,000.0,N*52
$IIDPT,002.6,+0.7,*44
$IIGLL,4612.826,N,00610.243,E,080204,A,A*51
$IIHDG,030,,,01,E*10
$IIMTW,+17.5,C*3B
$IIRMC,080205,A,4612.826,N,00610.243,E,00.0,000,220714,01,E,A*0F
$IIVLW,53412,N,000.0,N*52
$IIDPT,002.6,+0.7,*44
$IIGLL,4612.826,N,00610.243,E,080205,A,A*50
$IIHDG,030,,,01,E*10
$IIMTW,+17.5,C*3B
$IIRMC,080206,A,4612.826,N,00610.243,E,00.0,000,220714,01,E,A*0C
$IIVLW,53412,N,000.0,N*52
$IIDPT,002.6,+0.7,*44
$IIGLL,4612.826,N,00610.243,E,080206,A,A*53
$IIHDG,030,,,01,E*10
$IIMTW,+17.5,C*3B
$IIRMC,080207,A,4612.826,N,00610.243,E,00.0,000,220714,01,E,A*0D
$IIVLW,53412,N,000.0,N*52
$IIDPT,002.6,+0.7,*44
$IIGLL,4612.826,N,00610.243,E,080207,A,A*52
$IIHDG,030,,,01,E*10
$IIMTW,+17.5,C*3B
$IIRMC,080208,A,4612.826,N,00610.243,E,00.0,000,220714,01,E,A*02
$IIVLW,53412,N,000.0,N*52
$IIDPT,002.6,+0.7,*44
$IIGLL,4612.826,N,00610.243,E,080208,A,A*5D
$IIHDG,030,,,01,E*10
$IIMTW,+17.5,C*3B
$IIRMC,080209,A,4612.826,N,00610.243,E,00.0,000,220714,01,E,A*03
$IIVLW,53412,N,000.0,N*52
$IIDPT,002.6,+0.7,*44
$IIGLL,4612.826,N,00610.243,E,080209,A,A*5C
$IIHDG,030,,,01,E*10
$IIMTW,+17.5,C*3B
$IIRMC,080210,A,4612.826,N,00610.243,E,00.0,000,220714,01,E,A*0B
$IIVLW,53412,N,000.0,N*52
$IIDPT,002.6,+0.7,*44
$IIGLL,4612.826,N,00610.243,E,080210,A,A*54
$IIHDG,030,,,01,E*10
$IIMTW,+17.5,C*3B
$IIRMC,080211,A,4612.826,N,00610.243,E,00.0,000,220714,01,E,A*0A
$IIVLW,53412,N,000.0,N*52
$IIDPT,002.6,+0.7,*44
$IIGLL,4612.826,N,00610.243,E,080211,A,A*55
$IIHDG,030,,,01,E*10
$IIMTW,+17.5,C*3B
$IIRMC,080212,A,4612.826,N,00610.243,E,00.0,000,220714,01,E,A*09
$IIVLW,53412,N,000.0,N*52
$IIDPT,002.6,+0.7,*44
$IIGLL,4612.826,N,00610.243,E,080212,A,A*56
$IIHDG,030,,,01,E*10
$IIMTW,+17.5,C*3B
$IIRMC,080213,A,4612.826,N,00610.243,E,00.0,000,220714,01,E,A*08
$IIVLW,53412,N,000.0,N*52
$IIDPT,002.6,+0.7,*44
$IIGLL,4612.826,N,00610.243,E,080213,A,A*57
$IIHDG,030,,,01,E*10
$IIMTW,+17.5,C*3B
$IIRMC,080214,A,4612.826,N,00610.243,E,00.0,000,220714,01,E,A*0F
$IIVLW,53412,N,000.0,N*52
$IIDPT,002.6,+0.7,*44
$IIGLL,4612.826,N,00610.243,E,080214,A,A*50
$IIHDG,030,,,01,E*10
$IIMTW,+17.5,C*3B
$IIRMC,080215,A,4612.826,N,00610.243,E,00.0,000,220714,01,E,A*0E
$IIVLW,53412,N,000.0,N*52
$IIDPT,002.6,+0.7,*44
$IIGLL,4612.826,N,00610.243,E,080215,A,A*51
$IIHDG,030,,,01,E*10
$IIMTW,+17.5,C*3B
$IIRMC,080215,A,4612.826,N,00610.243,E,00.0,000,220714,01,E,A*0E
$IIVLW,53412,N,000.0,N*52
$IIDPT,002.6,+0.7,*44
$IIGLL,4612.826,N,00610.243,E,080215,A,A*51
$IIHDG,030,,,01,E*10
$IIMTW,+17.5,C*3B
$IIRMC,080217,A,4612.826,N,00610.243,E,00.0,000,220714,01,E,A*0C
$IIVLW,53412,N,000.0,N*52
$IIDPT,002.6,+0.7,*44
$IIGLL,4612.826,N,00610.243,E,080217,A,A*53
$IIHDG,030,,,01,E*10
$IIMTW,+17.5,C*3B
$IIRMC,080218,A,4612.826,N,00610.243,E,00.0,000,220714,01,E,A*03
$IIVLW,53412,N,000.0,N*52
$IIDPT,002.6,+0.7,*44
$IIGLL,4612.826,N,00610.243,E,080218,A,A*5C
$IIHDG,030,,,01,E*10
$IIMTW,+17.5,C*3B
$IIRMC,080219,A,4612.826,N,00610.243,E,00.0,000,220714,01,E,A*02
$IIVLW,53412,N,000.0,N*52
$IIDPT,002.6,+0.7,*44
$IIGLL,4612.826,N,00610.243,E,080219,A,A*5D
$IIHDG,030,,,01,E*10
$IIMTW,+17.5,C*3B
$IIRMC,080220,A,4612.826,N,00610.243,E,00.0,000,220714,01,E,A*08
$IIVLW,53412,N,000.0,N*52
$IIDPT,002.6,+0.7,*44
$IIGLL,4612.826,N,00610.243,E,080222,A,A*55
$IIHDG,030,,,01,E*10
$IIMTW,+17.5,C*3B
$IIRMC,080222,A,4612.826,N,00610.243,E,00.0,000,220714,01,E,A*0A
$IIVLW,53412,N,000.0,N*52
$IIDPT,002.6,+0.7,*44
$IIGLL,4612.826,N,00610.243,E,080223,A,A*54
$IIHDG,030,,,01,E*10
$IIMTW,+17.5,C*3B
$IIRMC,080223,A,4612.826,N,00610.243,E,00.0,000,220714,01,E,A*0B
$IIVLW,53412,N,000.0,N*52
$IIDPT,002.6,+0.7,*44
$IIGLL,4612.826,N,00610.243,E,080224,A,A*53
$IIHDG,030,,,01,E*10
$IIMTW,+17.5,C*3B
$IIRMC,080224,A,4612.826,N,00610.243,E,00.0,000,220714,01,E,A*0C
$IIVLW,53412,N,000.0,N*52
$IIDPT,002.6,+0.7,*44
$IIGLL,4612.826,N,00610.243,E,080225,A,A*52
$IIHDG,030,,,01,E*10
$IIMTW,+17.5,C*3B
$IIRMC,080225,A,4612.826,N,00610.243,E,00.0,000,220714,01,E,A*0D
$IIVLW,53412,N,000.0,N*52
$IIDPT,002.6,+0.7,*44
$IIGLL,4612.826,N,00610.243,E,080226,A,A*51
$IIHDG,030,,,01,E*10
$IIMTW,+17.5,C*3B
$IIRMC,080226,A,4612.826,N,00610.243,E,00.0,000,220714,01,E,A*0E
$IIVLW,53412,N,000.0,N*52
$IIDPT,002.6,+0.7,*44
$IIGLL,4612.826,N,00610.243,E,080227,A,A*50
$IIHDG,030,,,01,E*10
$IIMTW,+17.5,C*3B
$IIRMC,080227,A,4612.826,N,00610.243,E,00.0,000,220714,01,E,A*0F
$IIVLW,53412,N,000.0,N*52
$IIDPT,002.6,+0.7,*44
$IIGLL,4612.826,N,00610.243,E,080228,A,A*5F
$IIHDG,030,,,01,E*10
$IIMTW,+17.5,C*3B
$IIRMC,080228,A,4612.826,N,00610.243,E,00.0,000,220714,01,E,A*00
$IIVLW,53412,N,000.0,N*52
$IIDPT,002.6,+0.7,*44
$IIGLL,4612.826,N,00610.243,E,080229,A,A*5E
$IIHDG,030,,,01,E*10
$IIMTW,+17.5,C*3B
$IIRMC,080229,A,4612.826,N,00610.243,E,00.0,000,220714,01,E,A*01
$IIVLW,53412,N,000.0,N*52
$IIDPT,002.6,+0.7,*44
$IIGLL,4612.826,N,00610.243,E,080230,A,A*56
$IIHDG,030,,,01,E*10
$IIMTW,+17.5,C*3B
$IIRMC,080230,A,4612.826,N,00610.243,E,00.0,000,220714,01,E,A*09
$IIVLW,53412,N,000.0,N*52
$IIDPT,002.6,+0.7,*44
$IIGLL,4612.826,N,00610.243,E,080231,A,A*57
$IIHDG,029,,,01,E*18
$IIMTW,+17.5,C*3B
$IIRMC,080231,A,4612.826,N,00610.243,E,00.0,000,220714,01,E,A*08
$IIVLW,53412,N,000.0,N*52
$IIDPT,002.6,+0.7,*44
$IIGLL,4612.826,N,00610.243,E,080232,A,A*54
$IIHDG,030,,,01,E*10
$IIMTW,+17.5,C*3B
$IIRMC,080232,A,4612.826,N,00610.243,E,00.0,000,220714,01,E,A*0B
$IIVLW,53412,N,000.0,N*52
$IIDPT,002.6,+0.7,*44
$IIGLL,4612.826,N,00610.243,E,080233,A,A*55
$IIHDG,030,,,01,E*10
$IIMTW,+17.5,C*3B
$IIRMC,080233,A,4612.826,N,00610.243,E,00.0,000,220714,01,E,A*0A
$IIVLW,53412,N,000.0,N*52
$IIDPT,002.6,+0.7,*44
$IIGLL,4612.826,N,00610.243,E,080234,A,A*52
$IIHDG,030,,,01,E*10
$IIMTW,+17.5,C*3B
$IIRMC,080234,A,4612.826,N,00610.243,E,00.0,000,220714,01,E,A*0D
$IIVLW,53412,N,000.0,N*52
$IIDPT,002.6,+0.7,*44
$IIGLL,4612.826,N,00610.243,E,080235,A,A*53
$IIHDG,030,,,01,E*10
$IIMTW,+17.5,C*3B
$IIRMC,080235,A,4612.826,N,00610.243,E,00.0,000,220714,01,E,A*0C
$IIVLW,53412,N,000.0,N*52
$IIDPT,002.6,+0.7,*44
$IIGLL,4612.827,N,00610.243,E,080236,A,A*51
$IIHDG,030,,,01,E*10
$IIMTW,+17.5,C*3B
$IIRMC,080236,A,4612.827,N,00610.243,E,00.0,000,220714,01,E,A*0E
$IIVLW,53412,N,000.0,N*52
$IIDPT,002.6,+0.7,*44
$IIGLL,4612.827,N,00610.243,E,080237,A,A*50
$IIHDG,030,,,01,E*10
$IIMTW,+17.5,C*3B
$IIRMC,080237,A,4612.827,N,00610.243,E,00.0,000,220714,01,E,A*0F
$IIVLW,53412,N,000.0,N*52
$IIDPT,002.6,+0.7,*44
$IIGLL,4612.827,N,00610.243,E,080238,A,A*5F
$IIHDG,030,,,01,E*10
$IIMTW,+17.5,C*3B
$IIRMC,080238,A,4612.827,N,00610.243,E,00.0,000,220714,01,E,A*00
$IIVLW,53412,N,000.0,N*52
$IIDPT,002.6,+0.7,*44
$IIGLL,4612.827,N,00610.243,E,080239,A,A*5E
$IIHDG,030,,,01,E*10
$IIMTW,+17.5,C*3B
$IIRMC,080239,A,4612.827,N,00610.243,E,00.0,000,220714,01,E,A*01
$IIVLW,53412,N,000.0,N*52
$IIDPT,002.6,+0.7,*44
$IIGLL,4612.827,N,00610.243,E,080240,A,A*50
$IIHDG,030,,,01,E*10
$IIMTW,+17.5,C*3B
$IIRMC,080240,A,4612.827,N,00610.243,E,00.0,000,220714,01,E,A*0F
$IIVLW,53412,N,000.0,N*52
$IIDPT,002.6,+0.7,*44
$IIGLL,4612.827,N,00610.243,E,080241,A,A*51
$IIHDG,030,,,01,E*10
$IIMTW,+17.5,C*3B
$IIRMC,080241,A,4612.827,N,00610.243,E,00.0,000,220714,01,E,A*0E
$IIVLW,53412,N,000.0,N*52
$IIDPT,002.6,+0.7,*44
$IIGLL,4612.827,N,00610.243,E,080242,A,A*52
$IIHDG,029,,,01,E*18
$IIMTW,+17.5,C*3B
$IIRMC,080242,A,4612.827,N,00610.243,E,00.0,000,220714,01,E,A*0D
$IIVLW,53412,N,000.0,N*52
$IIDPT,002.6,+0.7,*44
$IIGLL,4612.827,N,00610.243,E,080243,A,A*53
$IIHDG,030,,,01,E*10
$IIMTW,+17.5,C*3B
$IIRMC,080243,A,4612.827,N,00610.243,E,00.0,000,220714,01,E,A*0C
$IIVLW,53412,N,000.0,N*52
$IIDPT,002.6,+0.7,*44
$IIGLL,4612.827,N,00610.243,E,080244,A,A*54
$IIHDG,030,,,01,E*10
$IIMTW,+17.5,C*3B
$IIRMC,080244,A,4612.827,N,00610.243,E,00.0,000,220714,01,E,A*0B
$IIVLW,53412,N,000.0,N*52
$IIDPT,002.6,+0.7,*44
$IIGLL,4612.827,N,00610.243,E,080245,A,A*55
$IIHDG,030,,,01,E*10
$IIMTW,+17.5,C*3B
$IIRMC,080245,A,4612.827,N,00610.243,E,00.0,000,220714,01,E,A*0A
$IIVLW,53412,N,000.0,N*52
$IIDPT,002.6,+0.7,*44
$IIGLL,4612.827,N,00610.243,E,080245,A,A*55
$IIHDG,030,,,01,E*10
$IIMTW,+17.5,C*3B
$IIRMC,080245,A,4612.827,N,00610.243,E,00.0,000,220714,01,E,A*0A
$IIVLW,53412,N,000.0,N*52
$IIDPT,002.6,+0.7,*44
$IIGLL,4612.827,N,00610.243,E,080247,A,A*57
$IIHDG,030,,,01,E*10
$IIMTW,+17.5,C*3B
$IIRMC,080247,A,4612.827,N,00610.243,E,00.0,000,220714,01,E,A*08
$IIVLW,53412,N,000.0,N*52
$IIDPT,002.6,+0.7,*44
$IIGLL,4612.827,N,00610.243,E,080247,A,A*57
$IIHDG,030,,,01,E*10
$IIMTW,+17.5,C*3B
$IIRMC,080247,A,4612.827,N,00610.243,E,00.0,000,220714,01,E,A*08
$IIVLW,53412,N,000.0,N*52
$IIDPT,002.6,+0.7,*44
$IIGLL,4612.827,N,00610.243,E,080249,A,A*59
$IIHDG,030,,,01,E*10
$IIMTW,+17.5,C*3B
$IIRMC,080249,A,4612.827,N,00610.243,E,00.0,000,220714,01,E,A*06
$IIVLW,53412,N,000.0,N*52
$IIDPT,002.6,+0.7,*44
$IIGLL,4612.827,N,00610.243,E,080250,A,A*51
$IIHDG,030,,,01,E*10
$IIMTW,+17.5,C*3B
$IIRMC,080250,A,4612.827,N,00610.243,E,00.0,000,220714,01,E,A*0E
$IIVLW,53412,N,000.0,N*52
$IIDPT,002.6,+0.7,*44
$IIGLL,4612.827,N,00610.244,E,080251,A,A*57
$IIHDG,030,,,01,E*10
$IIMTW,+17.5,C*3B
$IIRMC,080251,A,4612.827,N,00610.244,E,00.0,000,220714,01,E,A*08
$IIVLW,53412,N,000.0,N*52
$IIDPT,002.6,+0.7,*44
$IIGLL,4612.827,N,00610.243,E,080252,A,A*53
$IIHDG,030,,,01,E*10
$IIMTW,+17.5,C*3B
$IIRMC,080252,A,4612.827,N,00610.243,E,00.0,000,220714,01,E,A*0C
$IIVLW,53412,N,000.0,N*52
$IIDPT,002.6,+0.7,*44
$IIGLL,4612.827,N,00610.243,E,080253,A,A*52
$IIHDG,030,,,01,E*10
$IIMTW,+17.5,C*3B
$IIRMC,080253,A,4612.827,N,00610.243,E,00.0,000,220714,01,E,A*0D
$IIVLW,53412,N,000.0,N*52
$IIDPT,002.6,+0.7,*44
$IIGLL,4612.827,N,00610.244,E,080254,A,A*52
$IIHDG,030,,,01,E*10
$IIMTW,+17.5,C*3B
$IIRMC,080254,A,4612.827,N,00610.244,E,00.0,000,220714,01,E,A*0D
$IIVLW,53412,N,000.0,N*52
$IIDPT,002.6,+0.7,*44
$IIGLL,4612.827,N,00610.244,E,080255,A,A*53
$IIHDG,029,,,01,E*18
$IIMTW,+17.5,C*3B
$IIRMC,080255,A,4612.827,N,00610.244,E,00.0,000,220714,01,E,A*0C
$IIVLW,53412,N,000.0,N*52
$IIDPT,002.6,+0.7,*44
$IIGLL,4612.827,N,00610.244,E,080256,A,A*50
$IIHDG,030,,,01,E*10
$IIMTW,+17.5,C*3B
$IIRMC,080256,A,4612.827,N,00610.244,E,00.0,000,220714,01,E,A*0F
$IIVLW,53412,N,000.0,N*52
$IIDPT,002.6,+0.7,*44
$IIGLL,4612.827,N,00610.244,E,080257,A,A*51
$IIHDG,030,,,01,E*10
$IIMTW,+17.5,C*3B
$IIRMC,080257,A,4612.827,N,00610.244,E,00.0,000,220714,01,E,A*0E
$IIVLW,53412,N,000.0,N*52
$IIDPT,002.6,+0.7,*44
$IIGLL,4612.827,N,00610.244,E,080258,A,A*5E
$IIHDG,030,,,01,E*10
$IIMTW,+17.5,C*3B
$IIRMC,080258,A,4612.827,N,00610.244,E,00.0,000,220714,01,E,A*01
$IIVLW,53412,N,000.0,N*52
$IIDPT,002.6,+0.7,*44
$IIGLL,4612.827,N,00610.244,E,080259,A,A*5F
$IIHDG,030,,,01,E*10
$IIMTW,+17.5,C*3B
$IIRMC,080259,A,4612.827,N,00610.244,E,00.0,000,220714,01,E,A*00
$IIVLW,53412,N,000.0,N*52
$IIDPT,002.6,+0.7,*44
$IIGLL,4612.827,N,00610.244,E,080200,A,A*53
$IIHDG,030,,,01,E*10
$IIMTW,+17.5,C*3B
$IIRMC,080200,A,4612.827,N,00610.244,E,00.0,000,220714,01,E,A*0C
$IIVLW,53412,N,000.0,N*52
$IIVWR,153,R,03.6,N,,,,*63
$IIDPT,002.6,+0.7,*44
$IIGLL,4612.827,N,00610.244,E,080201,A,A*52
$IIHDG,030,,,01,E*10
$IIMTW,+17.5,C*3B
$IIRMC,080201,A,4612.827,N,00610.244,E,00.0,000,220714,01,E,A*0D
$IIVLW,53412,N,000.0,N*52
$IIVWR,154,R,04.5,N,,,,*60
$IIDPT,002.6,+0.7,*44
$IIGLL,4612.827,N,00610.244,E,080202,A,A*51
$IIHDG,030,,,01,E*10
$IIMTW,+17.5,C*3B
$IIMWV,160,T,04.5,N,A*13
$IIRMC,080203,A,4612.827,N,00610.244,E,00.0,000,220714,01,E,A*0F
$IIVLW,53412,N,000.0,N*52
$IIVWR,154,R,05.4,N,,,,*60
$IIDPT,002.6,+0.7,*44
$IIGLL,4612.827,N,00610.244,E,080203,A,A*50
$IIHDG,030,,,01,E*10
$IIMTW,+17.5,C*3B
$IIMWV,159,T,06.3,N,A*1D
$IIRMC,080204,A,4612.827,N,00610.244,E,00.0,000,220714,01,E,A*08
$IIVLW,53412,N,000.0,N*52
$IIVWR,154,R,05.8,N,,,,*6C
$IIDPT,002.6,+0.7,*44
$IIGLL,4612.827,N,00610.244,E,080204,A,A*57
$IIHDG,030,,,01,E*10
$IIMTW,+17.5,C*3B
$IIMWV,158,T,06.6,N,A*19
$IIRMC,080205,A,4612.827,N,00610.244,E,00.0,000,220714,01,E,A*09
$IIVLW,53412,N,000.0,N*52
$IIVWR,152,R,05.5,N,,,,*67
$IIDPT,002.6,+0.7,*44
$IIGLL,4612.827,N,00610.244,E,080205,A,A*56
$IIHDG,030,,,01,E*10
$IIMTW,+17.5,C*3B
$IIMWV,157,T,06.4,N,A*14
$IIRMC,080205,A,4612.827,N,00610.244,E,00.0,000,220714,01,E,A*09
$IIVLW,53412,N,000.0,N*52
$IIVWR,150,R,04.0,N,,,,*61
$IIDPT,002.6,+0.7,*44
$IIGLL,4612.827,N,00610.244,E,080205,A,A*56
$IIHDG,030,,,01,E*10
$IIMTW,+17.5,C*3B
$IIMWV,155,T,04.8,N,A*18
$IIRMC,080207,A,4612.827,N,00610.244,E,00.0,000,220714,01,E,A*0B
$IIVLW,53412,N,000.0,N*52
$IIVWR,149,R,03.7,N,,,,*69
$IIDPT,002.6,+0.7,*44
$IIGLL,4612.827,N,00610.244,E,080208,A,A*5B
$IIHDG,029,,,01,E*18
$IIMTW,+17.5,C*3B
$IIMWV,149,T,03.7,N,A*1D
$IIRMC,080208,A,4612.827,N,00610.244,E,00.0,000,220714,01,E,A*04
$IIVLW,53412,N,000.0,N*52
$IIVWR,150,R,04.8,N,,,,*69
$IIDPT,002.6,+0.7,*44
$IIGLL,4612.827,N,00610.244,E,080209,A,A*5A
$IIHDG,030,,,01,E*10
$IIMTW,+17.5,C*3B
$IIMWV,150,T,04.8,N,A*1D
$IIRMC,080209,A,4612.827,N,00610.244,E,00.0,000,220714,01,E,A*05
$IIVLW,53412,N,000.0,N*52
$IIVWR,150,R,03.9,N,,,,*6F
$IIDPT,002.6,+0.7,*44
$IIGLL,4612.827,N,00610.244,E,080210,A,A*52
$IIHDG,030,,,01,E*10
$IIMTW,+17.5,C*3B
$IIMWV,150,T,05.0,N,A*14
$IIRMC,080210,A,4612.827,N,00610.244,E,00.0,000,220714,01,E,A*0D
$IIVLW,53412,N,000.0,N*52
$IIVWR,149,R,03.6,N,,,,*68
$IIDPT,002.6,+0.7,*44
$IIGLL,4612.827,N,00610.244,E,080211,A,A*53
$IIHDG,030,,,01,E*10
$IIMTW,+17.5,C*3B
$IIMWV,150,T,03.9,N,A*1B
$IIRMC,080211,A,4612.827,N,00610.244,E,00.0,000,220714,01,E,A*0C
$IIVLW,53412,N,000.0,N*52
$IIVWR,150,R,04.6,N,,,,*67
$IIDPT,002.6,+0.7,*44
$IIGLL,4612.827,N,00610.244,E,080212,A,A*50
$IIHDG,030,,,01,E*10
$IIMTW,+17.5,C*3B
$IIMWV,149,T,03.6,N,A*1C
$IIRMC,080213,A,4612.827,N,00610.244,E,00.0,000,220714,01,E,A*0E
$IIVLW,53412,N,000.0,N*52
$IIVWR,148,R,04.8,N,,,,*60
$IIDPT,002.6,+0.7,*44
$IIGLL,4612.827,N,00610.244,E,080213,A,A*51
$IIHDG,030,,,01,E*10
$IIMTW,+17.5,C*3B
$IIMWV,148,T,04.8,N,A*14
$IIRMC,080214,A,4612.827,N,00610.244,E,00.0,000,220714,01,E,A*09
$IIVLW,53412,N,000.0,N*52
$IIVWR,148,R,04.8,N,,,,*60
$IIDPT,002.6,+0.7,*44
$IIGLL,4612.827,N,00610.244,E,080214,A,A*56
$IIHDG,030,,,01,E*10
$IIMTW,+17.5,C*3B
$IIMWV,148,T,04.8,N,A*14
$IIRMC,080215,A,4612.827,N,00610.244,E,00.0,000,220714,01,E,A*08
$IIVLW,53412,N,000.0,N*52
$IIVWR,148,R,04.8,N,,,,*60
$IIDPT,002.6,+0.7,*44
$IIGLL,4612.827,N,00610.244,E,080215,A,A*57
$IIHDG,030,,,01,E*10
$IIMTW,+17.5,C*3B
$IIMWV,148,T,04.8,N,A*14
$IIRMC,080216,A,4612.827,N,00610.244,E,00.0,000,220714,01,E,A*0B
$IIVLW,53412,N,000.0,N*52
$IIVWR,148,R,04.8,N,,,,*60
$IIDPT,002.6,+0.7,*44
$IIGLL,4612.827,N,00610.244,E,080216,A,A*54
$IIHDG,030,,,01,E*10
$IIMTW,+17.5,C*3B
$IIMWV,148,T,04.8,N,A*14
$IIRMC,080217,A,4612.827,N,00610.244,E,00.0,000,220714,01,E,A*0A
$IIVLW,53412,N,000.0,N*52
$IIVWR,148,R,04.8,N,,,,*60
$IIDPT,002.6,+0.7,*44
$IIGLL,4612.827,N,00610.244,E,080218,A,A*5A
$IIHDG,030,,,01,E*10
$IIMTW,+17.5,C*3B
$IIMWV,148,T,04.8,N,A*14
$IIRMC,080218,A,4612.827,N,00610.244,E,00.0,000,220714,01,E,A*05
$IIVLW,53412,N,000.0,N*52
$IIVWR,148,R,04.8,N,,,,*60
$IIDPT,002.6,+0.7,*44
$IIGLL,4612.827,N,00610.244,E,080219,A,A*5B
$IIHDG,030,,,01,E*10
$IIMTW,+17.5,C*3B
$IIMWV,148,T,04.8,N,A*14
$IIRMC,080219,A,4612.827,N,00610.244,E,00.0,000,220714,01,E,A*04
$IIVLW,53412,N,000.0,N*52
$IIVWR,148,R,04.8,N,,,,*60
$IIDPT,002.6,+0.7,*44
$IIGLL,4612.827,N,00610.244,E,080220,A,A*51
$IIHDG,030,,,01,E*10
$IIMTW,+17.5,C*3B
$IIMWV,148,T,04.8,N,A*14
$IIRMC,080220,A,4612.827,N,00610.244,E,00.0,000,220714,01,E,A*0E
$IIVLW,53412,N,000.0,N*52
$IIVWR,148,R,04.8,N,,,,*60
$IIDPT,002.6,+0.7,*44
$IIGLL,4612.827,N,00610.244,E,080221,A,A*50
$IIHDG,030,,,01,E*10
$IIMTW,+17.5,C*3B
$IIMWV,153,T,05.5,N,A*12
$IIRMC,080221,A,4612.827,N,00610.244,E,00.0,000,220714,01,E,A*0F
$IIVLW,53412,N,000.0,N*52
$IIVWR,136,R,06.7,N,,,,*64
$IIDPT,002.6,+0.7,*44
$IIGLL,4612.827,N,00610.244,E,080223,A,A*52
$IIHDG,030,,,01,E*10
$IIMTW,+17.5,C*3B
$IIMWV,153,T,05.5,N,A*12
$IIRMC,080224,A,4612.827,N,00610.244,E,00.0,000,220714,01,E,A*0A
$IIVLW,53412,N,000.0,N*52
$IIVWR,131,R,06.7,N,,,,*63
$IIDPT,002.6,+0.7,*44
$IIGLL,4612.827,N,00610.244,E,080224,A,A*55
$IIHDG,030,,,01,E*10
$IIMTW,+17.5,C*3B
$IIMWV,137,T,07.3,N,A*14
$IIRMC,080224,A,4612.827,N,00610.244,E,00.0,000,220714,01,E,A*0A
$IIVLW,53412,N,000.0,N*52
$IIVWR,137,R,07.8,N,,,,*6B
$IIDPT,002.6,+0.7,*44
$IIGLL,4612.827,N,00610.244,E,080224,A,A*55
$IIHDG,030,,,01,E*10
$IIMTW,+17.5,C*3B
$IIMWV,137,T,07.8,N,A*1F
$IIRMC,080226,A,4612.827,N,00610.244,E,00.0,000,220714,01,E,A*08
$IIVLW,53412,N,000.0,N*52
$IIVWR,135,R,07.2,N,,,,*63
$IIDPT,002.6,+0.7,*44
$IIGLL,4612.827,N,00610.244,E,080226,A,A*57
$IIHDG,030,,,01,E*10
$IIMTW,+17.5,C*3B
$IIMWV,135,T,07.2,N,A*17
$IIRMC,080227,A,4612.827,N,00610.244,E,00.0,000,220714,01,E,A*09
$IIVLW,53412,N,000.0,N*52
$IIVWR,135,R,06.6,N,,,,*66
$IIDPT,002.6,+0.7,*44
$IIGLL,4612.827,N,00610.244,E,080227,A,A*56
$IIHDG,030,,,01,E*10
$IIMTW,+17.5,C*3B
$IIMWV,141,T,07.3,N,A*15
$IIRMC,080228,A,4612.827,N,00610.244,E,00.0,000,220714,01,E,A*06
$IIVLW,53412,N,000.0,N*52
$IIVWR,134,R,06.2,N,,,,*63
$IIDPT,002.6,+0.7,*44
$IIGLL,4612.827,N,00610.244,E,080228,A,A*59
$IIHDG,030,,,01,E*10
$IIMTW,+17.5,C*3B
$IIMWV,141,T,06.9,N,A*1E
$IIRMC,080228,A,4612.827,N,00610.244,E,00.0,000,220714,01,E,A*06
$IIVLW,53412,N,000.0,N*52
$IIVWR,136,R,05.8,N,,,,*68
$IIDPT,002.6,+0.7,*44
$IIGLL,4612.827,N,00610.244,E,080230,A,A*50
$IIHDG,030,,,01,E*10
$IIMTW,+17.5,C*3B
$IIMWV,143,T,06.6,N,A*13
$IIRMC,080230,A,4612.827,N,00610.244,E,00.0,000,220714,01,E,A*0F
$IIVLW,53412,N,000.0,N*52
$IIVWR,139,R,05.7,N,,,,*68
$IIDPT,002.6,+0.7,*44
$IIGLL,4612.827,N,00610.244,E,080231,A,A*51
$IIHDG,030,,,01,E*10
$IIMTW,+17.5,C*3B
$IIMWV,146,T,06.5,N,A*15
$IIRMC,080231,A,4612.827,N,00610.244,E,00.0,000,220714,01,E,A*0E
$IIVLW,53412,N,000.0,N*52
$IIVWR,135,R,05.7,N,,,,*64
$IIDPT,002.6,+0.7,*44
$IIGLL,4612.827,N,00610.244,E,080232,A,A*52
$IIHDG,030,,,01,E*10
$IIMTW,+17.5,C*3B
$IIMWV,145,T,06.4,N,A*17
$IIRMC,080232,A,4612.827,N,00610.244,E,00.0,000,220714,01,E,A*0D
$IIVLW,53412,N,000.0,N*52
$IIVWR,134,R,05.5,N,,,,*67
$IIDPT,002.6,+0.7,*44
$IIGLL,4612.827,N,00610.244,E,080234,A,A*54
$IIHDG,030,,,01,E*10
$IIMTW,+17.5,C*3B
$IIMWV,144,T,06.3,N,A*11
$IIRMC,080235,A,4612.827,N,00610.244,E,00.0,000,220714,01,E,A*0A
$IIVLW,53412,N,000.0,N*52
$IIVWR,130,R,05.5,N,,,,*63
$IIDPT,002.6,+0.7,*44
$IIGLL,4612.827,N,00610.244,E,080235,A,A*55
$IIHDG,030,,,01,E*10
$IIMTW,+17.5,C*3B
$IIMWV,137,T,06.1,N,A*17
$IIRMC,080236,A,4612.827,N,00610.244,E,00.0,000,220714,01,E,A*09
$IIVLW,53412,N,000.0,N*52
$IIVWR,132,R,05.5,N,,,,*61
$IIDPT,002.6,+0.7,*44
$IIGLL,4612.827,N,00610.244,E,080236,A,A*56
$IIHDG,030,,,01,E*10
$IIMTW,+17.5,C*3B
$IIMWV,140,T,06.1,N,A*17
$IIRMC,080237,A,4612.827,N,00610.244,E,00.0,000,220714,01,E,A*08
$IIVLW,53412,N,000.0,N*52
$IIVWR,131,R,05.5,N,,,,*62
$IIDPT,002.6,+0.7,*44
$IIGLL,4612.827,N,00610.244,E,080237,A,A*57
$IIHDG,030,,,01,E*10
$IIMTW,+17.5,C*3B
$IIMWV,139,T,06.2,N,A*1A
$IIRMC,080238,A,4612.827,N,00610.244,E,00.0,000,220714,01,E,A*07
$IIVLW,53412,N,000.0,N*52
$IIVWR,131,R,05.2,N,,,,*65
$IIDPT,002.6,+0.7,*44
$IIGLL,4612.827,N,00610.244,E,080238,A,A*58
$IIHDG,029,,,01,E*18
$IIMTW,+17.5,C*3B
$IIMWV,140,T,06.0,N,A*16
$IIRMC,080239,A,4612.827,N,00610.244,E,00.0,000,220714,01,E,A*06
$IIVLW,53412,N,000.0,N*52
$IIVWR,131,R,05.2,N,,,,*65
$IIDPT,002.6,+0.7,*44
$IIGLL,4612.827,N,00610.244,E,080240,A,A*57
$IIHDG,030,,,01,E*10
$IIMTW,+17.5,C*3B
$IIMWV,140,T,06.0,N,A*16
$IIRMC,080240,A,4612.827,N,00610.244,E,00.0,000,220714,01,E,A*08
$IIVLW,53412,N,000.0,N*52
$IIVWR,131,R,05.2,N,,,,*65
$IIDPT,002.6,+0.7,*44
$IIGLL,4612.827,N,00610.244,E,080241,A,A*56
$IIHDG,030,,,01,E*10
$IIMTW,+17.5,C*3B
$IIMWV,140,T,06.1,N,A*17
$IIRMC,080241,A,4612.827,N,00610.244,E,00.0,000,220714,01,E,A*09
$IIVLW,53412,N,000.0,N*52
$IIVWR,131,R,05.2,N,,,,*65
$IIDPT,002.6,+0.7,*44
$IIGLL,4612.827,N,00610.244,E,080242,A,A*55
$IIHDG,030,,,01,E*10
$IIMTW,+17.5,C*3B
$IIMWV,140,T,06.0,N,A*16
$IIRMC,080242,A,4612.827,N,00610.244,E,00.0,000,220714,01,E,A*0A
$IIVLW,53412,N,000.0,N*52
$IIVWR,131,R,05.2,N,,,,*65
$IIDPT,002.6,+0.7,*44
$IIGLL,4612.827,N,00610.244,E,080243,A,A*54
$IIHDG,030,,,01,E*10
$IIMTW,+17.5,C*3B
$IIMWV,140,T,06.1,N,A*17
$IIRMC,080243,A,4612.827,N,00610.244,E,00.0,000,220714,01,E,A*0B
$IIVLW,53412,N,000.0,N*52
$IIVWR,131,R,05.2,N,,,,*65
$IIDPT,002.6,+0.7,*44
$IIGLL,4612.827,N,00610.244,E,080244,A,A*53
$IIHDG,030,,,01,E*10
$IIMTW,+17.5,C*3B
$IIMWV,140,T,06.0,N,A*16
$IIRMC,080245,A,4612.827,N,00610.244,E,00.0,000,220714,01,E,A*0D
$IIVLW,53412,N,000.0,N*52
$IIVWR,131,R,05.2,N,,,,*65
$IIDPT,002.6,+0.7,*44
$IIGLL,4612.827,N,00610.244,E,080245,A,A*52
$IIHDG,030,,,01,E*10
$IIMTW,+17.5,C*3B
$IIMWV,140,T,06.0,N,A*16
$IIRMC,080246,A,4612.827,N,00610.244,E,00.0,000,220714,01,E,A*0E
$IIVLW,53412,N,000.0,N*52
$IIVWR,131,R,05.2,N,,,,*65
$IIDPT,002.6,+0.7,*44
$IIGLL,4612.827,N,00610.244,E,080246,A,A*51
$IIHDG,030,,,01,E*10
$IIMTW,+17.5,C*3B
$IIMWV,140,T,06.0,N,A*16
$IIRMC,080247,A,4612.827,N,00610.244,E,00.0,000,220714,01,E,A*0F
$IIVLW,53412,N,000.0,N*52
$IIDPT,002.6,+0.7,*44
$IIGLL,4612.827,N,00610.244,E,080247,A,A*50
$IIHDG,030,,,01,E*10
$IIMTW,+17.5,C*3B
$IIMWV,140,T,06.0,N,A*16
$IIRMC,080248,A,4612.827,N,00610.244,E,00.0,000,220714,01,E,A*00
$IIVLW,53412,N,000.0,N*52
$IIDPT,002.6,+0.7,*44
$IIGLL,4612.827,N,00610.244,E,080248,A,A*5F
$IIHDG,030,,,01,E*10
$IIMTW,+17.5,C*3B
$IIMWV,140,T,06.0,N,A*16
$IIRMC,080248,A,4612.827,N,00610.244,E,00.0,000,220714,01,E,A*00
$IIVLW,53412,N,000.0,N*52
$IIDPT,002.6,+0.7,*44
$IIGLL,4612.827,N,00610.244,E,080248,A,A*5F
$IIHDG,030,,,01,E*10
$IIMTW,+17.5,C*3B
$IIRMC,080250,A,4612.827,N,00610.244,E,00.0,000,220714,01,E,A*09
$IIVLW,53412,N,000.0,N*52
$IIDPT,002.6,+0.7,*44
$IIGLL,4612.827,N,00610.244,E,080250,A,A*56
$IIHDG,030,,,01,E*10
$IIMTW,+17.5,C*3B
$IIRMC,080251,A,4612.827,N,00610.244,E,00.0,000,220714,01,E,A*08
$IIVLW,53412,N,000.0,N*52
$IIDPT,002.6,+0.7,*44
$IIGLL,4612.827,N,00610.244,E,080251,A,A*57
$IIHDG,030,,,01,E*10
$IIMTW,+17.5,C*3B
$IIRMC,080252,A,4612.827,N,00610.244,E,00.0,000,220714,01,E,A*0B
$IIVLW,53412,N,000.0,N*52
$IIDPT,002.6,+0.7,*44
$IIGLL,4612.827,N,00610.244,E,080252,A,A*54
$IIHDG,030,,,01,E*10
$IIMTW,+17.5,C*3B
$IIRMC,080252,A,4612.827,N,00610.244,E,00.0,000,220714,01,E,A*0B
$IIVLW,53412,N,000.0,N*52
$IIDPT,002.6,+0.7,*44
$IIGLL,4612.827,N,00610.244,E,080252,A,A*54
$IIHDG,030,,,01,E*10
$IIMTW,+17.5,C*3B
$IIRMC,080254,A,4612.827,N,00610.244,E,00.0,000,220714,01,E,A*0D
$IIVLW,53412,N,000.0,N*52
$IIDPT,002.6,+0.7,*44
$IIGLL,4612.827,N,00610.244,E,080254,A,A*52
$IIHDG,030,,,01,E*10
$IIMTW,+17.5,C*3B
$IIRMC,080255,A,4612.827,N,00610.244,E,00.0,000,220714,01,E,A*0C
$IIVLW,53412,N,000.0,N*52
$IIDPT,002.6,+0.7,*44
$IIGLL,4612.827,N,00610.244,E,080255,A,A*53
$IIHDG,030,,,01,E*10
$IIMTW,+17.5,C*3B
$IIRMC,080256,A,4612.827,N,00610.244,E,00.0,000,220714,01,E,A*0F
$IIVLW,53412,N,000.0,N*52
$IIDPT,002.6,+0.7,*44
$IIGLL,4612.827,N,00610.244,E,080256,A,A*50
$IIHDG,030,,,01,E*10
$IIMTW,+17.5,C*3B
$IIRMC,080257,A,4612.827,N,00610.244,E,00.0,000,220714,01,E,A*0E
$IIVLW,53412,N,000.0,N*52
$IIDPT,002.6,+0.7,*44
$IIGLL,4612.827,N,00610.244,E,080257,A,A*51
$IIHDG,030,,,01,E*10
$IIMTW,+17.5,C*3B
$IIRMC,080258,A,4612.827,N,00610.244,E,00.0,000,220714,01,E,A*01
$IIVLW,53412,N,000.0,N*52
$IIDPT,002.6,+0.7,*44
$IIGLL,4612.827,N,00610.244,E,080258,A,A*5E
$IIHDG,030,,,01,E*10
$IIMTW,+17.5,C*3B
$IIRMC,080259,A,4612.827,N,00610.244,E,00.0,000,220714,01,E,A*00
$IIVLW,53412,N,000.0,N*52
$IIDPT,002.6,+0.7,*44
$IIGLL,4612.827,N,00610.244,E,080259,A,A*5F
$IIHDG,030,,,01,E*10
$IIMTW,+17.5,C*3B
$IIRMC,080200,A,4612.827,N,00610.244,E,00.0,000,220714,01,E,A*0C
$IIVLW,53412,N,000.0,N*52
$IIDPT,002.6,+0.7,*44
$IIGLL,4612.827,N,00610.244,E,080200,A,A*53
$IIHDG,030,,,01,E*10
$IIMTW,+17.5,C*3B
$IIRMC,080201,A,4612.827,N,00610.244,E,00.0,000,220714,01,E,A*0D
$IIVLW,53412,N,000.0,N*52
$IIDPT,002.6,+0.7,*44
$IIGLL,4612.827,N,00610.244,E,080201,A,A*52
$IIHDG,029,,,01,E*18
$IIMTW,+17.5,C*3B
$IIRMC,080202,A,4612.827,N,00610.244,E,00.0,000,220714,01,E,A*0E
$IIVLW,53412,N,000.0,N*52
$IIDPT,002.6,+0.7,*44
$IIGLL,4612.827,N,00610.244,E,080202,A,A*51
$IIHDG,030,,,01,E*10
$IIMTW,+17.5,C*3B
$IIRMC,080203,A,4612.827,N,00610.244,E,00.0,000,220714,01,E,A*0F
$IIVLW,53412,N,000.0,N*52
$IIDPT,002.6,+0.7,*44
$IIGLL,4612.827,N,00610.244,E,080203,A,A*50
$IIHDG,030,,,01,E*10
$IIMTW,+17.5,C*3B
$IIRMC,080203,A,4612.827,N,00610.244,E,00.0,000,220714,01,E,A*0F
$IIVLW,53412,N,000.0,N*52
$IIDPT,002.6,+0.7,*44
$IIGLL,4612.827,N,00610.244,E,080203,A,A*50
$IIHDG,030,,,01,E*10
$IIMTW,+17.5,C*3B
$IIRMC,080205,A,4612.827,N,00610.244,E,00.0,000,220714,01,E,A*09
$IIVLW,53412,N,000.0,N*52
$IIDPT,002.6,+0.7,*44
$IIGLL,4612.827,N,00610.244,E,080205,A,A*56
$IIHDG,030,,,01,E*10
$IIMTW,+17.5,C*3B
$IIRMC,080206,A,4612.827,N,00610.244,E,00.0,000,220714,01,E,A*0A
$IIVLW,53412,N,000.0,N*52
$IIDPT,002.6,+0.7,*44
$IIGLL,4612.827,N,00610.244,E,080206,A,A*55
$IIHDG,030,,,01,E*10
$IIMTW,+17.5,C*3B
$IIRMC,080207,A,4612.827,N,00610.244,E,00.0,000,220714,01,E,A*0B
$IIVLW,53412,N,000.0,N*52
$IIDPT,002.6,+0.7,*44
$IIGLL,4612.827,N,00610.244,E,080207,A,A*54
$IIHDG,030,,,01,E*10
$IIMTW,+17.5,C*3B
$IIRMC,080208,A,4612.827,N,00610.244,E,00.0,000,220714,01,E,A*04
$IIVLW,53412,N,000.0,N*52
$IIDPT,002.6,+0.7,*44
$IIGLL,4612.827,N,00610.244,E,080208,A,A*5B
$IIHDG,030,,,01,E*10
$IIMTW,+17.5,C*3B
$IIRMC,080208,A,4612.827,N,00610.244,E,00.0,000,220714,01,E,A*04
$IIVLW,53412,N,000.0,N*52
$IIDPT,002.6,+0.7,*44
$IIGLL,4612.827,N,00610.244,E,080208,A,A*5B
$IIHDG,030,,,01,E*10
$IIMTW,+17.5,C*3B
$IIRMC,080210,A,4612.827,N,00610.244,E,00.0,000,220714,01,E,A*0D
$IIVLW,53412,N,000.0,N*52
$IIDPT,002.6,+0.7,*44
$IIGLL,4612.827,N,00610.244,E,080210,A,A*52
$IIHDG,030,,,01,E*10
$IIMTW,+17.5,C*3B
$IIRMC,080211,A,4612.827,N,00610.244,E,00.0,000,220714,01,E,A*0C
$IIVLW,53412,N,000.0,N*52
$IIDPT,002.6,+0.7,*44
$IIGLL,4612.827,N,00610.244,E,080211,A,A*53
$IIHDG,030,,,01,E*10
$IIMTW,+17.5,C*3B
$IIRMC,080212,A,4612.827,N,00610.244,E,00.0,000,220714,01,E,A*0F
$IIVLW,53412,N,000.0,N*52
$IIDPT,002.6,+0.7,*44
$IIGLL,4612.827,N,00610.244,E,080212,A,A*50
$IIHDG,030,,,01,E*10
$IIMTW,+17.5,C*3B
$IIRMC,080213,A,4612.827,N,00610.244,E,00.0,000,220714,01,E,A*0E
$IIVLW,53412,N,000.0,N*52
$IIDPT,002.6,+0.7,*44
$IIGLL,4612.827,N,00610.244,E,080213,A,A*51
$IIHDG,030,,,01,E*10
$IIMTW,+17.5,C*3B
$IIRMC,080214,A,4612.827,N,00610.244,E,00.0,000,220714,01,E,A*09
$IIVLW,53412,N,000.0,N*52
$IIDPT,002.6,+0.7,*44
$IIGLL,4612.827,N,00610.244,E,080214,A,A*56
$IIHDG,030,,,01,E*10
$IIMTW,+17.5,C*3B
$IIRMC,080215,A,4612.827,N,00610.244,E,00.0,000,220714,01,E,A*08
$IIVLW,53412,N,000.0,N*52
$IIDPT,002.6,+0.7,*44
$IIGLL,4612.827,N,00610.244,E,080215,A,A*57
$IIHDG,030,,,01,E*10
$IIMTW,+17.5,C*3B
$IIRMC,080216,A,4612.827,N,00610.244,E,00.0,000,220714,01,E,A*0B
$IIVLW,53412,N,000.0,N*52
$IIDPT,002.6,+0.7,*44
$IIGLL,4612.827,N,00610.244,E,080216,A,A*54
$IIHDG,030,,,01,E*10
$IIMTW,+17.5,C*3B
$IIRMC,080217,A,4612.827,N,00610.244,E,00.0,000,220714,01,E,A*0A
$IIVLW,53412,N,000.0,N*52
$IIDPT,002.6,+0.7,*44
$IIGLL,4612.827,N,00610.244,E,080217,A,A*55
$IIHDG,030,,,01,E*10
$IIMTW,+17.5,C*3B
$IIRMC,080218,A,4612.827,N,00610.244,E,00.0,000,220714,01,E,A*05
$IIVLW,53412,N,000.0,N*52
$IIDPT,002.6,+0.7,*44
$IIGLL,4612.827,N,00610.244,E,080218,A,A*5A
$IIHDG,030,,,01,E*10
$IIMTW,+17.5,C*3B
$IIRMC,080219,A,4612.827,N,00610.244,E,00.0,000,220714,01,E,A*04
$IIVLW,53412,N,000.0,N*52
$IIDPT,002.6,+0.7,*44
$IIGLL,4612.827,N,00610.244,E,080219,A,A*5B
$IIHDG,030,,,01,E*10
$IIMTW,+17.5,C*3B
$IIRMC,080220,A,4612.827,N,00610.244,E,00.0,000,220714,01,E,A*0E
$IIVLW,53412,N,000.0,N*52
$IIDPT,002.6,+0.7,*44
$IIGLL,4612.827,N,00610.244,E,080220,A,A*51
$IIHDG,030,,,01,E*10
$IIMTW,+17.5,C*3B
$IIRMC,080221,A,4612.827,N,00610.244,E,00.0,000,220714,01,E,A*0F
$IIVLW,53412,N,000.0,N*52
$IIDPT,002.6,+0.7,*44
$IIGLL,4612.827,N,00610.244,E,080221,A,A*50
$IIHDG,030,,,01,E*10
$IIMTW,+17.5,C*3B
$IIRMC,080222,A,4612.827,N,00610.244,E,00.0,000,220714,01,E,A*0C
$IIVLW,53412,N,000.0,N*52
$IIDPT,002.6,+0.7,*44
$IIGLL,4612.827,N,00610.244,E,080222,A,A*53
$IIHDG,030,,,01,E*10
$IIMTW,+17.5,C*3B
$IIRMC,080223,A,4612.827,N,00610.244,E,00.0,000,220714,01,E,A*0D
$IIVLW,53412,N,000.0,N*52
$IIDPT,002.6,+0.7,*44
$IIGLL,4612.827,N,00610.244,E,080223,A,A*52
$IIHDG,030,,,01,E*10
$IIMTW,+17.5,C*3B
$IIRMC,080224,A,4612.827,N,00610.244,E,00.0,000,220714,01,E,A*0A
$IIVLW,53412,N,000.0,N*52
$IIDPT,002.6,+0.7,*44
$IIGLL,4612.827,N,00610.244,E,080224,A,A*55
$IIHDG,030,,,01,E*10
$IIMTW,+17.5,C*3B
$IIRMC,080225,A,4612.827,N,00610.244,E,00.0,000,220714,01,E,A*0B
$IIVLW,53412,N,000.0,N*52
$IIDPT,002.6,+0.7,*44
$IIGLL,4612.827,N,00610.244,E,080225,A,A*54
$IIHDG,030,,,01,E*10
$IIMTW,+17.5,C*3B
$IIRMC,080226,A,4612.827,N,00610.244,E,00.0,000,220714,01,E,A*08
$IIVLW,53412,N,000.0,N*52
$IIDPT,002.6,+0.7,*44
$IIGLL,4612.827,N,00610.244,E,080226,A,A*57
$IIHDG,030,,,01,E*10
$IIMTW,+17.5,C*3B
$IIRMC,080226,A,4612.827,N,00610.244,E,00.0,000,220714,01,E,A*08
$IIVLW,53412,N,000.0,N*52
$IIDPT,002.6,+0.7,*44
$IIGLL,4612.827,N,00610.244,E,080226,A,A*57
$IIHDG,030,,,01,E*10
$IIMTW,+17.5,C*3B
$IIRMC,080228,A,4612.827,N,00610.244,E,00.0,000,220714,01,E,A*06
$IIVLW,53412,N,000.0,N*52
$IIDPT,002.6,+0.7,*44
$IIGLL,4612.827,N,00610.244,E,080228,A,A*59
$IIHDG,030,,,01,E*10
$IIMTW,+17.5,C*3B
$IIRMC,080229,A,4612.827,N,00610.244,E,00.0,000,220714,01,E,A*07
$IIVLW,53412,N,000.0,N*52
$IIDPT,002.6,+0.7,*44
$IIGLL,4612.827,N,00610.244,E,080229,A,A*58
$IIHDG,030,,,01,E*10
$IIMTW,+17.5,C*3B
$IIRMC,080230,A,4612.827,N,00610.244,E,00.0,000,220714,01,E,A*0F
$IIVLW,53412,N,000.0,N*52
$IIDPT,002.6,+0.7,*44
$IIGLL,4612.827,N,00610.244,E,080230,A,A*50
$IIHDG,030,,,01,E*10
$IIMTW,+17.5,C*3B
$IIRMC,080230,A,4612.827,N,00610.244,E,00.0,000,220714,01,E,A*0F
$IIVLW,53412,N,000.0,N*52
$IIDPT,002.6,+0.7,*44
$IIGLL,4612.827,N,00610.244,E,080230,A,A*50
$IIHDG,030,,,01,E*10
$IIMTW,+17.5,C*3B
$IIRMC,080232,A,4612.827,N,00610.244,E,00.0,000,220714,01,E,A*0D
$IIVLW,53412,N,000.0,N*52
$IIDPT,002.6,+0.7,*44
$IIGLL,4612.827,N,00610.244,E,080232,A,A*52
$IIHDG,030,,,01,E*10
$IIMTW,+17.5,C*3B
$IIRMC,080233,A,4612.827,N,00610.244,E,00.0,000,220714,01,E,A*0C
$IIVLW,53412,N,000.0,N*52
$IIDPT,002.6,+0.7,*44
$IIGLL,4612.827,N,00610.244,E,080233,A,A*53
$IIHDG,030,,,01,E*10
$IIMTW,+17.5,C*3B
$IIRMC,080234,A,4612.827,N,00610.244,E,00.0,000,220714,01,E,A*0B
$IIVLW,53412,N,000.0,N*52
$IIDPT,002.6,+0.7,*44
$IIGLL,4612.827,N,00610.244,E,080235,A,A*55
$IIHDG,030,,,01,E*10
$IIMTW,+17.5,C*3B
$IIRMC,080235,A,4612.827,N,00610.244,E,00.0,000,220714,01,E,A*0A
$IIVLW,53412,N,000.0,N*52
$IIDPT,002.6,+0.7,*44
$IIGLL,4612.827,N,00610.244,E,080236,A,A*56
$IIHDG,030,,,01,E*10
$IIMTW,+17.5,C*3B
$IIRMC,080236,A,4612.827,N,00610.244,E,00.0,000,220714,01,E,A*09
$IIVLW,53412,N,000.0,N*52
$IIDPT,002.6,+0.7,*44
$IIGLL,4612.827,N,00610.244,E,080237,A,A*57
$IIHDG,030,,,01,E*10
$IIMTW,+17.5,C*3B
$IIRMC,080237,A,4612.827,N,00610.244,E,00.0,000,220714,01,E,A*08
$IIVLW,53412,N,000.0,N*52
$IIDPT,002.6,+0.7,*44
$IIGLL,4612.827,N,00610.244,E,080238,A,A*58
$IIHDG,030,,,01,E*10
$IIMTW,+17.5,C*3B
$IIRMC,080238,A,4612.827,N,00610.244,E,00.0,000,220714,01,E,A*07
$IIVLW,53412,N,000.0,N*52
$IIDPT,002.6,+0.7,*44
$IIGLL,4612.827,N,00610.244,E,080239,A,A*59
$IIHDG,030,,,01,E*10
$IIMTW,+17.5,C*3B
$IIRMC,080239,A,4612.827,N,00610.244,E,00.0,000,220714,01,E,A*06
$IIVLW,53412,N,000.0,N*52
$IIDPT,002.6,+0.7,*44
$IIGLL,4612.827,N,00610.244,E,080240,A,A*57
$IIHDG,030,,,01,E*10
$IIMTW,+17.5,C*3B
$IIRMC,080240,A,4612.827,N,00610.244,E,00.0,000,220714,01,E,A*08
$IIVLW,53412,N,000.0,N*52
$IIGLL,4612.827,N,00610.244,E,080241,A,A*56
$IIRMC,080241,A,4612.827,N,00610.244,E,00.0,000,220714,01,E,A*09
$IIVLW,53412,N,000.0,N*52
$IIDPT,002.6,+0.7,*44
$IIGLL,4612.827,N,00610.244,E,080242,A,A*55
$IIHDG,030,,,01,E*10
$IIMTW,+17.5,C*3B
$IIRMC,080242,A,4612.827,N,00610.244,E,00.0,000,220714,01,E,A*0A
$IIVLW,53412,N,000.0,N*52
$IIDPT,002.6,+0.7,*44
$IIGLL,4612.827,N,00610.244,E,080243,A,A*54
$IIHDG,030,,,01,E*10
$IIMTW,+17.5,C*3B
$IIRMC,080243,A,4612.827,N,00610.244,E,00.0,000,220714,01,E,A*0B
$IIVLW,53412,N,000.0,N*52
$IIDPT,002.6,+0.7,*44
$IIGLL,4612.827,N,00610.244,E,080244,A,A*53
$IIHDG,030,,,01,E*10
$IIMTW,+17.5,C*3B
$IIRMC,080244,A,4612.827,N,00610.244,E,00.0,000,220714,01,E,A*0C
$IIVLW,53412,N,000.0,N*52
$IIDPT,002.6,+0.7,*44
$IIGLL,4612.827,N,00610.244,E,080245,A,A*52
$IIHDG,030,,,01,E*10
$IIMTW,+17.5,C*3B
$IIRMC,080245,A,4612.827,N,00610.244,E,00.0,000,220714,01,E,A*0D
$IIVLW,53412,N,000.0,N*52
$IIDPT,002.6,+0.7,*44
$IIGLL,4612.827,N,00610.244,E,080246,A,A*51
$IIHDG,030,,,01,E*10
$IIMTW,+17.5,C*3B
$IIRMC,080246,A,4612.827,N,00610.244,E,00.0,000,220714,01,E,A*0E
$IIVLW,53412,N,000.0,N*52
$IIDPT,002.6,+0.7,*44
$IIGLL,4612.827,N,00610.244,E,080247,A,A*50
$IIHDG,030,,,01,E*10
$IIMTW,+17.5,C*3B
$IIRMC,080247,A,4612.827,N,00610.244,E,00.0,000,220714,01,E,A*0F
$IIVLW,53412,N,000.0,N*52
$IIDPT,002.6,+0.7,*44
$IIGLL,4612.827,N,00610.244,E,080248,A,A*5F
$IIHDG,030,,,01,E*10
$IIMTW,+17.5,C*3B
$IIRMC,080248,A,4612.827,N,00610.244,E,00.0,000,220714,01,E,A*00
$IIVLW,53412,N,000.0,N*52
$IIDPT,002.6,+0.7,*44
$IIGLL,4612.827,N,00610.244,E,080249,A,A*5E
$IIHDG,030,,,01,E*10
$IIMTW,+17.5,C*3B
$IIRMC,080249,A,4612.827,N,00610.244,E,00.0,000,220714,01,E,A*01
$IIVLW,53412,N,000.0,N*52
$IIDPT,002.6,+0.7,*44
$IIGLL,4612.827,N,00610.244,E,080250,A,A*56
$IIHDG,030,,,01,E*10
$IIMTW,+17.5,C*3B
$IIRMC,080250,A,4612.827,N,00610.244,E,00.0,000,220714,01,E,A*09
$IIVLW,53412,N,000.0,N*52
$IIDPT,002.6,+0.7,*44
$IIGLL,4612.827,N,00610.244,E,080250,A,A*56
$IIHDG,030,,,01,E*10
$IIMTW,+17.5,C*3B
$IIRMC,080250,A,4612.827,N,00610.244,E,00.0,000,220714,01,E,A*09
$IIVLW,53412,N,000.0,N*52
$IIDPT,002.6,+0.7,*44
$IIGLL,4612.827,N,00610.244,E,080252,A,A*54
$IIHDG,030,,,01,E*10
$IIMTW,+17.5,C*3B
$IIRMC,080252,A,4612.827,N,00610.244,E,00.0,000,220714,01,E,A*0B
$IIVLW,53412,N,000.0,N*52
$IIDPT,002.6,+0.7,*44
$IIGLL,4612.827,N,00610.244,E,080253,A,A*55
$IIHDG,030,,,01,E*10
$IIMTW,+17.5,C*3B
$IIRMC,080253,A,4612.827,N,00610.244,E,00.0,000,220714,01,E,A*0A
$IIVLW,53412,N,000.0,N*52
$IIDPT,002.6,+0.7,*44
$IIGLL,4612.827,N,00610.244,E,080254,A,A*52
$IIHDG,030,,,01,E*10
$IIMTW,+17.5,C*3B
$IIRMC,080254,A,4612.827,N,00610.244,E,00.0,000,220714,01,E,A*0D
$IIVLW,53412,N,000.0,N*52
$IIDPT,002.6,+0.7,*44
$IIGLL,4612.827,N,00610.244,E,080255,A,A*53
$IIHDG,030,,,01,E*10
$IIMTW,+17.5,C*3B
$IIRMC,080255,A,4612.827,N,00610.244,E,00.0,000,220714,01,E,A*0C
$IIVLW,53412,N,000.0,N*52
$IIDPT,002.6,+0.7,*44
$IIGLL,4612.827,N,00610.244,E,080256,A,A*50
$IIHDG,030,,,01,E*10
$IIMTW,+17.5,C*3B
$IIRMC,080256,A,4612.827,N,00610.244,E,00.0,000,220714,01,E,A*0F
$IIVLW,53412,N,000.0,N*52
$IIDPT,002.6,+0.7,*44
$IIGLL,4612.827,N,00610.244,E,080257,A,A*51
$IIHDG,030,,,01,E*10
$IIMTW,+17.5,C*3B
$IIRMC,080257,A,4612.827,N,00610.244,E,00.0,000,220714,01,E,A*0E
$IIVLW,53412,N,000.0,N*52
$IIDPT,002.6,+0.7,*44
$IIGLL,4612.827,N,00610.244,E,080258,A,A*5E
$IIHDG,030,,,01,E*10
$IIMTW,+17.5,C*3B
$IIRMC,080258,A,4612.827,N,00610.244,E,00.0,000,220714,01,E,A*01
$IIVLW,53412,N,000.0,N*52
$IIDPT,002.6,+0.7,*44
$IIGLL,4612.827,N,00610.244,E,080259,A,A*5F
$IIHDG,030,,,01,E*10
$IIMTW,+17.5,C*3B
$IIRMC,080259,A,4612.827,N,00610.244,E,00.0,000,220714,01,E,A*00
$IIVLW,53412,N,000.0,N*52
$IIDPT,002.6,+0.7,*44
$IIGLL,4612.827,N,00610.244,E,080200,A,A*53
$IIHDG,030,,,01,E*10
$IIMTW,+17.5,C*3B
$IIRMC,080200,A,4612.827,N,00610.244,E,00.0,000,220714,01,E,A*0C
$IIVLW,53412,N,000.0,N*52
$IIDPT,002.6,+0.7,*44
$IIGLL,4612.827,N,00610.244,E,080201,A,A*52
$IIHDG,030,,,01,E*10
$IIMTW,+17.5,C*3B
$IIRMC,080201,A,4612.827,N,00610.244,E,00.0,000,220714,01,E,A*0D
$IIVLW,53412,N,000.0,N*52
$IIDPT,002.6,+0.7,*44
$IIGLL,4612.827,N,00610.244,E,080202,A,A*51
$IIHDG,030,,,01,E*10
$IIMTW,+17.5,C*3B
$IIRMC,080202,A,4612.827,N,00610.244,E,00.0,000,220714,01,E,A*0E
$IIVLW,53412,N,000.0,N*52
$IIDPT,002.6,+0.7,*44
$IIGLL,4612.827,N,00610.244,E,080203,A,A*50
$IIHDG,030,,,01,E*10
$IIMTW,+17.5,C*3B
$IIRMC,080203,A,4612.827,N,00610.244,E,00.0,000,220714,01,E,A*0F
$IIVLW,53412,N,000.0,N*52
$IIDPT,002.6,+0.7,*44
$IIGLL,4612.827,N,00610.244,E,080204,A,A*57
$IIHDG,030,,,01,E*10
$IIMTW,+17.5,C*3B
$IIRMC,080204,A,4612.827,N,00610.244,E,00.0,000,220714,01,E,A*08
$IIVLW,53412,N,000.0,N*52
$IIDPT,002.6,+0.7,*44
$IIGLL,4612.827,N,00610.244,E,080206,A,A*55
$IIHDG,030,,,01,E*10
$IIMTW,+17.5,C*3B
$IIRMC,080206,A,4612.827,N,00610.244,E,00.0,000,220714,01,E,A*0A
$IIVLW,53412,N,000.0,N*52
$IIDPT,002.6,+0.7,*44
$IIGLL,4612.827,N,00610.244,E,080207,A,A*54
$IIHDG,030,,,01,E*10
$IIMTW,+17.5,C*3B
$IIRMC,080207,A,4612.827,N,00610.244,E,00.0,000,220714,01,E,A*0B
$IIVLW,53412,N,000.0,N*52
$IIDPT,002.6,+0.7,*44
$IIGLL,4612.827,N,00610.244,E,080207,A,A*54
$IIHDG,030,,,01,E*10
$IIMTW,+17.5,C*3B
$IIRMC,080207,A,4612.827,N,00610.244,E,00.0,000,220714,01,E,A*0B
$IIVLW,53412,N,000.0,N*52
$IIDPT,002.6,+0.7,*44
$IIGLL,4612.827,N,00610.244,E,080209,A,A*5A
$IIHDG,029,,,01,E*18
$IIMTW,+17.5,C*3B
$IIRMC,080209,A,4612.827,N,00610.244,E,00.0,000,220714,01,E,A*05
$IIVLW,53412,N,000.0,N*52
$IIDPT,002.6,+0.7,*44
$IIGLL,4612.827,N,00610.244,E,080210,A,A*52
$IIHDG,030,,,01,E*10
$IIMTW,+17.5,C*3B
$IIRMC,080210,A,4612.827,N,00610.244,E,00.0,000,220714,01,E,A*0D
$IIVLW,53412,N,000.0,N*52
$IIDPT,002.6,+0.7,*44
$IIGLL,4612.827,N,00610.244,E,080211,A,A*53
$IIHDG,030,,,01,E*10
$IIMTW,+17.5,C*3B
$IIRMC,080211,A,4612.827,N,00610.244,E,00.0,000,220714,01,E,A*0C
$IIVLW,53412,N,000.0,N*52
$IIDPT,002.6,+0.7,*44
$IIGLL,4612.827,N,00610.244,E,080212,A,A*50
$IIHDG,030,,,01,E*10
