$IIVHW,,,280,M,02.7,N,,*6B
$IIDPT,010.9,-1.0,*48
$IIHDG,280,,,,*5D
$IIMTW,+11.5,C*3D
$IIVHW,,,281,M,02.7,N,,*6A
$IIDPT,010.8,-1.0,*49
$IIHDG,281,,,,*5C
$IIMTW,+11.5,C*3D
$IIVHW,,,282,M,02.7,N,,*69
$IIDPT,010.8,-1.0,*49
$IIHDG,282,,,,*5F
$IIMTW,+11.5,C*3D
$IIVHW,,,282,M,02.7,N,,*69
$IIDPT,010.8,-1.0,*49
$IIHDG,282,,,,*5F
$IIMTW,+11.5,C*3D
$IIVHW,,,282,M,02.6,N,,*68
$IIDPT,010.8,-1.0,*49
$IIHDG,282,,,,*5F
$IIMTW,+11.5,C*3D
$IIVHW,,,282,M,02.6,N,,*68
$IIDPT,010.8,-1.0,*49
$IIHDG,282,,,,*5F
$IIMTW,+11.5,C*3D
$IIVHW,,,282,M,02.6,N,,*68
$IIDPT,010.8,-1.0,*49
$IIHDG,282,,,,*5F
$IIMTW,+11.5,C*3D
$IIVHW,,,282,M,02.6,N,,*68
$IIDPT,010.8,-1.0,*49
$IIHDG,282,,,,*5F
$IIMTW,+11.5,C*3D
$IIVHW,,,282,M,02.5,N,,*6B
$IIDPT,010.8,-1.0,*49
$IIHDG,282,,,,*5F
$IIMTW,+11.5,C*3D
$IIVHW,,,283,M,02.5,N,,*6A
$IIDPT,010.8,-1.0,*49
$IIHDG,283,,,,*5E
$IIMTW,+11.5,C*3D
$IIVHW,,,283,M,02.5,N,,*6A
$IIDPT,010.8,-1.0,*49
$IIHDG,283,,,,*5E
$IIMTW,+11.5,C*3D
$IIVHW,,,284,M,02.4,N,,*6C
$IIDPT,010.8,-1.0,*49
$IIHDG,284,,,,*59
$IIMTW,+11.5,C*3D
$IIVHW,,,284,M,02.4,N,,*6C
$IIDPT,010.8,-1.0,*49
$IIHDG,284,,,,*59
$IIMTW,+11.5,C*3D
$IIVHW,,,284,M,02.4,N,,*6C
$IIDPT,010.8,-1.0,*49
$IIHDG,284,,,,*59
$IIMTW,+11.5,C*3D
$IIVHW,,,284,M,02.4,N,,*6C
$IIDPT,010.8,-1.0,*49
$IIHDG,284,,,,*59
$IIMTW,+11.5,C*3D
$IIVHW,,,285,M,02.4,N,,*6D
$IIDPT,010.9,-1.0,*48
$IIHDG,285,,,,*58
$IIMTW,+11.5,C*3D
$IIVHW,,,285,M,02.3,N,,*6A
$IIDPT,010.9,-1.0,*48
$IIHDG,285,,,,*58
$IIMTW,+11.5,C*3D
$IIVHW,,,286,M,02.3,N,,*69
$IIDPT,010.9,-1.0,*48
$IIHDG,286,,,,*5B
$IIMTW,+11.5,C*3D
$IIVHW,,,285,M,02.3,N,,*6A
$IIDPT,010.9,-1.0,*48
$IIHDG,285,,,,*58
$IIMTW,+11.5,C*3D
$IIVHW,,,287,M,02.3,N,,*68
$IIDPT,010.9,-1.0,*48
$IIHDG,287,,,,*5A
$IIMTW,+11.5,C*3D
$IIVHW,,,287,M,02.2,N,,*69
$IIDPT,010.9,-1.0,*48
$IIHDG,287,,,,*5A
$IIMTW,+11.5,C*3D
$IIVHW,,,287,M,02.2,N,,*69
$IIDPT,010.9,-1.0,*48
$IIHDG,287,,,,*5A
$IIMTW,+11.5,C*3D
$IIVHW,,,288,M,02.2,N,,*66
$IIDPT,010.8,-1.0,*49
$IIHDG,288,,,,*55
$IIMTW,+11.5,C*3D
$IIVHW,,,288,M,02.2,N,,*66
$IIDPT,010.8,-1.0,*49
$IIHDG,288,,,,*55
$IIMTW,+11.5,C*3D
$IIVHW,,,290,M,02.2,N,,*6F
$IIDPT,010.8,-1.0,*49
$IIHDG,290,,,,*5C
$IIMTW,+11.5,C*3D
$IIVHW,,,290,M,02.2,N,,*6F
$IIDPT,010.8,-1.0,*49
$IIHDG,290,,,,*5C
$IIMTW,+11.5,C*3D
$IIVHW,,,291,M,02.1,N,,*6D
$IIDPT,010.9,-1.0,*48
$IIHDG,291,,,,*5D
$IIMTW,+11.5,C*3D
$IIVHW,,,290,M,02.1,N,,*6C
$IIDPT,010.9,-1.0,*48
$IIHDG,290,,,,*5C
$IIMTW,+11.5,C*3D
$IIVHW,,,289,M,02.1,N,,*64
$IIDPT,010.9,-1.0,*48
$IIHDG,289,,,,*54
$IIMTW,+11.5,C*3D
$IIVHW,,,289,M,02.0,N,,*65
$IIDPT,010.9,-1.0,*48
$IIHDG,289,,,,*54
$IIMTW,+11.5,C*3D
$IIVHW,,,288,M,02.0,N,,*64
$IIDPT,010.9,-1.0,*48
$IIHDG,288,,,,*55
$IIMTW,+11.5,C*3D
$IIVHW,,,287,M,02.0,N,,*6B
$IIDPT,010.9,-1.0,*48
$IIHDG,287,,,,*5A
$IIMTW,+11.5,C*3D
$IIVHW,,,286,M,02.0,N,,*6A
$IIDPT,010.9,-1.0,*48
$IIHDG,286,,,,*5B
$IIMTW,+11.5,C*3D
$IIVHW,,,285,M,01.9,N,,*63
$IIDPT,010.8,-1.0,*49
$IIHDG,285,,,,*58
$IIMTW,+11.5,C*3D
$IIVHW,,,284,M,01.9,N,,*62
$IIDPT,010.8,-1.0,*49
$IIHDG,284,,,,*59
$IIMTW,+11.5,C*3D
$IIVHW,,,284,M,01.9,N,,*62
$IIDPT,010.8,-1.0,*49
$IIHDG,284,,,,*59
$IIMTW,+11.5,C*3D
$IIVHW,,,285,M,01.9,N,,*63
$IIDPT,010.7,-1.0,*46
$IIHDG,285,,,,*58
$IIMTW,+11.5,C*3D
$IIVHW,,,287,M,01.9,N,,*61
$IIDPT,010.7,-1.0,*46
$IIHDG,287,,,,*5A
$IIMTW,+11.5,C*3D
$IIVHW,,,288,M,01.9,N,,*6E
$IIDPT,010.7,-1.0,*46
$IIHDG,288,,,,*55
$IIMTW,+11.5,C*3D
$IIVHW,,,287,M,01.8,N,,*60
$IIDPT,010.7,-1.0,*46
$IIHDG,287,,,,*5A
$IIMTW,+11.5,C*3D
$IIVHW,,,286,M,01.8,N,,*61
$IIDPT,010.7,-1.0,*46
$IIHDG,286,,,,*5B
$IIMTW,+11.5,C*3D
$IIVHW,,,286,M,01.8,N,,*61
$IIDPT,010.7,-1.0,*46
$IIHDG,286,,,,*5B
$IIMTW,+11.5,C*3D
$IIVHW,,,286,M,01.8,N,,*61
$IIDPT,010.7,-1.0,*46
$IIHDG,286,,,,*5B
$IIMTW,+11.5,C*3D
$IIVHW,,,286,M,01.8,N,,*61
$IIDPT,010.7,-1.0,*46
$IIHDG,286,,,,*5B
$IIMTW,+11.5,C*3D
$IIVHW,,,286,M,01.7,N,,*6E
$IIDPT,010.8,-1.0,*49
$IIHDG,286,,,,*5B
$IIMTW,+11.5,C*3D
$IIVHW,,,286,M,01.7,N,,*6E
$IIDPT,010.8,-1.0,*49
$IIHDG,286,,,,*5B
$IIMTW,+11.5,C*3D
$IIVHW,,,287,M,01.7,N,,*6F
$IIDPT,010.8,-1.0,*49
$IIHDG,287,,,,*5A
$IIMTW,+11.5,C*3D
$IIVHW,,,287,M,01.7,N,,*6F
$IIDPT,010.6,-1.0,*47
$IIHDG,287,,,,*5A
$IIMTW,+11.5,C*3D
$IIVHW,,,287,M,01.7,N,,*6F
$IIDPT,010.6,-1.0,*47
$IIHDG,287,,,,*5A
$IIMTW,+11.5,C*3D
$IIVHW,,,287,M,01.7,N,,*6F
$IIDPT,010.6,-1.0,*47
$IIHDG,287,,,,*5A
$IIMTW,+11.5,C*3D
$IIVHW,,,288,M,01.6,N,,*61
$IIDPT,010.6,-1.0,*47
$IIHDG,288,,,,*55
$IIMTW,+11.5,C*3D
$IIVHW,,,288,M,01.6,N,,*61
$IIDPT,010.6,-1.0,*47
$IIHDG,288,,,,*55
$IIMTW,+11.5,C*3D
$IIRMB,A,0.00,L,,VIDY,,,,,002.73,284,01.6,V,A*64
$IIRMC,164320,A,4630.019,N,00640.382,E,02.0,301,070508,,,A*43
$IIVHW,,,287,M,01.6,N,,*6E
$IIDPT,010.6,-1.0,*47
$IIGLL,4630.019,N,00640.382,E,164320,A,A*50
$IIHDG,287,,,,*5A
$IIMTW,+11.5,C*3D
$IIRMC,164320,A,4630.019,N,00640.382,E,02.0,301,070508,,,A*43
$IIVHW,,,287,M,01.6,N,,*6E
$IIDPT,010.6,-1.0,*47
$IIGLL,4630.019,N,00640.382,E,164320,A,A*50
$IIHDG,287,,,,*5A
$IIMTW,+11.5,C*3D
$IIRMB,A,0.00,L,,VIDY,,,,,002.73,284,01.8,V,A*6A
$IIRMC,164322,A,4630.022,N,00640.381,E,01.6,283,070508,,,A*44
$IIVHW,,,287,M,01.6,N,,*6E
$IIDPT,010.6,-1.0,*47
$IIGLL,4630.022,N,00640.381,E,164322,A,A*59
$IIHDG,287,,,,*5A
$IIMTW,+11.5,C*3D
$IIRMC,164322,A,4630.022,N,00640.381,E,01.6,283,070508,,,A*44
$IIVHW,,,287,M,01.6,N,,*6E
$IIDPT,010.6,-1.0,*47
$IIGLL,4630.022,N,00640.381,E,164322,A,A*59
$IIHDG,287,,,,*5A
$IIMTW,+11.5,C*3D
$IIRMB,A,0.01,L,,VIDY,,,,,002.73,284,01.8,V,A*6B
$IIRMC,164324,A,4630.022,N,00640.379,E,01.7,286,070508,,,A*41
$IIVHW,,,286,M,01.6,N,,*6F
$IIDPT,010.6,-1.0,*47
$IIGLL,4630.022,N,00640.379,E,164324,A,A*58
$IIHDG,286,,,,*5B
$IIMTW,+11.5,C*3D
$IIRMC,164324,A,4630.022,N,00640.379,E,01.7,286,070508,,,A*41
$IIVHW,,,286,M,01.5,N,,*6C
$IIDPT,010.6,-1.0,*47
$IIGLL,4630.022,N,00640.379,E,164324,A,A*58
$IIHDG,286,,,,*5B
$IIMTW,+11.5,C*3D
$IIRMB,A,0.01,L,,VIDY,,,,,002.73,284,01.7,V,A*64
$IIRMC,164326,A,4630.023,N,00640.378,E,01.7,286,070508,,,A*43
$IIVHW,,,286,M,01.5,N,,*6C
$IIDPT,010.8,-1.0,*49
$IIGLL,4630.023,N,00640.378,E,164326,A,A*5A
$IIHDG,286,,,,*5B
$IIMTW,+11.5,C*3D
$IIRMC,164326,A,4630.023,N,00640.378,E,01.7,286,070508,,,A*43
$IIVHW,,,286,M,01.5,N,,*6C
$IIDPT,010.8,-1.0,*49
$IIGLL,4630.023,N,00640.378,E,164326,A,A*5A
$IIHDG,286,,,,*5B
$IIMTW,+11.5,C*3D
$IIRMB,A,0.01,L,,VIDY,,,,,002.72,284,01.6,V,A*64
$IIRMC,164328,A,4630.024,N,00640.376,E,01.7,286,070508,,,A*44
$IIVHW,,,285,M,01.5,N,,*6F
$IIDPT,010.6,-1.0,*47
$IIGLL,4630.024,N,00640.376,E,164328,A,A*5D
$IIHDG,285,,,,*58
$IIMTW,+11.5,C*3D
$IIRMC,164328,A,4630.024,N,00640.376,E,01.7,286,070508,,,A*44
$IIVHW,,,285,M,01.4,N,,*6E
$IIDPT,010.5,-1.0,*44
$IIGLL,4630.024,N,00640.376,E,164328,A,A*5D
$IIHDG,285,,,,*58
$IIMTW,+11.5,C*3D
$IIRMB,A,0.01,L,,VIDY,,,,,002.72,284,01.7,V,A*65
$IIRMC,164330,A,4630.030,N,00640.379,E,01.7,274,070508,,,A*4A
$IIVHW,,,285,M,01.4,N,,*6E
$IIDPT,010.5,-1.0,*44
$IIGLL,4630.030,N,00640.379,E,164330,A,A*5E
$IIHDG,285,,,,*58
$IIMTW,+11.5,C*3D
$IIRMC,164330,A,4630.030,N,00640.379,E,01.7,274,070508,,,A*4A
$IIVHW,,,285,M,01.4,N,,*6E
$IIDPT,010.4,-1.0,*45
$IIGLL,4630.030,N,00640.379,E,164330,A,A*5E
$IIHDG,285,,,,*58
$IIMTW,+11.5,C*3D
$IIRMB,A,0.02,L,,VIDY,,,,,002.72,284,01.6,V,A*67
$IIRMC,164332,A,4630.033,N,00640.379,E,01.6,286,070508,,,A*47
$IIVHW,,,285,M,01.2,N,,*68
$IIDPT,010.4,-1.0,*45
$IIGLL,4630.033,N,00640.379,E,164332,A,A*5F
$IIHDG,285,,,,*58
$IIMTW,+11.5,C*3D
$IIRMC,164332,A,4630.033,N,00640.379,E,01.6,286,070508,,,A*47
$IIVHW,,,286,M,01.2,N,,*6B
$IIDPT,010.4,-1.0,*45
$IIGLL,4630.033,N,00640.379,E,164332,A,A*5F
$IIHDG,286,,,,*5B
$IIMTW,+11.5,C*3D
$IIRMB,A,0.02,L,,VIDY,,,,,002.72,283,01.6,V,A*60
$IIRMC,164334,A,4630.036,N,00640.379,E,01.7,292,070508,,,A*40
$IIVHW,,,286,M,01.2,N,,*6B
$IIDPT,010.6,-1.0,*47
$IIGLL,4630.036,N,00640.379,E,164334,A,A*5C
$IIHDG,286,,,,*5B
$IIMTW,+11.5,C*3D
$IIRMC,164334,A,4630.036,N,00640.379,E,01.7,292,070508,,,A*40
$IIVHW,,,285,M,01.2,N,,*68
$IIDPT,010.7,-1.0,*46
$IIGLL,4630.036,N,00640.379,E,164334,A,A*5C
$IIHDG,285,,,,*58
$IIMTW,+11.5,C*3D
$IIRMB,A,0.02,L,,VIDY,,,,,002.72,284,01.6,V,A*67
$IIRMC,164336,A,4630.036,N,00640.378,E,01.6,290,070508,,,A*40
$IIVHW,,,285,M,01.2,N,,*68
$IIDPT,010.7,-1.0,*46
$IIGLL,4630.036,N,00640.378,E,164336,A,A*5F
$IIHDG,285,,,,*58
$IIMTW,+11.5,C*3D
$IIRMC,164336,A,4630.036,N,00640.378,E,01.6,290,070508,,,A*40
$IIVHW,,,286,M,01.2,N,,*6B
$IIDPT,010.9,-1.0,*48
$IIGLL,4630.036,N,00640.378,E,164336,A,A*5F
$IIHDG,286,,,,*5B
$IIMTW,+11.5,C*3D
$IIRMB,A,0.02,L,,VIDY,,,,,002.72,283,01.6,V,A*60
$IIRMC,164338,A,4630.037,N,00640.378,E,01.6,290,070508,,,A*4F
$IIVHW,,,286,M,01.2,N,,*6B
$IIDPT,010.9,-1.0,*48
$IIGLL,4630.037,N,00640.378,E,164338,A,A*50
$IIHDG,286,,,,*5B
$IIMTW,+11.5,C*3D
$IIRMC,164338,A,4630.037,N,00640.378,E,01.6,290,070508,,,A*4F
$IIVHW,,,287,M,01.1,N,,*69
$IIDPT,010.9,-1.0,*48
$IIGLL,4630.037,N,00640.378,E,164338,A,A*50
$IIHDG,287,,,,*5A
$IIMTW,+11.5,C*3D
$IIRMB,A,0.02,L,,VIDY,,,,,002.72,283,01.6,V,A*60
$IIRMC,164340,A,4630.037,N,00640.377,E,01.6,290,070508,,,A*4F
$IIVHW,,,287,M,01.0,N,,*68
$IIDPT,010.9,-1.0,*48
$IIGLL,4630.037,N,00640.377,E,164340,A,A*50
$IIHDG,287,,,,*5A
$IIMTW,+11.5,C*3D
$IIRMC,164340,A,4630.037,N,00640.377,E,01.6,290,070508,,,A*4F
$IIVHW,,,286,M,01.0,N,,*69
$IIDPT,010.9,-1.0,*48
$IIGLL,4630.037,N,00640.377,E,164340,A,A*50
$IIHDG,286,,,,*5B
$IIMTW,+12.0,C*3B
$IIRMB,A,0.02,L,,VIDY,,,,,002.72,283,01.5,V,A*63
$IIRMC,164342,A,4630.038,N,00640.376,E,01.5,289,070508,,,A*48
$IIVHW,,,286,M,00.8,N,,*60
$IIDPT,010.9,-1.0,*48
$IIGLL,4630.038,N,00640.376,E,164342,A,A*5C
$IIHDG,286,,,,*5B
$IIMTW,+12.0,C*3B
$IIRMC,164342,A,4630.038,N,00640.376,E,01.5,289,070508,,,A*48
$IIVHW,,,286,M,00.8,N,,*60
$IIDPT,010.9,-1.0,*48
$IIGLL,4630.038,N,00640.376,E,164342,A,A*5C
$IIHDG,286,,,,*5B
$IIMTW,+12.0,C*3B
$IIRMB,A,0.02,L,,VIDY,,,,,002.72,283,01.5,V,A*63
$IIRMC,164344,A,4630.038,N,00640.375,E,01.5,290,070508,,,A*45
$IIVHW,,,287,M,00.7,N,,*6E
$IIDPT,010.9,-1.0,*48
$IIGLL,4630.038,N,00640.375,E,164344,A,A*59
$IIHDG,287,,,,*5A
$IIMTW,+12.0,C*3B
$IIRMB,A,0.02,L,,VIDY,,,,,002.72,283,01.5,V,A*63
$IIRMC,164346,A,4630.038,N,00640.374,E,01.5,290,070508,,,A*46
$IIVHW,,,286,M,00.7,N,,*6F
$IIDPT,010.9,-1.0,*48
$IIGLL,4630.038,N,00640.374,E,164346,A,A*5A
$IIHDG,286,,,,*5B
$IIMTW,+12.0,C*3B
$IIRMC,164346,A,4630.038,N,00640.374,E,01.5,290,070508,,,A*46
$IIVHW,,,286,M,00.6,N,,*6E
$IIDPT,010.9,-1.0,*48
$IIGLL,4630.038,N,00640.374,E,164346,A,A*5A
$IIHDG,286,,,,*5B
$IIMTW,+12.0,C*3B
$IIRMB,A,0.02,L,,VIDY,,,,,002.72,283,01.5,V,A*63
$IIRMC,164348,A,4630.039,N,00640.373,E,01.5,289,070508,,,A*46
$IIVHW,,,285,M,00.6,N,,*6D
$IIDPT,010.9,-1.0,*48
$IIGLL,4630.039,N,00640.373,E,164348,A,A*52
$IIHDG,285,,,,*58
$IIMTW,+12.0,C*3B
$IIRMC,164348,A,4630.039,N,00640.373,E,01.5,289,070508,,,A*46
$IIVHW,,,285,M,00.7,N,,*6C
$IIDPT,010.8,-1.0,*49
$IIGLL,4630.039,N,00640.373,E,164348,A,A*52
$IIHDG,285,,,,*58
$IIMTW,+12.0,C*3B
$IIRMB,A,0.02,L,,VIDY,,,,,002.72,283,01.5,V,A*63
$IIRMC,164350,A,4630.039,N,00640.372,E,01.5,291,070508,,,A*47
$IIVHW,,,285,M,00.6,N,,*6D
$IIDPT,010.9,-1.0,*48
$IIGLL,4630.039,N,00640.372,E,164350,A,A*5A
$IIHDG,285,,,,*58
$IIMTW,+12.0,C*3B
$IIRMC,164350,A,4630.039,N,00640.372,E,01.5,291,070508,,,A*47
$IIVHW,,,286,M,00.6,N,,*6E
$IIDPT,010.8,-1.0,*49
$IIGLL,4630.039,N,00640.372,E,164350,A,A*5A
$IIHDG,286,,,,*5B
$IIMTW,+12.0,C*3B
$IIRMB,A,0.02,L,,VIDY,,,,,002.72,283,01.4,V,A*62
$IIRMC,164352,A,4630.039,N,00640.371,E,01.5,290,070508,,,A*47
$IIVHW,,,285,M,00.6,N,,*6D
$IIDPT,010.8,-1.0,*49
$IIGLL,4630.039,N,00640.371,E,164352,A,A*5B
$IIHDG,285,,,,*58
$IIMTW,+12.0,C*3B
$IIRMC,164352,A,4630.039,N,00640.371,E,01.5,290,070508,,,A*47
$IIVHW,,,285,M,00.6,N,,*6D
$IIDPT,010.7,-1.0,*46
$IIGLL,4630.039,N,00640.371,E,164352,A,A*5B
$IIHDG,285,,,,*58
$IIMTW,+12.0,C*3B
$IIRMB,A,0.02,L,,VIDY,,,,,002.72,283,01.5,V,A*63
$IIRMC,164354,A,4630.040,N,00640.370,E,01.4,292,070508,,,A*4D
$IIVHW,,,286,M,00.5,N,,*6D
$IIDPT,010.7,-1.0,*46
$IIGLL,4630.040,N,00640.370,E,164354,A,A*52
$IIHDG,286,,,,*5B
$IIMTW,+12.0,C*3B
$IIRMC,164354,A,4630.040,N,00640.370,E,01.4,292,070508,,,A*4D
$IIVHW,,,286,M,00.6,N,,*6E
$IIDPT,010.6,-1.0,*47
$IIGLL,4630.040,N,00640.370,E,164354,A,A*52
$IIHDG,286,,,,*5B
$IIMTW,+12.0,C*3B
$IIRMB,A,0.02,L,,VIDY,,,,,002.72,283,01.4,V,A*62
$IIRMC,164356,A,4630.040,N,00640.369,E,01.5,290,070508,,,A*44
$IIVHW,,,287,M,00.7,N,,*6E
$IIDPT,010.6,-1.0,*47
$IIGLL,4630.040,N,00640.369,E,164356,A,A*58
$IIHDG,287,,,,*5A
$IIMTW,+12.0,C*3B
$IIRMC,164358,A,4630.040,N,00640.368,E,01.5,293,070508,,,A*48
$IIVHW,,,288,M,00.6,N,,*60
$IIDPT,010.6,-1.0,*47
$IIGLL,4630.040,N,00640.368,E,164358,A,A*57
$IIHDG,288,,,,*55
$IIMTW,+12.0,C*3B
$IIRMB,A,0.02,L,,VIDY,,,,,002.71,283,01.4,V,A*61
$IIRMC,164358,A,4630.040,N,00640.368,E,01.5,293,070508,,,A*48
$IIVHW,,,288,M,00.7,N,,*61
$IIDPT,010.6,-1.0,*47
$IIGLL,4630.040,N,00640.368,E,164358,A,A*57
$IIHDG,288,,,,*55
$IIMTW,+12.0,C*3B
$IIRMC,164400,A,4630.041,N,00640.367,E,01.4,294,070508,,,A*4A
$IIVHW,,,290,M,00.6,N,,*69
$IIDPT,010.6,-1.0,*47
$IIGLL,4630.041,N,00640.367,E,164400,A,A*53
$IIHDG,290,,,,*5C
$IIMTW,+12.0,C*3B
$IIRMB,A,0.02,L,,VIDY,,,,,002.71,283,01.5,V,A*60
$IIRMC,164400,A,4630.041,N,00640.367,E,01.4,294,070508,,,A*4A
$IIVHW,,,290,M,00.6,N,,*69
$IIDPT,010.8,-1.0,*49
$IIGLL,4630.041,N,00640.367,E,164400,A,A*53
$IIHDG,290,,,,*5C
$IIMTW,+12.0,C*3B
$IIRMC,164402,A,4630.041,N,00640.366,E,01.4,295,070508,,,A*48
$IIVHW,,,290,M,00.5,N,,*6A
$IIDPT,010.8,-1.0,*49
$IIGLL,4630.041,N,00640.366,E,164402,A,A*50
$IIHDG,290,,,,*5C
$IIMTW,+12.0,C*3B
$IIRMB,A,0.02,L,,VIDY,,,,,002.71,283,01.4,V,A*61
$IIRMC,164402,A,4630.041,N,00640.366,E,01.4,295,070508,,,A*48
$IIVHW,,,291,M,00.6,N,,*68
$IIDPT,010.8,-1.0,*49
$IIGLL,4630.041,N,00640.366,E,164402,A,A*50
$IIHDG,291,,,,*5D
$IIMTW,+12.5,C*3E
$IIRMC,164404,A,4630.041,N,00640.365,E,01.4,296,070508,,,A*4E
$IIVHW,,,291,M,00.6,N,,*68
$IIDPT,010.8,-1.0,*49
$IIGLL,4630.041,N,00640.365,E,164404,A,A*55
$IIHDG,291,,,,*5D
$IIMTW,+12.0,C*3B
$IIRMB,A,0.02,L,,VIDY,,,,,002.71,283,01.4,V,A*61
$IIRMC,164404,A,4630.041,N,00640.365,E,01.4,296,070508,,,A*4E
$IIVHW,,,291,M,00.6,N,,*68
$IIDPT,010.8,-1.0,*49
$IIGLL,4630.041,N,00640.365,E,164404,A,A*55
$IIHDG,291,,,,*5D
$IIMTW,+12.0,C*3B
$IIRMC,164406,A,4630.042,N,00640.364,E,01.4,296,070508,,,A*4E
$IIVHW,,,293,M,00.5,N,,*69
$IIDPT,010.8,-1.0,*49
$IIGLL,4630.042,N,00640.364,E,164406,A,A*55
$IIHDG,293,,,,*5F
$IIMTW,+12.0,C*3B
$IIRMB,A,0.02,L,,VIDY,,,,,002.71,283,01.4,V,A*61
$IIRMC,164406,A,4630.042,N,00640.364,E,01.4,296,070508,,,A*4E
$IIVHW,,,292,M,00.6,N,,*6B
$IIDPT,010.6,-1.0,*47
$IIGLL,4630.042,N,00640.364,E,164406,A,A*55
$IIHDG,292,,,,*5E
$IIMTW,+12.0,C*3B
$IIRMC,164408,A,4630.042,N,00640.363,E,01.4,295,070508,,,A*44
$IIVHW,,,292,M,00.6,N,,*6B
$IIDPT,010.6,-1.0,*47
$IIGLL,4630.042,N,00640.363,E,164408,A,A*5C
$IIHDG,292,,,,*5E
$IIMTW,+12.0,C*3B
$IIRMB,A,0.02,L,,VIDY,,,,,002.71,283,01.3,V,A*66
$IIRMC,164408,A,4630.042,N,00640.363,E,01.4,295,070508,,,A*44
$IIVHW,,,292,M,00.5,N,,*68
$IIDPT,010.6,-1.0,*47
$IIGLL,4630.042,N,00640.363,E,164408,A,A*5C
$IIHDG,292,,,,*5E
$IIMTW,+12.0,C*3B
$IIRMC,164410,A,4630.042,N,00640.362,E,01.4,295,070508,,,A*4C
$IIVHW,,,291,M,00.5,N,,*6B
$IIDPT,010.6,-1.0,*47
$IIGLL,4630.042,N,00640.362,E,164410,A,A*54
$IIHDG,291,,,,*5D
$IIMTW,+11.5,C*3D
$IIRMB,A,0.02,L,,VIDY,,,,,002.71,283,01.4,V,A*61
$IIRMC,164410,A,4630.042,N,00640.362,E,01.4,295,070508,,,A*4C
$IIVHW,,,291,M,00.5,N,,*6B
$IIDPT,010.6,-1.0,*47
$IIGLL,4630.042,N,00640.362,E,164410,A,A*54
$IIHDG,291,,,,*5D
$IIMTW,+11.5,C*3D
$IIRMC,164412,A,4630.043,N,00640.361,E,01.4,296,070508,,,A*4F
$IIVHW,,,291,M,00.6,N,,*68
$IIDPT,010.6,-1.0,*47
$IIGLL,4630.043,N,00640.361,E,164412,A,A*54
$IIHDG,291,,,,*5D
$IIMTW,+11.5,C*3D
$IIRMB,A,0.02,L,,VIDY,,,,,002.71,283,01.4,V,A*61
$IIRMC,164412,A,4630.043,N,00640.361,E,01.4,296,070508,,,A*4F
$IIVHW,,,291,M,00.6,N,,*68
$IIDPT,010.6,-1.0,*47
$IIGLL,4630.043,N,00640.361,E,164412,A,A*54
$IIHDG,291,,,,*5D
$IIMTW,+11.5,C*3D
$IIRMC,164414,A,4630.043,N,00640.360,E,01.4,295,070508,,,A*4B
$IIVHW,,,291,M,00.5,N,,*6B
$IIDPT,010.8,-1.0,*49
$IIGLL,4630.043,N,00640.360,E,164414,A,A*53
$IIHDG,291,,,,*5D
$IIMTW,+11.5,C*3D
$IIRMB,A,0.02,L,,VIDY,,,,,002.71,283,01.3,V,A*66
$IIRMC,164414,A,4630.043,N,00640.360,E,01.4,295,070508,,,A*4B
$IIVHW,,,291,M,00.5,N,,*6B
$IIDPT,010.8,-1.0,*49
$IIGLL,4630.043,N,00640.360,E,164414,A,A*53
$IIHDG,291,,,,*5D
$IIMTW,+11.5,C*3D
$IIRMC,164416,A,4630.044,N,00640.359,E,01.3,295,070508,,,A*43
$IIVHW,,,290,M,00.5,N,,*6A
$IIDPT,010.8,-1.0,*49
$IIGLL,4630.044,N,00640.359,E,164416,A,A*5C
$IIHDG,290,,,,*5C
$IIMTW,+11.5,C*3D
$IIRMB,A,0.02,L,,VIDY,,,,,002.71,283,01.3,V,A*66
$IIRMC,164416,A,4630.044,N,00640.359,E,01.3,295,070508,,,A*43
$IIVHW,,,290,M,00.5,N,,*6A
$IIDPT,010.8,-1.0,*49
$IIGLL,4630.044,N,00640.359,E,164416,A,A*5C
$IIHDG,290,,,,*5C
$IIMTW,+11.5,C*3D
$IIRMC,164418,A,4630.044,N,00640.358,E,01.4,295,070508,,,A*4B
$IIVHW,,,291,M,00.5,N,,*6B
$IIDPT,011.4,-1.0,*44
$IIGLL,4630.044,N,00640.358,E,164418,A,A*53
$IIHDG,291,,,,*5D
$IIMTW,+11.5,C*3D
$IIRMB,A,0.02,L,,VIDY,,,,,002.71,283,01.3,V,A*66
$IIRMC,164418,A,4630.044,N,00640.358,E,01.4,295,070508,,,A*4B
$IIVHW,,,291,M,00.6,N,,*68
$IIDPT,011.3,-1.0,*43
$IIGLL,4630.044,N,00640.358,E,164418,A,A*53
$IIHDG,291,,,,*5D
$IIMTW,+11.5,C*3D
$IIRMC,164420,A,4630.044,N,00640.357,E,01.4,296,070508,,,A*4C
$IIVHW,,,291,M,00.6,N,,*68
$IIDPT,010.9,-1.0,*48
$IIGLL,4630.044,N,00640.357,E,164420,A,A*57
$IIHDG,291,,,,*5D
$IIMTW,+11.5,C*3D
$IIRMB,A,0.02,L,,VIDY,,,,,002.71,283,01.3,V,A*66
$IIRMC,164420,A,4630.044,N,00640.357,E,01.4,296,070508,,,A*4C
$IIVHW,,,291,M,00.5,N,,*6B
$IIDPT,010.9,-1.0,*48
$IIGLL,4630.044,N,00640.357,E,164420,A,A*57
$IIHDG,291,,,,*5D
$IIMTW,+11.5,C*3D
$IIRMC,164422,A,4630.045,N,00640.356,E,01.4,296,070508,,,A*4E
$IIVHW,,,292,M,00.4,N,,*69
$IIDPT,011.4,-1.0,*44
$IIGLL,4630.045,N,00640.356,E,164422,A,A*55
$IIHDG,292,,,,*5E
$IIMTW,+11.5,C*3D
$IIRMB,A,0.02,L,,VIDY,,,,,002.71,283,01.3,V,A*66
$IIRMC,164422,A,4630.045,N,00640.356,E,01.4,296,070508,,,A*4E
$IIVHW,,,293,M,00.3,N,,*6F
$IIDPT,011.1,-1.0,*41
$IIGLL,4630.045,N,00640.356,E,164422,A,A*55
$IIHDG,293,,,,*5F
$IIMTW,+11.5,C*3D
$IIRMC,164424,A,4630.045,N,00640.356,E,01.4,298,070508,,,A*46
$IIVHW,,,293,M,00.4,N,,*68
$IIDPT,010.9,-1.0,*48
$IIGLL,4630.045,N,00640.356,E,164424,A,A*53
$IIHDG,293,,,,*5F
$IIMTW,+11.5,C*3D
$IIRMB,A,0.02,L,,VIDY,,,,,002.70,283,01.3,V,A*67
$IIRMC,164424,A,4630.045,N,00640.356,E,01.4,298,070508,,,A*46
$IIVHW,,,293,M,00.5,N,,*69
$IIDPT,010.9,-1.0,*48
$IIGLL,4630.045,N,00640.356,E,164424,A,A*53
$IIHDG,293,,,,*5F
$IIMTW,+11.5,C*3D
$IIRMC,164426,A,4630.045,N,00640.355,E,01.4,299,070508,,,A*46
$IIVHW,,,295,M,00.5,N,,*6F
$IIDPT,010.7,-1.0,*46
$IIGLL,4630.045,N,00640.355,E,164426,A,A*52
$IIHDG,295,,,,*59
$IIMTW,+11.5,C*3D
$IIRMB,A,0.02,L,,VIDY,,,,,002.70,283,01.3,V,A*67
$IIRMC,164426,A,4630.045,N,00640.355,E,01.4,299,070508,,,A*46
$IIVHW,,,293,M,00.4,N,,*68
$IIDPT,010.6,-1.0,*47
$IIGLL,4630.045,N,00640.355,E,164426,A,A*52
$IIHDG,293,,,,*5F
$IIMTW,+11.5,C*3D
$IIRMC,164428,A,4630.046,N,00640.354,E,01.4,299,070508,,,A*4A
$IIVHW,,,295,M,00.5,N,,*6F
$IIDPT,010.6,-1.0,*47
$IIGLL,4630.046,N,00640.354,E,164428,A,A*5E
$IIHDG,295,,,,*59
$IIMTW,+12.0,C*3B
$IIRMB,A,0.02,L,,VIDY,,,,,002.70,283,01.3,V,A*67
$IIRMC,164428,A,4630.046,N,00640.354,E,01.4,299,070508,,,A*4A
$IIVHW,,,295,M,00.6,N,,*6C
$IIDPT,010.6,-1.0,*47
$IIGLL,4630.046,N,00640.354,E,164428,A,A*5E
$IIHDG,295,,,,*59
$IIMTW,+12.0,C*3B
$IIRMC,164428,A,4630.046,N,00640.354,E,01.4,299,070508,,,A*4A
$IIVHW,,,296,M,00.6,N,,*6F
$IIDPT,010.6,-1.0,*47
$IIGLL,4630.046,N,00640.354,E,164428,A,A*5E
$IIHDG,296,,,,*5A
$IIMTW,+12.0,C*3B
$IIRMB,A,0.02,L,,VIDY,,,,,002.70,283,01.4,V,A*60
$IIRMC,164430,A,4630.046,N,00640.353,E,01.4,299,070508,,,A*44
$IIVHW,,,296,M,00.6,N,,*6F
$IIDPT,010.6,-1.0,*47
$IIGLL,4630.046,N,00640.353,E,164430,A,A*50
$IIHDG,296,,,,*5A
$IIMTW,+12.0,C*3B
$IIRMC,164432,A,4630.047,N,00640.352,E,01.4,301,070508,,,A*46
$IIVHW,,,296,M,00.5,N,,*6C
$IIDPT,010.6,-1.0,*47
$IIGLL,4630.047,N,00640.352,E,164432,A,A*52
$IIHDG,296,,,,*5A
$IIMTW,+12.0,C*3B
$IIRMB,A,0.02,L,,VIDY,,,,,002.70,283,01.4,V,A*60
$IIRMC,164432,A,4630.047,N,00640.352,E,01.4,301,070508,,,A*46
$IIVHW,,,297,M,00.6,N,,*6E
$IIDPT,010.6,-1.0,*47
$IIGLL,4630.047,N,00640.352,E,164432,A,A*52
$IIHDG,297,,,,*5B
$IIMTW,+12.0,C*3B
$IIRMC,164434,A,4630.047,N,00640.351,E,01.4,303,070508,,,A*41
$IIVHW,,,297,M,00.6,N,,*6E
$IIDPT,010.7,-1.0,*46
$IIGLL,4630.047,N,00640.351,E,164434,A,A*57
$IIHDG,297,,,,*5B
$IIMTW,+12.0,C*3B
$IIRMB,A,0.03,L,,VIDY,,,,,002.70,283,01.4,V,A*61
$IIRMC,164434,A,4630.047,N,00640.351,E,01.4,303,070508,,,A*41
$IIVHW,,,297,M,00.6,N,,*6E
$IIDPT,010.8,-1.0,*49
$IIGLL,4630.047,N,00640.351,E,164434,A,A*57
$IIHDG,297,,,,*5B
$IIMTW,+12.0,C*3B
$IIRMC,164436,A,4630.048,N,00640.350,E,01.4,302,070508,,,A*4C
$IIVHW,,,297,M,00.6,N,,*6E
$IIDPT,010.8,-1.0,*49
$IIGLL,4630.048,N,00640.350,E,164436,A,A*5B
$IIHDG,297,,,,*5B
$IIMTW,+12.0,C*3B
$IIRMB,A,0.03,L,,VIDY,,,,,002.70,283,01.4,V,A*61
$IIRMC,164436,A,4630.048,N,00640.350,E,01.4,302,070508,,,A*4C
$IIVHW,,,297,M,00.6,N,,*6E
$IIDPT,010.8,-1.0,*49
$IIGLL,4630.048,N,00640.350,E,164436,A,A*5B
$IIHDG,297,,,,*5B
$IIMTW,+12.0,C*3B
$IIRMC,164438,A,4630.048,N,00640.349,E,01.4,301,070508,,,A*49
$IIVHW,,,297,M,00.6,N,,*6E
$IIDPT,010.8,-1.0,*49
$IIGLL,4630.048,N,00640.349,E,164438,A,A*5D
$IIHDG,297,,,,*5B
$IIMTW,+12.0,C*3B
$IIRMB,A,0.03,L,,VIDY,,,,,002.70,283,01.4,V,A*61
$IIRMC,164438,A,4630.048,N,00640.349,E,01.4,301,070508,,,A*49
$IIVHW,,,297,M,00.6,N,,*6E
$IIDPT,010.8,-1.0,*49
$IIGLL,4630.048,N,00640.349,E,164438,A,A*5D
$IIHDG,297,,,,*5B
$IIMTW,+12.0,C*3B
$IIRMC,164440,A,4630.049,N,00640.348,E,01.5,302,070508,,,A*44
$IIVHW,,,298,M,00.5,N,,*62
$IIDPT,010.7,-1.0,*46
$IIGLL,4630.049,N,00640.348,E,164440,A,A*52
$IIHDG,298,,,,*54
$IIMTW,+12.0,C*3B
$IIRMB,A,0.03,L,,VIDY,,,,,002.70,283,01.3,V,A*66
$IIRMC,164440,A,4630.049,N,00640.348,E,01.5,302,070508,,,A*44
$IIVHW,,,297,M,00.5,N,,*6D
$IIDPT,010.7,-1.0,*46
$IIGLL,4630.049,N,00640.348,E,164440,A,A*52
$IIHDG,297,,,,*5B
$IIMTW,+12.0,C*3B
$IIRMC,164442,A,4630.049,N,00640.347,E,01.5,304,070508,,,A*4F
$IIVHW,,,298,M,00.5,N,,*62
$IIDPT,010.7,-1.0,*46
$IIGLL,4630.049,N,00640.347,E,164442,A,A*5F
$IIHDG,298,,,,*54
$IIMTW,+12.0,C*3B
$IIRMB,A,0.03,L,,VIDY,,,,,002.70,283,01.4,V,A*61
$IIRMC,164442,A,4630.049,N,00640.347,E,01.5,304,070508,,,A*4F
$IIVHW,,,298,M,00.5,N,,*62
$IIDPT,010.7,-1.0,*46
$IIGLL,4630.049,N,00640.347,E,164442,A,A*5F
$IIHDG,298,,,,*54
$IIMTW,+11.5,C*3D
$IIRMC,164444,A,4630.050,N,00640.346,E,01.5,303,070508,,,A*47
$IIVHW,,,298,M,00.6,N,,*61
$IIDPT,010.7,-1.0,*46
$IIGLL,4630.050,N,00640.346,E,164444,A,A*50
$IIHDG,298,,,,*54
$IIMTW,+11.5,C*3D
$IIRMB,A,0.03,L,,VIDY,,,,,002.70,283,01.4,V,A*61
$IIRMC,164444,A,4630.050,N,00640.346,E,01.5,303,070508,,,A*47
$IIVHW,,,299,M,00.6,N,,*60
$IIDPT,010.7,-1.0,*46
$IIGLL,4630.050,N,00640.346,E,164444,A,A*50
$IIHDG,299,,,,*55
$IIMTW,+11.5,C*3D
$IIRMC,164446,A,4630.050,N,00640.346,E,01.5,302,070508,,,A*44
$IIVHW,,,299,M,00.7,N,,*61
$IIDPT,010.7,-1.0,*46
$IIGLL,4630.050,N,00640.346,E,164446,A,A*52
$IIHDG,299,,,,*55
$IIMTW,+11.5,C*3D
$IIRMB,A,0.03,L,,VIDY,,,,,002.70,283,01.5,V,A*60
$IIRMC,164446,A,4630.050,N,00640.346,E,01.5,302,070508,,,A*44
$IIVHW,,,299,M,00.6,N,,*60
$IIDPT,010.8,-1.0,*49
$IIGLL,4630.050,N,00640.346,E,164446,A,A*52
$IIHDG,299,,,,*55
$IIMTW,+11.5,C*3D
$IIRMC,164448,A,4630.050,N,00640.345,E,01.4,304,070508,,,A*4E
$IIVHW,,,299,M,00.6,N,,*60
$IIDPT,010.8,-1.0,*49
$IIGLL,4630.050,N,00640.345,E,164448,A,A*5F
$IIHDG,299,,,,*55
$IIMTW,+11.5,C*3D
$IIRMB,A,0.03,L,,VIDY,,,,,002.70,283,01.4,V,A*61
$IIRMC,164448,A,4630.050,N,00640.345,E,01.4,304,070508,,,A*4E
$IIVHW,,,298,M,00.7,N,,*60
$IIDPT,010.8,-1.0,*49
$IIGLL,4630.050,N,00640.345,E,164448,A,A*5F
$IIHDG,298,,,,*54
$IIMTW,+11.5,C*3D
$IIRMC,164450,A,4630.051,N,00640.344,E,01.5,304,070508,,,A*46
$IIVHW,,,299,M,00.6,N,,*60
$IIDPT,011.0,-1.0,*40
$IIGLL,4630.051,N,00640.344,E,164450,A,A*56
$IIHDG,299,,,,*55
$IIMTW,+12.0,C*3B
$IIRMB,A,0.03,L,,VIDY,,,,,002.70,283,01.4,V,A*61
$IIRMC,164450,A,4630.051,N,00640.344,E,01.5,304,070508,,,A*46
$IIVHW,,,299,M,00.6,N,,*60
$IIDPT,011.0,-1.0,*40
$IIGLL,4630.051,N,00640.344,E,164450,A,A*56
$IIHDG,299,,,,*55
$IIMTW,+12.0,C*3B
$IIRMC,164452,A,4630.051,N,00640.343,E,01.5,302,070508,,,A*45
$IIVHW,,,299,M,00.6,N,,*60
$IIDPT,011.0,-1.0,*40
$IIGLL,4630.051,N,00640.343,E,164452,A,A*53
$IIHDG,299,,,,*55
$IIMTW,+12.0,C*3B
$IIRMB,A,0.03,L,,VIDY,,,,,002.69,283,01.3,V,A*6E
$IIRMC,164452,A,4630.051,N,00640.343,E,01.5,302,070508,,,A*45
$IIVHW,,,299,M,00.6,N,,*60
$IIDPT,010.7,-1.0,*46
$IIGLL,4630.051,N,00640.343,E,164452,A,A*53
$IIHDG,299,,,,*55
$IIMTW,+12.0,C*3B
$IIRMC,164454,A,4630.052,N,00640.342,E,01.5,304,070508,,,A*47
$IIVHW,,,299,M,00.6,N,,*60
$IIDPT,010.7,-1.0,*46
$IIGLL,4630.052,N,00640.342,E,164454,A,A*57
$IIHDG,299,,,,*55
$IIMTW,+12.5,C*3E
$IIRMB,A,0.03,L,,VIDY,,,,,002.69,283,01.4,V,A*69
$IIRMC,164454,A,4630.052,N,00640.342,E,01.5,304,070508,,,A*47
$IIVHW,,,299,M,00.4,N,,*62
$IIDPT,010.7,-1.0,*46
$IIGLL,4630.052,N,00640.342,E,164454,A,A*57
$IIHDG,299,,,,*55
$IIMTW,+12.5,C*3E
$IIRMC,164456,A,4630.052,N,00640.341,E,01.4,304,070508,,,A*47
$IIVHW,,,299,M,00.5,N,,*63
$IIDPT,010.7,-1.0,*46
$IIGLL,4630.052,N,00640.341,E,164456,A,A*56
$IIHDG,299,,,,*55
$IIMTW,+12.5,C*3E
$IIRMB,A,0.03,L,,VIDY,,,,,002.69,283,01.4,V,A*69
$IIRMC,164456,A,4630.052,N,00640.341,E,01.4,304,070508,,,A*47
$IIVHW,,,299,M,00.6,N,,*60
$IIDPT,010.7,-1.0,*46
$IIGLL,4630.052,N,00640.341,E,164456,A,A*56
$IIHDG,299,,,,*55
$IIMTW,+12.5,C*3E
$IIRMC,164458,A,4630.053,N,00640.340,E,01.5,304,070508,,,A*48
$IIVHW,,,298,M,00.5,N,,*62
$IIDPT,010.7,-1.0,*46
$IIGLL,4630.053,N,00640.340,E,164458,A,A*58
$IIHDG,298,,,,*54
$IIMTW,+12.0,C*3B
$IIRMB,A,0.03,L,,VIDY,,,,,002.69,283,01.4,V,A*69
$IIRMC,164458,A,4630.053,N,00640.340,E,01.5,304,070508,,,A*48
$IIVHW,,,299,M,00.5,N,,*63
$IIDPT,010.9,-1.0,*48
$IIGLL,4630.053,N,00640.340,E,164458,A,A*58
$IIHDG,299,,,,*55
$IIMTW,+12.0,C*3B
$IIRMC,164500,A,4630.053,N,00640.339,E,01.5,305,070508,,,A*4B
$IIVHW,,,298,M,00.6,N,,*61
$IIDPT,010.9,-1.0,*48
$IIGLL,4630.053,N,00640.339,E,164500,A,A*5A
$IIHDG,298,,,,*54
$IIMTW,+12.0,C*3B
$IIRMB,A,0.03,L,,VIDY,,,,,002.69,283,01.4,V,A*69
$IIRMC,164500,A,4630.053,N,00640.339,E,01.5,305,070508,,,A*4B
$IIVHW,,,298,M,00.6,N,,*61
$IIDPT,010.9,-1.0,*48
$IIGLL,4630.053,N,00640.339,E,164500,A,A*5A
$IIHDG,298,,,,*54
$IIMTW,+12.0,C*3B
$IIRMC,164502,A,4630.054,N,00640.338,E,01.5,304,070508,,,A*4E
$IIVHW,,,298,M,00.6,N,,*61
$IIDPT,010.9,-1.0,*48
$IIGLL,4630.054,N,00640.338,E,164502,A,A*5E
$IIHDG,298,,,,*54
$IIMTW,+12.0,C*3B
$IIRMB,A,0.03,L,,VIDY,,,,,002.69,283,01.4,V,A*69
$IIRMC,164502,A,4630.054,N,00640.338,E,01.5,304,070508,,,A*4E
$IIVHW,,,299,M,00.6,N,,*60
$IIDPT,010.9,-1.0,*48
$IIGLL,4630.054,N,00640.338,E,164502,A,A*5E
$IIHDG,299,,,,*55
$IIMTW,+12.0,C*3B
$IIRMC,164504,A,4630.054,N,00640.337,E,01.5,303,070508,,,A*40
$IIVHW,,,298,M,00.7,N,,*60
$IIDPT,010.8,-1.0,*49
$IIGLL,4630.054,N,00640.337,E,164504,A,A*57
$IIHDG,298,,,,*54
$IIMTW,+12.0,C*3B
$IIRMB,A,0.03,L,,VIDY,,,,,002.69,283,01.4,V,A*69
$IIRMC,164504,A,4630.054,N,00640.337,E,01.5,303,070508,,,A*40
$IIVHW,,,298,M,00.5,N,,*62
$IIDPT,010.8,-1.0,*49
$IIGLL,4630.054,N,00640.337,E,164504,A,A*57
$IIHDG,298,,,,*54
$IIMTW,+12.0,C*3B
$IIRMC,164506,A,4630.055,N,00640.336,E,01.5,304,070508,,,A*45
$IIVHW,,,298,M,00.6,N,,*61
$IIDPT,010.8,-1.0,*49
$IIGLL,4630.055,N,00640.336,E,164506,A,A*55
$IIHDG,298,,,,*54
$IIMTW,+12.0,C*3B
$IIRMB,A,0.03,L,,VIDY,,,,,002.69,283,01.4,V,A*69
$IIRMC,164506,A,4630.055,N,00640.336,E,01.5,304,070508,,,A*45
$IIVHW,,,297,M,00.5,N,,*6D
$IIDPT,010.8,-1.0,*49
$IIGLL,4630.055,N,00640.336,E,164506,A,A*55
$IIHDG,297,,,,*5B
$IIMTW,+12.0,C*3B
$IIRMC,164508,A,4630.055,N,00640.335,E,01.5,302,070508,,,A*4E
$IIVHW,,,297,M,00.6,N,,*6E
$IIDPT,010.8,-1.0,*49
$IIGLL,4630.055,N,00640.335,E,164508,A,A*58
$IIHDG,297,,,,*5B
$IIMTW,+12.0,C*3B
$IIRMB,A,0.03,L,,VIDY,,,,,002.69,283,01.4,V,A*69
$IIRMC,164508,A,4630.055,N,00640.335,E,01.5,302,070508,,,A*4E
$IIVHW,,,298,M,00.6,N,,*61
$IIDPT,050.2,-1.0,*47
$IIGLL,4630.055,N,00640.335,E,164508,A,A*58
$IIHDG,298,,,,*54
$IIMTW,+12.0,C*3B
$IIRMC,164510,A,4630.056,N,00640.334,E,01.5,303,070508,,,A*44
$IIVHW,,,297,M,00.6,N,,*6E
$IIDPT,050.2,-1.0,*47
$IIGLL,4630.056,N,00640.334,E,164510,A,A*53
$IIHDG,297,,,,*5B
$IIMTW,+12.0,C*3B
$IIRMB,A,0.03,L,,VIDY,,,,,002.69,283,01.4,V,A*69
$IIRMC,164510,A,4630.056,N,00640.334,E,01.5,303,070508,,,A*44
$IIVHW,,,298,M,00.7,N,,*60
$IIDPT,051.1,-1.0,*45
$IIGLL,4630.056,N,00640.334,E,164510,A,A*53
$IIHDG,298,,,,*54
$IIMTW,+12.0,C*3B
$IIRMC,164512,A,4630.056,N,00640.333,E,01.5,302,070508,,,A*40
$IIVHW,,,298,M,00.8,N,,*6F
$IIDPT,050.4,-1.0,*41
$IIGLL,4630.056,N,00640.333,E,164512,A,A*56
$IIHDG,298,,,,*54
$IIMTW,+12.0,C*3B
$IIRMB,A,0.03,L,,VIDY,,,,,002.69,283,01.4,V,A*69
$IIRMC,164512,A,4630.056,N,00640.333,E,01.5,302,070508,,,A*40
$IIVHW,,,298,M,00.8,N,,*6F
$IIDPT,050.8,-1.0,*4D
$IIGLL,4630.056,N,00640.333,E,164512,A,A*56
$IIHDG,298,,,,*54
$IIMTW,+12.0,C*3B
$IIRMC,164514,A,4630.057,N,00640.332,E,01.5,303,070508,,,A*47
$IIVHW,,,298,M,00.8,N,,*6F
$IIDPT,050.8,-1.0,*4D
$IIGLL,4630.057,N,00640.332,E,164514,A,A*50
$IIHDG,298,,,,*54
$IIMTW,+12.0,C*3B
$IIRMB,A,0.03,L,,VIDY,,,,,002.69,283,01.5,V,A*68
$IIRMC,164514,A,4630.057,N,00640.332,E,01.5,303,070508,,,A*47
$IIVHW,,,298,M,00.7,N,,*60
$IIDPT,010.7,-1.0,*46
$IIGLL,4630.057,N,00640.332,E,164514,A,A*50
$IIHDG,298,,,,*54
$IIMTW,+12.0,C*3B
$IIRMC,164516,A,4630.057,N,00640.332,E,01.5,303,070508,,,A*45
$IIVHW,,,298,M,00.7,N,,*60
$IIDPT,010.7,-1.0,*46
$IIGLL,4630.057,N,00640.332,E,164516,A,A*52
$IIHDG,298,,,,*54
$IIMTW,+12.0,C*3B
$IIRMB,A,0.03,L,,VIDY,,,,,002.69,283,01.5,V,A*68
$IIRMC,164516,A,4630.057,N,00640.332,E,01.5,303,070508,,,A*45
$IIVHW,,,299,M,00.8,N,,*6E
$IIDPT,010.7,-1.0,*46
$IIGLL,4630.057,N,00640.332,E,164516,A,A*52
$IIHDG,299,,,,*55
$IIMTW,+12.0,C*3B
$IIRMC,164518,A,4630.058,N,00640.331,E,01.5,304,070508,,,A*40
$IIVHW,,,299,M,00.9,N,,*6F
$IIDPT,010.7,-1.0,*46
$IIGLL,4630.058,N,00640.331,E,164518,A,A*50
$IIHDG,299,,,,*55
$IIMTW,+12.0,C*3B
$IIRMB,A,0.03,L,,VIDY,,,,,002.69,283,01.4,V,A*69
$IIRMC,164518,A,4630.058,N,00640.331,E,01.5,304,070508,,,A*40
$IIVHW,,,299,M,00.9,N,,*6F
$IIDPT,010.7,-1.0,*46
$IIGLL,4630.058,N,00640.331,E,164518,A,A*50
$IIHDG,299,,,,*55
$IIMTW,+12.0,C*3B
$IIRMC,164520,A,4630.058,N,00640.330,E,01.5,306,070508,,,A*48
$IIVHW,,,299,M,00.9,N,,*6F
$IIDPT,010.7,-1.0,*46
$IIGLL,4630.058,N,00640.330,E,164520,A,A*5A
$IIHDG,299,,,,*55
$IIMTW,+12.0,C*3B
$IIRMB,A,0.03,L,,VIDY,,,,,002.68,283,01.4,V,A*68
$IIRMC,164520,A,4630.058,N,00640.330,E,01.5,306,070508,,,A*48
$IIVHW,,,300,M,00.8,N,,*6F
$IIDPT,010.7,-1.0,*46
$IIGLL,4630.058,N,00640.330,E,164520,A,A*5A
$IIHDG,300,,,,*54
$IIMTW,+12.0,C*3B
$IIRMC,164522,A,4630.059,N,00640.329,E,01.5,305,070508,,,A*40
$IIVHW,,,300,M,00.9,N,,*6E
$IIDPT,010.8,-1.0,*49
$IIGLL,4630.059,N,00640.329,E,164522,A,A*51
$IIHDG,300,,,,*54
$IIMTW,+12.0,C*3B
$IIRMB,A,0.03,L,,VIDY,,,,,002.68,283,01.5,V,A*69
$IIRMC,164522,A,4630.059,N,00640.329,E,01.5,305,070508,,,A*40
$IIVHW,,,301,M,00.9,N,,*6F
$IIDPT,010.8,-1.0,*49
$IIGLL,4630.059,N,00640.329,E,164522,A,A*51
$IIHDG,301,,,,*55
$IIMTW,+12.0,C*3B
$IIRMC,164524,A,4630.059,N,00640.328,E,01.6,305,070508,,,A*44
$IIVHW,,,301,M,00.9,N,,*6F
$IIDPT,010.8,-1.0,*49
$IIGLL,4630.059,N,00640.328,E,164524,A,A*56
$IIHDG,301,,,,*55
$IIMTW,+12.0,C*3B
$IIRMB,A,0.03,L,,VIDY,,,,,002.68,283,01.4,V,A*68
$IIRMC,164524,A,4630.059,N,00640.328,E,01.6,305,070508,,,A*44
$IIVHW,,,301,M,00.8,N,,*6E
$IIDPT,010.8,-1.0,*49
$IIGLL,4630.059,N,00640.328,E,164524,A,A*56
$IIHDG,301,,,,*55
$IIMTW,+12.0,C*3B
$IIRMC,164526,A,4630.060,N,00640.327,E,01.5,304,070508,,,A*41
$IIVHW,,,301,M,00.8,N,,*6E
$IIDPT,010.8,-1.0,*49
$IIGLL,4630.060,N,00640.327,E,164526,A,A*51
$IIHDG,301,,,,*55
$IIMTW,+12.0,C*3B
$IIRMB,A,0.03,L,,VIDY,,,,,002.68,283,01.4,V,A*68
$IIRMC,164526,A,4630.060,N,00640.327,E,01.5,304,070508,,,A*41
$IIVHW,,,301,M,00.7,N,,*61
$IIDPT,010.8,-1.0,*49
$IIGLL,4630.060,N,00640.327,E,164526,A,A*51
$IIHDG,301,,,,*55
$IIMTW,+12.0,C*3B
$IIRMC,164528,A,4630.060,N,00640.326,E,01.5,304,070508,,,A*4E
$IIVHW,,,301,M,00.8,N,,*6E
$IIDPT,010.8,-1.0,*49
$IIGLL,4630.060,N,00640.326,E,164528,A,A*5E
$IIHDG,301,,,,*55
$IIMTW,+12.0,C*3B
$IIRMB,A,0.03,L,,VIDY,,,,,002.68,283,01.4,V,A*68
$IIRMC,164528,A,4630.060,N,00640.326,E,01.5,304,070508,,,A*4E
$IIVHW,,,302,M,00.9,N,,*6C
$IIDPT,010.8,-1.0,*49
$IIGLL,4630.060,N,00640.326,E,164528,A,A*5E
$IIHDG,302,,,,*56
$IIMTW,+12.0,C*3B
$IIRMC,164530,A,4630.061,N,00640.325,E,01.5,303,070508,,,A*42
$IIVHW,,,302,M,00.9,N,,*6C
$IIDPT,010.8,-1.0,*49
$IIGLL,4630.061,N,00640.325,E,164530,A,A*55
$IIHDG,302,,,,*56
$IIMTW,+12.0,C*3B
$IIRMB,A,0.03,L,,VIDY,,,,,002.68,283,01.4,V,A*68
$IIRMC,164530,A,4630.061,N,00640.325,E,01.5,303,070508,,,A*42
$IIVHW,,,302,M,01.0,N,,*64
$IIDPT,010.8,-1.0,*49
$IIGLL,4630.061,N,00640.325,E,164530,A,A*55
$IIHDG,302,,,,*56
$IIMTW,+12.0,C*3B
$IIRMC,164532,A,4630.061,N,00640.324,E,01.5,302,070508,,,A*40
$IIVHW,,,302,M,01.0,N,,*64
$IIDPT,010.8,-1.0,*49
$IIGLL,4630.061,N,00640.324,E,164532,A,A*56
$IIHDG,302,,,,*56
$IIMTW,+12.0,C*3B
$IIRMB,A,0.03,L,,VIDY,,,,,002.68,283,01.4,V,A*68
$IIRMC,164532,A,4630.061,N,00640.324,E,01.5,302,070508,,,A*40
$IIVHW,,,303,M,01.1,N,,*64
$IIDPT,010.8,-1.0,*49
$IIGLL,4630.061,N,00640.324,E,164532,A,A*56
$IIHDG,303,,,,*57
$IIMTW,+12.0,C*3B
$IIRMC,164534,A,4630.062,N,00640.323,E,01.5,305,070508,,,A*45
$IIVHW,,,302,M,01.1,N,,*65
$IIDPT,010.8,-1.0,*49
$IIGLL,4630.062,N,00640.323,E,164534,A,A*54
$IIHDG,302,,,,*56
$IIMTW,+12.0,C*3B
$IIRMB,A,0.03,L,,VIDY,,,,,002.68,283,01.4,V,A*68
$IIRMC,164534,A,4630.062,N,00640.323,E,01.5,305,070508,,,A*45
$IIVHW,,,303,M,01.1,N,,*64
$IIDPT,010.9,-1.0,*48
$IIGLL,4630.062,N,00640.323,E,164534,A,A*54
$IIHDG,303,,,,*57
$IIMTW,+12.0,C*3B
$IIRMC,164536,A,4630.062,N,00640.322,E,01.5,305,070508,,,A*46
$IIVHW,,,303,M,01.1,N,,*64
$IIDPT,010.9,-1.0,*48
$IIGLL,4630.062,N,00640.322,E,164536,A,A*57
$IIHDG,303,,,,*57
$IIMTW,+12.0,C*3B
$IIRMB,A,0.03,L,,VIDY,,,,,002.68,283,01.4,V,A*68
$IIRMC,164536,A,4630.062,N,00640.322,E,01.5,305,070508,,,A*46
$IIVHW,,,303,M,01.1,N,,*64
$IIDPT,010.9,-1.0,*48
$IIGLL,4630.062,N,00640.322,E,164536,A,A*57
$IIHDG,303,,,,*57
$IIMTW,+12.0,C*3B
$IIRMC,164538,A,4630.063,N,00640.321,E,01.6,305,070508,,,A*49
$IIVHW,,,304,M,01.1,N,,*63
$IIDPT,010.9,-1.0,*48
$IIGLL,4630.063,N,00640.321,E,164538,A,A*5B
$IIHDG,304,,,,*50
$IIMTW,+12.0,C*3B
$IIRMB,A,0.04,L,,VIDY,,,,,002.68,283,01.3,V,A*68
$IIRMC,164538,A,4630.063,N,00640.321,E,01.6,305,070508,,,A*49
$IIVHW,,,303,M,01.1,N,,*64
$IIDPT,010.7,-1.0,*46
$IIGLL,4630.063,N,00640.321,E,164538,A,A*5B
$IIHDG,303,,,,*57
$IIMTW,+12.0,C*3B
$IIRMC,164540,A,4630.063,N,00640.320,E,01.5,305,070508,,,A*44
$IIVHW,,,304,M,01.1,N,,*63
$IIDPT,010.6,-1.0,*47
$IIGLL,4630.063,N,00640.320,E,164540,A,A*55
$IIHDG,304,,,,*50
$IIMTW,+12.0,C*3B
$IIRMB,A,0.04,L,,VIDY,,,,,002.68,283,01.4,V,A*6F
$IIRMC,164540,A,4630.063,N,00640.320,E,01.5,305,070508,,,A*44
$IIVHW,,,304,M,00.9,N,,*6A
$IIDPT,010.6,-1.0,*47
$IIGLL,4630.063,N,00640.320,E,164540,A,A*55
$IIHDG,304,,,,*50
$IIMTW,+12.0,C*3B
$IIRMC,164542,A,4630.064,N,00640.319,E,01.5,305,070508,,,A*4B
$IIVHW,,,303,M,00.9,N,,*6D
$IIDPT,010.6,-1.0,*47
$IIGLL,4630.064,N,00640.319,E,164542,A,A*5A
$IIHDG,303,,,,*57
$IIMTW,+12.0,C*3B
$IIRMB,A,0.04,L,,VIDY,,,,,002.68,283,01.4,V,A*6F
$IIRMC,164542,A,4630.064,N,00640.319,E,01.5,305,070508,,,A*4B
$IIVHW,,,302,M,01.0,N,,*64
$IIDPT,010.6,-1.0,*47
$IIGLL,4630.064,N,00640.319,E,164542,A,A*5A
$IIHDG,302,,,,*56
$IIMTW,+12.0,C*3B
$IIRMC,164544,A,4630.064,N,00640.318,E,01.5,308,070508,,,A*41
$IIVHW,,,302,M,01.1,N,,*65
$IIDPT,042.0,-1.0,*46
$IIGLL,4630.064,N,00640.318,E,164544,A,A*5D
$IIHDG,302,,,,*56
$IIMTW,+12.0,C*3B
$IIRMB,A,0.04,L,,VIDY,,,,,002.68,283,01.4,V,A*6F
$IIRMC,164544,A,4630.064,N,00640.318,E,01.5,308,070508,,,A*41
$IIVHW,,,303,M,01.0,N,,*65
$IIDPT,042.0,-1.0,*46
$IIGLL,4630.064,N,00640.318,E,164544,A,A*5D
$IIHDG,303,,,,*57
$IIMTW,+12.0,C*3B
$IIRMC,164546,A,4630.065,N,00640.317,E,01.5,305,070508,,,A*40
$IIVHW,,,303,M,00.8,N,,*6C
$IIDPT,058.1,-1.0,*4C
$IIGLL,4630.065,N,00640.317,E,164546,A,A*51
$IIHDG,303,,,,*57
$IIMTW,+12.0,C*3B
$IIRMB,A,0.04,L,,VIDY,,,,,002.67,283,01.4,V,A*60
$IIRMC,164546,A,4630.065,N,00640.317,E,01.5,305,070508,,,A*40
$IIVHW,,,302,M,00.9,N,,*6C
$IIDPT,051.7,-1.0,*43
$IIGLL,4630.065,N,00640.317,E,164546,A,A*51
$IIHDG,302,,,,*56
$IIMTW,+12.0,C*3B
$IIRMC,164548,A,4630.065,N,00640.316,E,01.4,302,070508,,,A*49
$IIVHW,,,301,M,00.8,N,,*6E
$IIDPT,042.2,-1.0,*44
$IIGLL,4630.065,N,00640.316,E,164548,A,A*5E
$IIHDG,301,,,,*55
$IIMTW,+12.0,C*3B
$IIRMB,A,0.04,L,,VIDY,,,,,002.67,283,01.3,V,A*67
$IIRMC,164548,A,4630.065,N,00640.316,E,01.4,302,070508,,,A*49
$IIVHW,,,299,M,00.6,N,,*60
$IIDPT,042.2,-1.0,*44
$IIGLL,4630.065,N,00640.316,E,164548,A,A*5E
$IIHDG,299,,,,*55
$IIMTW,+12.0,C*3B
$IIRMC,164550,A,4630.066,N,00640.315,E,01.4,294,070508,,,A*4E
$IIVHW,,,297,M,00.6,N,,*6E
$IIDPT,042.2,-1.0,*44
$IIGLL,4630.066,N,00640.315,E,164550,A,A*57
$IIHDG,297,,,,*5B
$IIMTW,+12.0,C*3B
$IIRMB,A,0.04,L,,VIDY,,,,,002.67,283,01.4,V,A*60
$IIRMC,164550,A,4630.066,N,00640.315,E,01.4,294,070508,,,A*4E
$IIVHW,,,295,M,00.6,N,,*6C
$IIDPT,051.3,-1.0,*47
$IIGLL,4630.066,N,00640.315,E,164550,A,A*57
$IIHDG,295,,,,*59
$IIMTW,+12.0,C*3B
$IIRMC,164552,A,4630.066,N,00640.314,E,01.4,293,070508,,,A*4A
$IIVHW,,,293,M,00.6,N,,*6A
$IIDPT,051.3,-1.0,*47
$IIGLL,4630.066,N,00640.314,E,164552,A,A*54
$IIHDG,293,,,,*5F
$IIMTW,+12.0,C*3B
$IIRMB,A,0.04,L,,VIDY,,,,,002.67,283,01.3,V,A*67
$IIRMC,164552,A,4630.066,N,00640.314,E,01.4,293,070508,,,A*4A
$IIVHW,,,291,M,00.7,N,,*69
$IIDPT,010.7,-1.0,*46
$IIGLL,4630.066,N,00640.314,E,164552,A,A*54
$IIHDG,291,,,,*5D
$IIMTW,+12.0,C*3B
$IIRMC,164554,A,4630.066,N,00640.313,E,01.3,289,070508,,,A*47
$IIVHW,,,289,M,00.7,N,,*60
$IIDPT,010.7,-1.0,*46
$IIGLL,4630.066,N,00640.313,E,164554,A,A*55
$IIHDG,289,,,,*54
$IIMTW,+12.0,C*3B
$IIRMB,A,0.04,L,,VIDY,,,,,002.67,283,01.3,V,A*67
$IIRMC,164554,A,4630.066,N,00640.313,E,01.3,289,070508,,,A*47
$IIVHW,,,287,M,00.7,N,,*6E
$IIDPT,010.7,-1.0,*46
$IIGLL,4630.066,N,00640.313,E,164554,A,A*55
$IIHDG,287,,,,*5A
$IIMTW,+12.0,C*3B
$IIRMC,164554,A,4630.066,N,00640.313,E,01.3,289,070508,,,A*47
$IIVHW,,,286,M,00.7,N,,*6F
$IIDPT,010.7,-1.0,*46
$IIGLL,4630.066,N,00640.313,E,164554,A,A*55
$IIHDG,286,,,,*5B
$IIMTW,+12.0,C*3B
$IIRMB,A,0.04,L,,VIDY,,,,,002.67,283,01.3,V,A*67
$IIRMC,164558,A,4630.067,N,00640.311,E,01.4,285,070508,,,A*43
$IIVHW,,,282,M,00.6,N,,*6A
$IIDPT,049.1,-1.0,*4C
$IIGLL,4630.067,N,00640.311,E,164558,A,A*5A
$IIHDG,282,,,,*5F
$IIMTW,+12.0,C*3B
$IIRMB,A,0.04,L,,VIDY,,,,,002.67,283,01.4,V,A*60
$IIRMC,164558,A,4630.067,N,00640.311,E,01.4,285,070508,,,A*43
$IIVHW,,,282,M,00.5,N,,*69
$IIDPT,049.1,-1.0,*4C
$IIGLL,4630.067,N,00640.311,E,164558,A,A*5A
$IIHDG,282,,,,*5F
$IIMTW,+12.0,C*3B
$IIRMC,164600,A,4630.067,N,00640.310,E,01.3,282,070508,,,A*4C
$IIVHW,,,282,M,00.4,N,,*68
$IIDPT,049.1,-1.0,*4C
$IIGLL,4630.067,N,00640.310,E,164600,A,A*55
$IIHDG,282,,,,*5F
$IIMTW,+12.0,C*3B
$IIRMB,A,0.04,L,,VIDY,,,,,002.67,283,01.4,V,A*60
$IIRMC,164600,A,4630.067,N,00640.310,E,01.3,282,070508,,,A*4C
$IIVHW,,,281,M,00.5,N,,*6A
$IIDPT,049.1,-1.0,*4C
$IIGLL,4630.067,N,00640.310,E,164600,A,A*55
$IIHDG,281,,,,*5C
$IIMTW,+12.0,C*3B
$IIRMC,164602,A,4630.067,N,00640.309,E,01.4,282,070508,,,A*41
$IIVHW,,,280,M,00.6,N,,*68
$IIDPT,049.1,-1.0,*4C
$IIGLL,4630.067,N,00640.309,E,164602,A,A*5F
$IIHDG,280,,,,*5D
$IIMTW,+12.0,C*3B
$IIRMB,A,0.04,L,,VIDY,,,,,002.67,283,01.4,V,A*60
$IIRMC,164602,A,4630.067,N,00640.309,E,01.4,282,070508,,,A*41
$IIVHW,,,279,M,00.6,N,,*6E
$IIDPT,010.8,-1.0,*49
$IIGLL,4630.067,N,00640.309,E,164602,A,A*5F
$IIHDG,279,,,,*5B
$IIMTW,+12.0,C*3B
$IIRMC,164604,A,4630.067,N,00640.308,E,01.4,281,070508,,,A*45
$IIVHW,,,279,M,00.5,N,,*6D
$IIDPT,010.5,-1.0,*44
$IIGLL,4630.067,N,00640.308,E,164604,A,A*58
$IIHDG,279,,,,*5B
$IIMTW,+12.0,C*3B
$IIRMB,A,0.04,L,,VIDY,,,,,002.67,283,01.4,V,A*60
$IIRMC,164604,A,4630.067,N,00640.308,E,01.4,281,070508,,,A*45
$IIVHW,,,279,M,00.5,N,,*6D
$IIDPT,010.5,-1.0,*44
$IIGLL,4630.067,N,00640.308,E,164604,A,A*58
$IIHDG,279,,,,*5B
$IIMTW,+12.0,C*3B
$IIRMC,164606,A,4630.067,N,00640.307,E,01.4,282,070508,,,A*4B
$IIVHW,,,279,M,00.6,N,,*6E
$IIDPT,010.5,-1.0,*44
$IIGLL,4630.067,N,00640.307,E,164606,A,A*55
$IIHDG,279,,,,*5B
$IIMTW,+12.0,C*3B
$IIRMC,164606,A,4630.067,N,00640.307,E,01.4,282,070508,,,A*4B
$IIVHW,,,279,M,00.4,N,,*6C
$IIDPT,010.5,-1.0,*44
$IIGLL,4630.067,N,00640.307,E,164606,A,A*55
$IIHDG,279,,,,*5B
$IIMTW,+12.0,C*3B
$IIRMC,164608,A,4630.068,N,00640.306,E,01.3,283,070508,,,A*4D
$IIVHW,,,278,M,00.5,N,,*6C
$IIDPT,010.5,-1.0,*44
$IIGLL,4630.068,N,00640.306,E,164608,A,A*55
$IIHDG,278,,,,*5A
$IIMTW,+12.0,C*3B
$IIRMB,A,0.04,L,,VIDY,,,,,002.67,283,01.4,V,A*60
$IIRMC,164608,A,4630.068,N,00640.306,E,01.3,283,070508,,,A*4D
$IIVHW,,,278,M,00.6,N,,*6F
$IIDPT,010.5,-1.0,*44
$IIGLL,4630.068,N,00640.306,E,164608,A,A*55
$IIHDG,278,,,,*5A
$IIMTW,+12.0,C*3B
$IIRMC,164610,A,4630.068,N,00640.304,E,01.3,281,070508,,,A*44
$IIVHW,,,278,M,00.5,N,,*6C
$IIDPT,010.5,-1.0,*44
$IIGLL,4630.068,N,00640.304,E,164610,A,A*5E
$IIHDG,278,,,,*5A
$IIMTW,+12.0,C*3B
$IIRMB,A,0.04,L,,VIDY,,,,,002.67,283,01.4,V,A*60
$IIRMC,164610,A,4630.068,N,00640.304,E,01.3,281,070508,,,A*44
$IIVHW,,,278,M,00.6,N,,*6F
$IIDPT,010.6,-1.0,*47
$IIGLL,4630.068,N,00640.304,E,164610,A,A*5E
$IIHDG,278,,,,*5A
$IIMTW,+12.0,C*3B
$IIRMC,164612,A,4630.068,N,00640.303,E,01.4,282,070508,,,A*45
$IIVHW,,,278,M,00.6,N,,*6F
$IIDPT,010.6,-1.0,*47
$IIGLL,4630.068,N,00640.303,E,164612,A,A*5B
$IIHDG,278,,,,*5A
$IIMTW,+12.0,C*3B
$IIRMB,A,0.04,L,,VIDY,,,,,002.66,283,01.4,V,A*61
$IIRMC,164612,A,4630.068,N,00640.303,E,01.4,282,070508,,,A*45
$IIVHW,,,278,M,00.6,N,,*6F
$IIDPT,010.6,-1.0,*47
$IIGLL,4630.068,N,00640.303,E,164612,A,A*5B
$IIHDG,278,,,,*5A
$IIMTW,+12.0,C*3B
$IIRMC,164614,A,4630.068,N,00640.302,E,01.4,280,070508,,,A*40
$IIVHW,,,278,M,00.7,N,,*6E
$IIDPT,010.6,-1.0,*47
$IIGLL,4630.068,N,00640.302,E,164614,A,A*5C
$IIHDG,278,,,,*5A
$IIMTW,+12.0,C*3B
$IIRMB,A,0.04,L,,VIDY,,,,,002.66,283,01.3,V,A*66
$IIRMC,164614,A,4630.068,N,00640.302,E,01.4,280,070508,,,A*40
$IIVHW,,,278,M,00.6,N,,*6F
$IIDPT,010.6,-1.0,*47
$IIGLL,4630.068,N,00640.302,E,164614,A,A*5C
$IIHDG,278,,,,*5A
$IIMTW,+12.0,C*3B
$IIRMC,164616,A,4630.068,N,00640.301,E,01.3,283,070508,,,A*45
$IIVHW,,,278,M,00.5,N,,*6C
$IIDPT,010.6,-1.0,*47
$IIGLL,4630.068,N,00640.301,E,164616,A,A*5D
$IIHDG,278,,,,*5A
$IIMTW,+12.0,C*3B
$IIRMB,A,0.04,L,,VIDY,,,,,002.66,283,01.3,V,A*66
$IIRMC,164616,A,4630.068,N,00640.301,E,01.3,283,070508,,,A*45
$IIVHW,,,278,M,00.6,N,,*6F
$IIDPT,010.6,-1.0,*47
$IIGLL,4630.068,N,00640.301,E,164616,A,A*5D
$IIHDG,278,,,,*5A
$IIMTW,+12.0,C*3B
$IIRMC,164618,A,4630.068,N,00640.300,E,01.3,283,070508,,,A*4A
$IIVHW,,,279,M,00.5,N,,*6D
$IIDPT,010.6,-1.0,*47
$IIGLL,4630.068,N,00640.300,E,164618,A,A*52
$IIHDG,279,,,,*5B
$IIMTW,+12.0,C*3B
$IIRMB,A,0.04,L,,VIDY,,,,,002.66,283,01.4,V,A*61
$IIRMC,164618,A,4630.068,N,00640.300,E,01.3,283,070508,,,A*4A
$IIVHW,,,279,M,00.4,N,,*6C
$IIDPT,010.6,-1.0,*47
$IIGLL,4630.069,N,00640.299,E,164620,A,A*59
$IIHDG,279,,,,*5B
$IIMTW,+12.0,C*3B
$IIRMB,A,0.04,L,,VIDY,,,,,002.66,283,01.3,V,A*66
$IIRMC,164620,A,4630.069,N,00640.299,E,01.3,282,070508,,,A*40
$IIVHW,,,279,M,00.4,N,,*6C
$IIDPT,010.6,-1.0,*47
$IIGLL,4630.069,N,00640.299,E,164620,A,A*59
$IIHDG,279,,,,*5B
$IIMTW,+12.0,C*3B
$IIRMC,164620,A,4630.069,N,00640.299,E,01.3,282,070508,,,A*40
$IIVHW,,,278,M,00.4,N,,*6D
$IIDPT,010.6,-1.0,*47
$IIGLL,4630.069,N,00640.298,E,164622,A,A*5A
$IIHDG,278,,,,*5A
$IIMTW,+12.0,C*3B
$IIRMB,A,0.04,L,,VIDY,,,,,002.66,283,01.3,V,A*66
$IIRMC,164622,A,4630.069,N,00640.298,E,01.4,282,070508,,,A*44
$IIVHW,,,277,M,00.4,N,,*62
$IIDPT,010.6,-1.0,*47
$IIGLL,4630.069,N,00640.298,E,164622,A,A*5A
$IIHDG,277,,,,*55
$IIMTW,+12.0,C*3B
$IIRMC,164622,A,4630.069,N,00640.298,E,01.4,282,070508,,,A*44
$IIVHW,,,275,M,00.4,N,,*60
$IIDPT,010.6,-1.0,*47
$IIGLL,4630.069,N,00640.297,E,164624,A,A*53
$IIHDG,275,,,,*57
$IIMTW,+12.0,C*3B
$IIRMB,A,0.04,L,,VIDY,,,,,002.66,283,01.3,V,A*66
$IIRMC,164624,A,4630.069,N,00640.297,E,01.4,278,070508,,,A*48
$IIVHW,,,275,M,00.4,N,,*60
$IIDPT,010.5,-1.0,*44
$IIGLL,4630.069,N,00640.297,E,164624,A,A*53
$IIHDG,275,,,,*57
$IIMTW,+12.0,C*3B
$IIRMC,164624,A,4630.069,N,00640.297,E,01.4,278,070508,,,A*48
$IIVHW,,,274,M,00.3,N,,*66
$IIDPT,010.5,-1.0,*44
$IIGLL,4630.069,N,00640.296,E,164626,A,A*50
$IIHDG,274,,,,*56
$IIMTW,+12.0,C*3B
$IIRMB,A,0.04,L,,VIDY,,,,,002.66,283,01.3,V,A*66
$IIRMC,164626,A,4630.069,N,00640.296,E,01.4,278,070508,,,A*4B
$IIVHW,,,273,M,00.4,N,,*66
$IIDPT,010.6,-1.0,*47
$IIGLL,4630.069,N,00640.296,E,164626,A,A*50
$IIHDG,273,,,,*51
$IIMTW,+12.0,C*3B
$IIRMC,164626,A,4630.069,N,00640.296,E,01.4,278,070508,,,A*4B
$IIVHW,,,272,M,00.3,N,,*60
$IIDPT,010.5,-1.0,*44
$IIGLL,4630.069,N,00640.295,E,164628,A,A*5D
$IIHDG,272,,,,*50
$IIMTW,+12.0,C*3B
$IIRMB,A,0.04,L,,VIDY,,,,,002.66,283,01.3,V,A*66
$IIRMC,164628,A,4630.069,N,00640.295,E,01.3,277,070508,,,A*4E
$IIVHW,,,272,M,00.3,N,,*60
$IIDPT,010.3,-1.0,*42
$IIGLL,4630.069,N,00640.295,E,164628,A,A*5D
$IIHDG,272,,,,*50
$IIMTW,+12.0,C*3B
$IIRMC,164628,A,4630.069,N,00640.295,E,01.3,277,070508,,,A*4E
$IIVHW,,,272,M,00.2,N,,*61
$IIDPT,010.3,-1.0,*42
$IIGLL,4630.069,N,00640.294,E,164630,A,A*55
$IIHDG,272,,,,*50
$IIMTW,+12.0,C*3B
$IIRMB,A,0.04,L,,VIDY,,,,,002.66,283,01.3,V,A*66
$IIRMC,164630,A,4630.069,N,00640.294,E,01.2,273,070508,,,A*43
$IIVHW,,,271,M,00.3,N,,*63
$USSSR*54
$IIDPT,010.3,-1.0,*42
$IIGLL,4630.069,N,00640.294,E,164630,A,A*55
$IIHDG,271,,,,*53
$IIMTW,+12.0,C*3B
$IIRMC,164630,A,4630.069,N,00640.294,E,01.2,273,070508,,,A*43
$IIVHW,,,272,M,00.2,N,,*61
$IIDPT,010.3,-1.0,*42
$IIGLL,4630.069,N,00640.293,E,164632,A,A*50
$IIHDG,272,,,,*50
$IIMTW,+12.0,C*3B
$IIRMB,A,0.04,L,,VIDY,,,,,002.66,283,01.3,V,A*66
$IIRMC,164632,A,4630.069,N,00640.293,E,01.3,275,070508,,,A*41
$IIVHW,,,270,M,00.3,N,,*62
$IIDPT,010.3,-1.0,*42
$IIGLL,4630.069,N,00640.293,E,164632,A,A*50
$IIHDG,270,,,,*52
$IIMTW,+12.0,C*3B
$IIRMC,164632,A,4630.069,N,00640.293,E,01.3,275,070508,,,A*41
$IIVHW,,,270,M,00.2,N,,*63
$IIDPT,010.3,-1.0,*42
$IIGLL,4630.069,N,00640.292,E,164634,A,A*57
$IIHDG,270,,,,*52
$IIMTW,+12.0,C*3B
$IIRMB,A,0.04,L,,VIDY,,,,,002.66,283,01.2,V,A*67
$IIRMC,164634,A,4630.069,N,00640.292,E,01.3,272,070508,,,A*41
$IIVHW,,,269,M,00.2,N,,*6B
$IIDPT,010.3,-1.0,*42
$IIGLL,4630.069,N,00640.292,E,164634,A,A*57
$IIHDG,269,,,,*5A
$IIMTW,+12.0,C*3B
$IIRMC,164634,A,4630.069,N,00640.292,E,01.3,272,070508,,,A*41
$IIVHW,,,268,M,00.3,N,,*6B
$IIDPT,010.4,-1.0,*45
$IIGLL,4630.069,N,00640.291,E,164636,A,A*56
$IIHDG,268,,,,*5B
$IIMTW,+12.0,C*3B
$IIRMB,A,0.04,L,,VIDY,,,,,002.66,283,01.2,V,A*67
$IIRMC,164636,A,4630.069,N,00640.291,E,01.2,272,070508,,,A*41
$IIVHW,,,266,M,00.2,N,,*64
$IIDPT,010.4,-1.0,*45
$IIGLL,4630.069,N,00640.291,E,164636,A,A*56
$IIHDG,266,,,,*55
$IIMTW,+12.0,C*3B
$IIRMC,164636,A,4630.069,N,00640.291,E,01.2,272,070508,,,A*41
$IIVHW,,,265,M,00.2,N,,*67
$IIDPT,010.4,-1.0,*45
$IIGLL,4630.069,N,00640.290,E,164638,A,A*59
$IIHDG,265,,,,*56
$IIMTW,+12.0,C*3B
$IIRMB,A,0.04,L,,VIDY,,,,,002.66,283,01.2,V,A*67
$IIRMC,164638,A,4630.069,N,00640.290,E,01.2,270,070508,,,A*4C
$IIVHW,,,265,M,00.1,N,,*64
$IIDPT,010.4,-1.0,*45
$IIGLL,4630.069,N,00640.290,E,164638,A,A*59
$IIHDG,265,,,,*56
$IIMTW,+12.0,C*3B
$IIRMC,164638,A,4630.069,N,00640.290,E,01.2,270,070508,,,A*4C
$IIVHW,,,263,M,00.1,N,,*62
$IIDPT,010.4,-1.0,*45
$IIGLL,4630.069,N,00640.289,E,164640,A,A*5E
$IIHDG,263,,,,*50
$IIMTW,+12.0,C*3B
$IIRMB,A,0.04,L,,VIDY,,,,,002.65,283,01.2,V,A*64
$IIRMC,164640,A,4630.069,N,00640.289,E,01.2,267,070508,,,A*4D
$IIVHW,,,262,M,00.1,N,,*63
$IIDPT,010.4,-1.0,*45
$IIGLL,4630.069,N,00640.289,E,164640,A,A*5E
$IIHDG,262,,,,*51
$IIMTW,+12.0,C*3B
$IIRMC,164640,A,4630.069,N,00640.289,E,01.2,267,070508,,,A*4D
$IIVHW,,,261,M,00.0,N,,*61
$IIDPT,010.4,-1.0,*45
$IIGLL,4630.069,N,00640.288,E,164642,A,A*5D
$IIHDG,261,,,,*52
$IIMTW,+12.0,C*3B
$IIRMB,A,0.04,L,,VIDY,,,,,002.65,283,01.2,V,A*64
$IIRMC,164642,A,4630.069,N,00640.288,E,01.2,264,070508,,,A*4D
$IIVHW,,,260,M,00.0,N,,*60
$IIDPT,010.4,-1.0,*45
$IIGLL,4630.069,N,00640.288,E,164642,A,A*5D
$IIHDG,260,,,,*53
$IIMTW,+12.0,C*3B
$IIRMC,164642,A,4630.069,N,00640.288,E,01.2,264,070508,,,A*4D
$IIVHW,,,258,M,00.0,N,,*6B
$IIDPT,010.4,-1.0,*45
$IIGLL,4630.069,N,00640.287,E,164644,A,A*54
$IIHDG,258,,,,*58
$IIMTW,+12.0,C*3B
$IIRMB,A,0.04,L,,VIDY,,,,,002.65,283,01.1,V,A*67
$IIRMC,164644,A,4630.069,N,00640.287,E,01.2,262,070508,,,A*42
$IIVHW,,,257,M,00.0,N,,*64
$IIDPT,010.5,-1.0,*44
$IIGLL,4630.069,N,00640.287,E,164644,A,A*54
$IIHDG,257,,,,*57
$IIMTW,+12.0,C*3B
$IIRMC,164644,A,4630.069,N,00640.287,E,01.2,262,070508,,,A*42
$IIVHW,,,255,M,00.0,N,,*66
$IIDPT,010.5,-1.0,*44
$IIGLL,4630.069,N,00640.286,E,164646,A,A*57
$IIHDG,255,,,,*55
$IIMTW,+12.0,C*3B
$IIRMB,A,0.04,L,,VIDY,,,,,002.65,283,01.1,V,A*67
$IIRMC,164646,A,4630.069,N,00640.286,E,01.1,258,070508,,,A*4B
$IIVHW,,,253,M,00.0,N,,*60
$IIDPT,010.5,-1.0,*44
$IIGLL,4630.069,N,00640.286,E,164646,A,A*57
$IIHDG,253,,,,*53
$IIMTW,+12.0,C*3B
$IIRMC,164646,A,4630.069,N,00640.286,E,01.1,258,070508,,,A*4B
$IIVHW,,,251,M,00.0,N,,*62
$IIDPT,010.5,-1.0,*44
$IIGLL,4630.069,N,00640.285,E,164648,A,A*5A
$IIHDG,251,,,,*51
$IIMTW,+12.0,C*3B
$IIRMB,A,0.04,L,,VIDY,,,,,002.65,283,01.0,V,A*66
$IIRMC,164648,A,4630.069,N,00640.285,E,01.2,254,070508,,,A*49
$IIVHW,,,249,M,00.0,N,,*6B
$IIDPT,050.2,-1.0,*47
$IIGLL,4630.069,N,00640.285,E,164648,A,A*5A
$IIHDG,249,,,,*58
$IIMTW,+12.0,C*3B
$IIRMC,164648,A,4630.069,N,00640.285,E,01.2,254,070508,,,A*49
$IIVHW,,,246,M,00.0,N,,*64
$IIDPT,050.2,-1.0,*47
$IIGLL,4630.069,N,00640.284,E,164650,A,A*52
$IIHDG,246,,,,*57
$IIMTW,+12.0,C*3B
$IIRMB,A,0.03,L,,VIDY,,,,,002.65,283,01.1,V,A*60
$IIRMC,164650,A,4630.069,N,00640.284,E,01.1,259,070508,,,A*4F
$IIVHW,,,244,M,00.0,N,,*66
$IIDPT,049.0,-1.0,*4D
$IIGLL,4630.069,N,00640.284,E,164650,A,A*52
$IIHDG,244,,,,*55
$IIMTW,+12.0,C*3B
$IIRMC,164650,A,4630.069,N,00640.284,E,01.1,259,070508,,,A*4F
$IIVHW,,,242,M,00.0,N,,*60
$IIDPT,048.4,-1.0,*48
$IIGLL,4630.069,N,00640.283,E,164652,A,A*57
$IIHDG,242,,,,*53
$IIMTW,+12.0,C*3B
$IIRMB,A,0.03,L,,VIDY,,,,,002.65,283,00.9,V,A*69
$IIRMC,164652,A,4630.069,N,00640.283,E,01.1,247,070508,,,A*45
$IIVHW,,,240,M,00.0,N,,*62
$IIDPT,048.4,-1.0,*48
$IIGLL,4630.069,N,00640.283,E,164652,A,A*57
$IIHDG,240,,,,*51
$IIMTW,+12.0,C*3B
$IIRMC,164652,A,4630.069,N,00640.283,E,01.1,247,070508,,,A*45
$IIVHW,,,236,M,00.0,N,,*63
$IIDPT,048.4,-1.0,*48
$IIGLL,4630.068,N,00640.282,E,164654,A,A*51
$IIHDG,236,,,,*50
$IIMTW,+12.0,C*3B
$IIRMB,A,0.03,L,,VIDY,,,,,002.65,283,00.9,V,A*69
$IIRMC,164654,A,4630.068,N,00640.282,E,01.0,247,070508,,,A*42
$IIVHW,,,235,M,00.0,N,,*60
$IIDPT,010.7,-1.0,*46
$IIGLL,4630.068,N,00640.282,E,164654,A,A*51
$IIHDG,235,,,,*53
$IIMTW,+12.0,C*3B
$IIRMC,164654,A,4630.068,N,00640.282,E,01.0,247,070508,,,A*42
$IIVHW,,,233,M,00.0,N,,*66
$IIDPT,010.7,-1.0,*46
$IIGLL,4630.068,N,00640.282,E,164656,A,A*53
$IIHDG,233,,,,*55
$IIMTW,+12.0,C*3B
$IIRMB,A,0.03,L,,VIDY,,,,,002.65,283,00.7,V,A*67
$IIRMC,164656,A,4630.068,N,00640.282,E,01.0,234,070508,,,A*44
$IIVHW,,,230,M,00.0,N,,*65
$IIDPT,010.7,-1.0,*46
$IIGLL,4630.068,N,00640.282,E,164656,A,A*53
$IIHDG,230,,,,*56
$IIMTW,+12.0,C*3B
$IIRMC,164656,A,4630.068,N,00640.282,E,01.0,234,070508,,,A*44
$IIVHW,,,228,M,00.0,N,,*6C
$IIDPT,010.6,-1.0,*47
$IIGLL,4630.068,N,00640.281,E,164658,A,A*5E
$IIHDG,228,,,,*5F
$IIMTW,+12.0,C*3B
$IIRMB,A,0.03,L,,VIDY,,,,,002.65,283,00.6,V,A*66
$IIRMC,164658,A,4630.068,N,00640.281,E,01.0,229,070508,,,A*45
$USSSL*4A
$IIVHW,,,226,M,00.0,N,,*62
$IIDPT,010.5,-1.0,*44
$IIGLL,4630.068,N,00640.281,E,164658,A,A*5E
$IIHDG,226,,,,*51
$IIMTW,+12.0,C*3B
$IIRMC,164658,A,4630.068,N,00640.281,E,01.0,229,070508,,,A*45
$IIVHW,,,223,M,00.0,N,,*67
$IIDPT,010.5,-1.0,*44
$IIGLL,4630.067,N,00640.281,E,164700,A,A*5D
$IIHDG,223,,,,*54
$IIMTW,+12.0,C*3B
$IIRMB,A,0.03,L,,VIDY,,,,,002.65,283,00.5,V,A*65
$IIRMC,164700,A,4630.067,N,00640.281,E,00.9,223,070508,,,A*44
$IIVHW,,,220,M,00.0,N,,*64
$IIDPT,010.3,-1.0,*42
$IIGLL,4630.067,N,00640.281,E,164700,A,A*5D
$IIHDG,220,,,,*57
$IIMTW,+12.0,C*3B
$IIRMC,164700,A,4630.067,N,00640.281,E,00.9,223,070508,,,A*44
$IIVHW,,,218,M,00.0,N,,*6F
$IIDPT,010.3,-1.0,*42
$IIGLL,4630.067,N,00640.280,E,164702,A,A*5E
$IIHDG,218,,,,*5C
$IIMTW,+12.0,C*3B
$IIRMB,A,0.03,L,,VIDY,,,,,002.65,283,00.4,V,A*64
$IIRMC,164702,A,4630.067,N,00640.280,E,00.9,218,070508,,,A*4F
$IIVHW,,,215,M,00.0,N,,*62
$IIDPT,010.3,-1.0,*42
$IIGLL,4630.067,N,00640.280,E,164702,A,A*5E
$IIHDG,215,,,,*51
$IIMTW,+12.0,C*3B
$IIRMC,164702,A,4630.067,N,00640.280,E,00.9,218,070508,,,A*4F
$IIVHW,,,213,M,00.0,N,,*64
$IIDPT,010.3,-1.0,*42
$IIGLL,4630.067,N,00640.280,E,164704,A,A*58
$IIHDG,213,,,,*57
$IIMTW,+12.0,C*3B
$IIRMB,A,0.03,L,,VIDY,,,,,002.65,283,00.3,V,A*63
$IIRMC,164704,A,4630.067,N,00640.280,E,00.9,213,070508,,,A*42
$IIVHW,,,211,M,00.0,N,,*66
$IIDPT,010.3,-1.0,*42
$IIGLL,4630.067,N,00640.280,E,164704,A,A*58
$IIHDG,211,,,,*55
$IIMTW,+12.0,C*3B
$IIRMC,164704,A,4630.067,N,00640.280,E,00.9,213,070508,,,A*42
$IIVHW,,,208,M,00.0,N,,*6E
$IIDPT,010.3,-1.0,*42
$IIGLL,4630.066,N,00640.279,E,164706,A,A*5D
$IIHDG,208,,,,*5D
$IIMTW,+12.0,C*3B
$IIRMB,A,0.03,L,,VIDY,,,,,002.65,283,00.3,V,A*63
$IIRMC,164706,A,4630.066,N,00640.279,E,00.9,209,070508,,,A*4C
$IIVHW,,,208,M,00.0,N,,*6E
$IIDPT,010.3,-1.0,*42
$IIGLL,4630.066,N,00640.279,E,164706,A,A*5D
$IIHDG,208,,,,*5D
$IIMTW,+12.0,C*3B
$IIRMC,164706,A,4630.066,N,00640.279,E,00.9,209,070508,,,A*4C
$IIVHW,,,205,M,00.0,N,,*63
$IIDPT,010.2,-1.0,*43
$IIGLL,4630.066,N,00640.279,E,164708,A,A*53
$IIHDG,205,,,,*50
$IIMTW,+12.0,C*3B
$IIRMB,A,0.03,L,,VIDY,,,,,002.65,283,00.2,V,A*62
$IIRMC,164708,A,4630.066,N,00640.279,E,00.9,205,070508,,,A*4E
$IIVHW,,,201,M,00.0,N,,*67
$IIDPT,010.2,-1.0,*43
$IIGLL,4630.065,N,00640.279,E,164710,A,A*59
$IIHDG,201,,,,*54
$IIMTW,+12.0,C*3B
$IIRMB,A,0.03,L,,VIDY,,,,,002.65,283,00.1,V,A*61
$IIRMC,164710,A,4630.065,N,00640.279,E,00.9,199,070508,,,A*42
$IIVHW,,,200,M,00.0,N,,*66
$IIDPT,010.1,-1.0,*40
$IIGLL,4630.065,N,00640.279,E,164710,A,A*59
$IIHDG,200,,,,*55
$IIMTW,+12.0,C*3B
$IIRMC,164710,A,4630.065,N,00640.279,E,00.9,199,070508,,,A*42
$IIVHW,,,197,M,00.0,N,,*6B
$IIDPT,010.1,-1.0,*40
$IIGLL,4630.065,N,00640.279,E,164712,A,A*5B
$IIHDG,197,,,,*58
$IIMTW,+12.0,C*3B
$IIRMB,A,0.03,L,,VIDY,,,,,002.65,283,00.1,V,A*61
$IIRMC,164712,A,4630.065,N,00640.279,E,00.9,194,070508,,,A*4D
$IIVHW,,,197,M,00.0,N,,*6B
$IIDPT,010.3,-1.0,*42
$IIGLL,4630.065,N,00640.279,E,164712,A,A*5B
$IIHDG,197,,,,*58
$IIMTW,+12.0,C*3B
$IIRMC,164712,A,4630.065,N,00640.279,E,00.9,194,070508,,,A*4D
$IIVHW,,,195,M,00.0,N,,*69
$IIDPT,010.3,-1.0,*42
$IIGLL,4630.064,N,00640.279,E,164714,A,A*5C
$IIHDG,195,,,,*5A
$IIMTW,+12.0,C*3B
$IIRMB,A,0.03,L,,VIDY,,,,,002.65,283,00.0,V,A*60
$IIRMC,164714,A,4630.064,N,00640.279,E,00.9,190,070508,,,A*4E
$IIVHW,,,192,M,00.0,N,,*6E
$IIDPT,010.3,-1.0,*42
$IIGLL,4630.064,N,00640.279,E,164714,A,A*5C
$IIHDG,192,,,,*5D
$IIMTW,+12.0,C*3B
$IIRMC,164714,A,4630.064,N,00640.279,E,00.9,190,070508,,,A*4E
$IIVHW,,,192,M,00.0,N,,*6E
$IIDPT,010.3,-1.0,*42
$IIGLL,4630.064,N,00640.278,E,164716,A,A*5F
$IIHDG,192,,,,*5D
$IIMTW,+12.0,C*3B
$IIRMB,A,0.03,L,,VIDY,,,,,002.65,283,00.0,V,A*60
$IIRMC,164716,A,4630.064,N,00640.278,E,00.9,189,070508,,,A*45
$IIVHW,,,190,M,00.0,N,,*6C
$IIDPT,010.3,-1.0,*42
$IIGLL,4630.064,N,00640.278,E,164716,A,A*5F
$IIHDG,190,,,,*5F
$IIMTW,+12.0,C*3B
$IIRMC,164716,A,4630.064,N,00640.278,E,00.9,189,070508,,,A*45
$IIVHW,,,189,M,00.0,N,,*64
$IIDPT,010.3,-1.0,*42
$IIGLL,4630.063,N,00640.278,E,164718,A,A*56
$IIHDG,189,,,,*57
$IIMTW,+12.0,C*3B
$IIRMB,A,0.03,L,,VIDY,,,,,002.65,283,-00.1,V,A*4C
$IIRMC,164718,A,4630.063,N,00640.278,E,00.9,187,070508,,,A*42
$IIVHW,,,188,M,00.0,N,,*65
$IIDPT,010.3,-1.0,*42
$IIGLL,4630.063,N,00640.278,E,164718,A,A*56
$IIHDG,188,,,,*56
$IIMTW,+12.0,C*3B
$IIRMC,164718,A,4630.063,N,00640.278,E,00.9,187,070508,,,A*42
$IIVHW,,,187,M,00.0,N,,*6A
$IIDPT,010.3,-1.0,*42
$IIGLL,4630.063,N,00640.278,E,164720,A,A*5D
$IIHDG,187,,,,*59
$IIMTW,+12.0,C*3B
$IIRMB,A,0.03,L,,VIDY,,,,,002.65,283,-00.2,V,A*4F
$IIRMC,164720,A,4630.063,N,00640.278,E,00.8,184,070508,,,A*4B
$IIVHW,,,186,M,00.0,N,,*6B
$IIDPT,010.3,-1.0,*42
$IIGLL,4630.063,N,00640.278,E,164720,A,A*5D
$IIHDG,186,,,,*58
$IIMTW,+12.0,C*3B
$IIRMC,164720,A,4630.063,N,00640.278,E,00.8,184,070508,,,A*4B
$IIVHW,,,185,M,00.0,N,,*68
$IIDPT,010.3,-1.0,*42
$IIGLL,4630.062,N,00640.278,E,164722,A,A*5E
$IIHDG,185,,,,*5B
$IIMTW,+12.0,C*3B
$IIRMB,A,0.03,L,,VIDY,,,,,002.65,283,-00.2,V,A*4F
$IIRMC,164722,A,4630.062,N,00640.278,E,00.9,183,070508,,,A*4E
$IIVHW,,,185,M,00.0,N,,*68
$IIDPT,010.3,-1.0,*42
$IIGLL,4630.062,N,00640.278,E,164722,A,A*5E
$IIHDG,185,,,,*5B
$IIMTW,+12.0,C*3B
$IIRMC,164722,A,4630.062,N,00640.278,E,00.9,183,070508,,,A*4E
$IIVHW,,,185,M,00.0,N,,*68
$IIDPT,010.3,-1.0,*42
$IIGLL,4630.062,N,00640.278,E,164724,A,A*58
$IIHDG,185,,,,*5B
$IIMTW,+12.0,C*3B
$IIRMB,A,0.03,L,,VIDY,,,,,002.65,283,-00.2,V,A*4F
$IIRMC,164724,A,4630.062,N,00640.278,E,00.9,178,070508,,,A*4C
$IIVHW,,,185,M,00.0,N,,*68
$IIDPT,010.3,-1.0,*42
$IIGLL,4630.062,N,00640.278,E,164724,A,A*58
$IIHDG,185,,,,*5B
$IIMTW,+12.0,C*3B
$IIRMC,164724,A,4630.062,N,00640.278,E,00.9,178,070508,,,A*4C
$IIVHW,,,184,M,00.0,N,,*69
$IIDPT,056.3,-1.0,*40
$IIGLL,4630.061,N,00640.278,E,164726,A,A*59
$IIHDG,184,,,,*5A
$IIMTW,+12.5,C*3E
$IIRMB,A,0.03,L,,VIDY,,,,,002.65,283,-00.2,V,A*4F
$IIRMC,164726,A,4630.061,N,00640.278,E,00.9,182,070508,,,A*48
$USSSL*4A
$IIVHW,,,184,M,00.0,N,,*69
$IIDPT,056.3,-1.0,*40
$IIGLL,4630.061,N,00640.278,E,164726,A,A*59
$IIHDG,184,,,,*5A
$IIMTW,+12.5,C*3E
$IIRMC,164726,A,4630.061,N,00640.278,E,00.9,182,070508,,,A*48
$IIVHW,,,184,M,00.0,N,,*69
$IIDPT,056.3,-1.0,*40
$IIGLL,4630.061,N,00640.278,E,164728,A,A*57
$IIHDG,184,,,,*5A
$IIMTW,+12.5,C*3E
$IIRMB,A,0.03,L,,VIDY,,,,,002.65,283,-00.3,V,A*4E
$IIRMC,164728,A,4630.061,N,00640.278,E,00.9,183,070508,,,A*47
$IIVHW,,,184,M,00.0,N,,*69
$IIDPT,056.3,-1.0,*40
$IIGLL,4630.061,N,00640.278,E,164728,A,A*57
$IIHDG,184,,,,*5A
$IIMTW,+12.5,C*3E
$IIRMC,164728,A,4630.061,N,00640.278,E,00.9,183,070508,,,A*47
$IIVHW,,,184,M,00.0,N,,*69
$IIDPT,010.7,-1.0,*46
$IIGLL,4630.060,N,00640.278,E,164730,A,A*5F
$IIHDG,184,,,,*5A
$IIMTW,+12.5,C*3E
$IIRMC,164730,A,4630.060,N,00640.278,E,00.8,183,070508,,,A*4E
$IIVHW,,,183,M,00.0,N,,*6E
$IIDPT,010.7,-1.0,*46
$IIGLL,4630.060,N,00640.278,E,164730,A,A*5F
$IIHDG,183,,,,*5D
$IIMTW,+12.5,C*3E
$IIRMC,164730,A,4630.060,N,00640.278,E,00.8,183,070508,,,A*4E
$IIVHW,,,184,M,00.0,N,,*69
$IIDPT,010.7,-1.0,*46
$IIGLL,4630.060,N,00640.278,E,164732,A,A*5D
$IIHDG,184,,,,*5A
$IIMTW,+12.5,C*3E
$IIRMB,A,0.03,L,,VIDY,,,,,002.65,283,-00.2,V,A*4F
$IIRMC,164732,A,4630.060,N,00640.278,E,00.9,181,070508,,,A*4F
$IIVHW,,,184,M,00.0,N,,*69
$IIDPT,010.6,-1.0,*47
$IIGLL,4630.060,N,00640.278,E,164732,A,A*5D
$IIHDG,184,,,,*5A
$IIMTW,+12.5,C*3E
$IIRMC,164732,A,4630.060,N,00640.278,E,00.9,181,070508,,,A*4F
$IIVHW,,,183,M,00.0,N,,*6E
$IIDPT,010.6,-1.0,*47
$IIGLL,4630.059,N,00640.278,E,164734,A,A*51
$IIHDG,183,,,,*5D
$IIMTW,+12.5,C*3E
$IIRMB,A,0.02,L,,VIDY,,,,,002.65,283,-00.2,V,A*4E
$IIRMC,164734,A,4630.059,N,00640.278,E,00.9,182,070508,,,A*40
$IIVHW,,,184,M,00.0,N,,*69
$IIDPT,011.1,-1.0,*41
$IIGLL,4630.059,N,00640.278,E,164734,A,A*51
$IIHDG,184,,,,*5A
$IIMTW,+12.5,C*3E
$IIRMC,164734,A,4630.059,N,00640.278,E,00.9,182,070508,,,A*40
$IIVHW,,,184,M,00.0,N,,*69
$IIDPT,011.1,-1.0,*41
$IIGLL,4630.059,N,00640.278,E,164736,A,A*53
$IIHDG,184,,,,*5A
$IIMTW,+12.5,C*3E
$IIRMB,A,0.02,L,,VIDY,,,,,002.65,283,-00.2,V,A*4E
$IIRMC,164736,A,4630.059,N,00640.278,E,00.9,182,070508,,,A*42
$IIVHW,,,184,M,00.0,N,,*69
$IIDPT,011.1,-1.0,*41
$IIGLL,4630.059,N,00640.278,E,164736,A,A*53
$IIHDG,184,,,,*5A
$IIMTW,+12.5,C*3E
$IIRMC,164736,A,4630.059,N,00640.278,E,00.9,182,070508,,,A*42
$IIVHW,,,184,M,00.0,N,,*69
$IIDPT,011.1,-1.0,*41
$IIGLL,4630.058,N,00640.278,E,164738,A,A*5C
$IIHDG,184,,,,*5A
$IIMTW,+12.5,C*3E
$IIRMB,A,0.02,L,,VIDY,,,,,002.65,283,-00.1,V,A*4D
$IIRMC,164738,A,4630.058,N,00640.278,E,00.9,182,070508,,,A*4D
$IIVHW,,,185,M,00.0,N,,*68
$IIDPT,011.1,-1.0,*41
$IIGLL,4630.058,N,00640.278,E,164738,A,A*5C
$IIHDG,185,,,,*5B
$IIMTW,+12.5,C*3E
$IIRMC,164738,A,4630.058,N,00640.278,E,00.9,182,070508,,,A*4D
$IIVHW,,,185,M,00.0,N,,*68
$IIDPT,011.1,-1.0,*41
$IIGLL,4630.058,N,00640.278,E,164740,A,A*53
$IIHDG,185,,,,*5B
$IIMTW,+12.5,C*3E
$IIRMB,A,0.02,L,,VIDY,,,,,002.65,283,-00.1,V,A*4D
$IIRMC,164740,A,4630.058,N,00640.278,E,00.9,183,070508,,,A*43
$IIVHW,,,185,M,00.0,N,,*68
$IIDPT,011.1,-1.0,*41
$IIGLL,4630.058,N,00640.278,E,164740,A,A*53
$IIHDG,185,,,,*5B
$IIMTW,+12.5,C*3E
$IIRMC,164740,A,4630.058,N,00640.278,E,00.9,183,070508,,,A*43
$IIVHW,,,185,M,00.0,N,,*68
$IIDPT,010.6,-1.0,*47
