$IIHDG,252,,,01,E*16
$IIMWV,098,R,01.7,N,A*14
$IIVHW,,,252,M,,,,*31
$IIVWR,098,R,01.7,N,,,,*66
$IIHDG,233,,,01,E*11
$IIMTW,+00.0,C*38
$IIMWV,123,R,02.7,N,A*16
$IIVHW,,,233,M,00.7,N,,*61
$IIVLW,01527,N,000.0,N*52
$IIVWR,123,R,02.7,N,,,,*64
$IIHDG,220,,,01,E*13
$IIMTW,+15.5,C*39
$IIMWV,161,R,03.9,N,A*1F
$IIMWV,134,T,03.0,N,A*10
$IIVHW,,,220,M,01.1,N,,*64
$IIVLW,01527,N,000.0,N*52
$IIVWR,161,R,03.9,N,,,,*6D
$IIDPT,021.5,-1.0,*46
$IIHDG,213,,,01,E*13
$IIMTW,+15.5,C*39
$IIMWV,190,R,04.4,N,A*1B
$IIMWV,166,T,05.0,N,A*11
$IIVHW,,,213,M,01.5,N,,*60
$IIVLW,01527,N,000.0,N*52
$IIVWR,170,L,04.4,N,,,,*79
$IIDPT,023.0,-1.0,*41
$IIHDG,209,,,01,E*18
$IIMTW,+16.0,C*3F
$IIMWV,204,R,05.0,N,A*10
$IIMWV,187,T,05.8,N,A*16
$IIVHW,,,209,M,01.8,N,,*66
$IIVLW,01527,N,000.0,N*52
$IIVWR,156,L,05.0,N,,,,*78
$IIDPT,023.7,-1.0,*46
$IIHDG,205,,,01,E*14
$IIMTW,+16.0,C*3F
$IIMWV,212,R,05.7,N,A*10
$IIMWV,197,T,06.6,N,A*1A
$IIVHW,,,205,M,02.0,N,,*61
$IIVLW,01527,N,000.0,N*52
$IIVWR,148,L,05.7,N,,,,*70
$IIDPT,025.6,-1.0,*41
$IIHDG,203,,,01,E*12
$IIMTW,+16.0,C*3F
$IIMWV,212,R,06.1,N,A*15
$IIMWV,203,T,07.5,N,A*16
$IIVHW,,,203,M,02.3,N,,*64
$IIVLW,01527,N,000.0,N*52
$IIVWR,148,L,06.1,N,,,,*75
$IIDPT,027.3,-1.0,*46
$IIHDG,201,,,01,E*10
$IIMTW,+16.0,C*3F
$IIMWV,213,R,06.8,N,A*1D
$IIMWV,203,T,08.0,N,A*1C
$IIVHW,,,201,M,02.4,N,,*61
$IIVLW,01527,N,000.0,N*52
$IIVWR,147,L,06.8,N,,,,*73
$IIDPT,027.8,-1.0,*4D
$IIHDG,200,,,01,E*11
$IIMTW,+16.0,C*3F
$IIMWV,211,R,07.1,N,A*17
$IIMWV,204,T,08.9,N,A*12
$IIVHW,,,200,M,02.6,N,,*62
$IIVLW,01527,N,000.0,N*52
$IIVWR,149,L,07.1,N,,,,*75
$IIDPT,027.8,-1.0,*4D
$IIHDG,200,,,01,E*11
$IIMTW,+16.0,C*3F
$IIMWV,217,R,07.4,N,A*14
$IIMWV,202,T,09.5,N,A*19
$IIVHW,,,200,M,02.7,N,,*63
$IIVLW,01527,N,000.0,N*52
$IIVWR,143,L,07.4,N,,,,*7A
$IIDPT,026.9,-1.0,*4D
$IIHDG,198,,,01,E*13
$IIMTW,+16.0,C*3F
$IIMWV,218,R,07.4,N,A*1B
$IIMWV,207,T,09.7,N,A*1E
$IIVHW,,,198,M,02.9,N,,*6F
$IIVLW,01527,N,000.0,N*52
$IIVWR,142,L,07.4,N,,,,*7B
$IIDPT,027.7,-1.0,*42
$IIHDG,198,,,01,E*13
$IIMTW,+16.0,C*3F
$IIMWV,215,R,07.3,N,A*11
$IIMWV,207,T,09.7,N,A*1E
$IIVHW,,,198,M,03.0,N,,*67
$IIVLW,01527,N,000.0,N*52
$IIVWR,145,L,07.3,N,,,,*7B
$IIDPT,026.6,-1.0,*42
$IIHDG,198,,,01,E*13
$IIMTW,+16.0,C*3F
$IIMWV,214,R,07.1,N,A*12
$IIMWV,205,T,09.7,N,A*1C
$IIVHW,,,198,M,03.0,N,,*67
$IIVLW,01527,N,000.0,N*52
$IIVWR,146,L,07.1,N,,,,*7A
$IIDPT,025.2,-1.0,*45
$IIHDG,197,,,01,E*1C
$IIMTW,+16.0,C*3F
$IIMWV,218,R,06.8,N,A*16
$IIMWV,204,T,09.7,N,A*1D
$IIVHW,,,197,M,03.1,N,,*69
$IIVLW,01527,N,000.0,N*52
$IIVWR,142,L,06.8,N,,,,*76
$IIDPT,025.2,-1.0,*45
$IIHDG,197,,,01,E*1C
$IIMTW,+16.0,C*3F
$IIMWV,220,R,06.7,N,A*12
$IIMWV,207,T,09.3,N,A*1A
$IIVHW,,,197,M,03.1,N,,*69
$IIVLW,01527,N,000.0,N*52
$IIVWR,140,L,06.7,N,,,,*7B
$IIDPT,025.2,-1.0,*45
$IIHDG,197,,,01,E*1C
$IIMTW,+16.5,C*3A
$IIMWV,222,R,06.8,N,A*1F
$IIMWV,207,T,09.3,N,A*1A
$IIVHW,,,197,M,03.2,N,,*6A
$IIVLW,01527,N,000.0,N*52
$IIVWR,138,L,06.8,N,,,,*7B
$IIDPT,025.2,-1.0,*45
$IIHDG,197,,,01,E*1C
$IIMTW,+16.5,C*3A
$IIMWV,225,R,06.8,N,A*18
$IIMWV,209,T,09.3,N,A*14
$IIVHW,,,197,M,03.2,N,,*6A
$IIVLW,01527,N,000.0,N*52
$IIVWR,135,L,06.8,N,,,,*76
$IIDPT,014.5,-1.0,*40
$IIHDG,195,,,01,E*1E
$IIMTW,+16.5,C*3A
$IIMWV,228,R,06.9,N,A*14
$IIMWV,211,T,09.4,N,A*1A
$IIVHW,,,195,M,03.3,N,,*69
$IIVLW,01527,N,000.0,N*52
$IIVWR,132,L,06.9,N,,,,*70
$IIDPT,014.5,-1.0,*40
$IIHDG,192,,,01,E*19
$IIMTW,+16.5,C*3A
$IIMWV,230,R,06.9,N,A*1D
$IIMWV,213,T,09.4,N,A*18
$IIVHW,,,192,M,03.3,N,,*6E
$IIVLW,01527,N,000.0,N*52
$IIVWR,130,L,06.9,N,,,,*72
$IIDPT,029.6,-1.0,*4D
$IIHDG,192,,,01,E*19
$IIMTW,+16.5,C*3A
$IIMWV,233,R,06.7,N,A*10
$IIMWV,214,T,09.3,N,A*18
$IIVHW,,,192,M,03.3,N,,*6E
$IIVLW,01527,N,000.0,N*52
$IIVWR,127,L,06.7,N,,,,*7A
$IIDPT,029.6,-1.0,*4D
$IIHDG,190,,,01,E*1B
$IIMTW,+16.5,C*3A
$IIMWV,237,R,06.6,N,A*15
$IIMWV,216,T,09.1,N,A*18
$IIVHW,,,190,M,03.3,N,,*6C
$IIVLW,01527,N,000.0,N*52
$IIVWR,123,L,06.6,N,,,,*7F
$IIDPT,029.6,-1.0,*4D
$IIHDG,189,,,01,E*13
$IIMTW,+16.0,C*3F
$IIMWV,243,R,06.6,N,A*16
$IIMWV,223,T,08.5,N,A*1B
$IIVHW,,,189,M,03.4,N,,*63
$IIVLW,01527,N,000.0,N*52
$IIVWR,109,L,06.7,N,,,,*76
$IIDPT,014.5,-1.0,*40
$IIHDG,189,,,01,E*13
$IIMTW,+16.0,C*3F
$IIMWV,251,R,06.7,N,A*14
$IIMWV,228,T,08.4,N,A*11
$IIVHW,,,185,M,03.4,N,,*6F
$IIVLW,01527,N,000.0,N*52
$IIVWR,105,L,06.9,N,,,,*74
$IIDPT,014.5,-1.0,*40
$IIHDG,185,,,01,E*1F
$IIMTW,+16.5,C*3A
$IIMWV,255,R,06.9,N,A*1E
$IIMWV,232,T,08.3,N,A*1D
$IIVHW,,,183,M,03.4,N,,*69
$IIVLW,01527,N,000.0,N*52
$IIVWR,102,L,07.1,N,,,,*7A
$IIDPT,014.5,-1.0,*40
$IIHDG,183,,,01,E*19
$IIMTW,+16.5,C*3A
$IIMWV,258,R,07.1,N,A*1A
$IIMWV,235,T,08.4,N,A*1D
$IIVHW,,,181,M,03.4,N,,*6B
$IIVLW,01527,N,000.0,N*52
$IIVWR,101,L,07.2,N,,,,*7A
$IIDPT,014.5,-1.0,*40
$IIHDG,181,,,01,E*1B
$IIMTW,+16.5,C*3A
$IIMWV,259,R,07.2,N,A*18
$IIMWV,236,T,08.4,N,A*1E
$IIVHW,,,179,M,03.4,N,,*6C
$IIVLW,01527,N,000.0,N*52
$IIVWR,102,L,07.3,N,,,,*78
$IIDPT,014.5,-1.0,*40
$IIHDG,179,,,01,E*1C
$IIMTW,+16.5,C*3A
$IIMWV,258,R,07.3,N,A*18
$IIMWV,235,T,08.6,N,A*1F
$IIVHW,,,175,M,03.4,N,,*60
$IIVLW,01527,N,000.0,N*52
$IIVWR,100,L,07.3,N,,,,*7A
$IIDPT,032.2,-1.0,*43
$IIHDG,175,,,01,E*10
$IIMTW,+16.5,C*3A
$IIMWV,260,R,07.3,N,A*13
$IIMWV,237,T,08.5,N,A*1E
$IIVHW,,,172,M,03.4,N,,*67
$IIVLW,01527,N,000.0,N*52
$IIVWR,096,L,07.4,N,,,,*73
$IIDPT,032.7,-1.0,*46
$IIHDG,172,,,01,E*17
$IIMTW,+16.5,C*3A
$IIMWV,264,R,07.4,N,A*10
$IIMWV,240,T,08.4,N,A*1F
$IIVHW,,,168,M,03.4,N,,*6C
$IIVLW,01527,N,000.0,N*52
$IIVWR,091,L,07.4,N,,,,*74
$IIDPT,032.7,-1.0,*46
$IIHDG,168,,,01,E*1C
$IIMTW,+16.0,C*3F
$IIMWV,269,R,07.4,N,A*1D
$IIMWV,244,T,08.2,N,A*1D
$IIVHW,,,164,M,03.4,N,,*60
$IIVLW,01527,N,000.0,N*52
$IIVWR,088,L,07.6,N,,,,*7E
$IIDPT,032.7,-1.0,*46
$IIHDG,164,,,01,E*10
$IIMTW,+16.0,C*3F
$IIMWV,272,R,07.6,N,A*15
$IIMWV,247,T,08.2,N,A*1E
$IIVHW,,,160,M,03.4,N,,*64
$IIVLW,01527,N,000.0,N*52
$IIVWR,085,L,08.0,N,,,,*7A
$IIDPT,032.7,-1.0,*46
$IIHDG,160,,,01,E*14
$IIMTW,+16.0,C*3F
$IIMWV,275,R,08.0,N,A*1B
$IIMWV,251,T,08.4,N,A*1F
$IIVHW,,,155,M,03.4,N,,*62
$IIVLW,01527,N,000.0,N*52
$IIVWR,082,L,08.3,N,,,,*7E
$IIDPT,014.5,-1.0,*40
$IIHDG,155,,,01,E*12
$IIMTW,+16.0,C*3F
$IIMWV,278,R,08.3,N,A*15
$IIMWV,254,T,08.5,N,A*1B
$IIVHW,,,151,M,03.5,N,,*67
$IIVLW,01527,N,000.0,N*52
$IIVWR,078,L,08.7,N,,,,*7F
$IIDPT,014.5,-1.0,*40
$IIHDG,151,,,01,E*16
$IIMTW,+16.0,C*3F
$IIMWV,282,R,08.7,N,A*14
$IIMWV,259,T,08.6,N,A*15
$IIVHW,,,147,M,03.5,N,,*60
$IIVLW,01527,N,000.0,N*52
$IIVWR,075,L,09.1,N,,,,*75
$IIDPT,014.5,-1.0,*40
$IIHDG,147,,,01,E*11
$IIMTW,+16.5,C*3A
$IIMWV,285,R,09.1,N,A*14
$IIMWV,262,T,08.8,N,A*13
$IIVHW,,,143,M,03.5,N,,*64
$IIVLW,01527,N,000.0,N*52
$IIVWR,072,L,09.5,N,,,,*76
$IIDPT,014.5,-1.0,*40
$IIHDG,143,,,01,E*15
$IIMTW,+16.5,C*3A
$IIMWV,288,R,09.5,N,A*1D
$IIMWV,266,T,09.0,N,A*1E
$IIVHW,,,140,M,03.5,N,,*67
$IIVLW,01527,N,000.0,N*52
$IIVWR,068,L,09.8,N,,,,*70
$IIDPT,014.5,-1.0,*40
$IIHDG,140,,,01,E*16
$IIMTW,+16.5,C*3A
$IIMWV,292,R,09.8,N,A*1B
$IIMWV,270,T,09.1,N,A*18
$IIVHW,,,135,M,03.5,N,,*65
$IIVLW,01527,N,000.0,N*52
$IIVWR,066,L,09.8,N,,,,*7E
$IIDPT,014.5,-1.0,*40
$IIHDG,135,,,01,E*14
$IIMTW,+16.5,C*3A
$IIMWV,294,R,09.8,N,A*1D
$IIMWV,273,T,08.9,N,A*12
$IIVHW,,,131,M,03.5,N,,*61
$IIVLW,01527,N,000.0,N*52
$IIVWR,062,L,09.9,N,,,,*7B
$IIDPT,034.5,-1.0,*42
$IIHDG,131,,,01,E*10
$IIMTW,+16.5,C*3A
$IIMWV,298,R,09.9,N,A*10
$IIMWV,277,T,08.7,N,A*18
$IIVHW,,,127,M,03.4,N,,*67
$IIVLW,01527,N,000.0,N*52
$IIVWR,057,L,10.1,N,,,,*7D
$IIDPT,035.9,-1.0,*4F
$IIHDG,127,,,01,E*17
$IIMTW,+16.5,C*3A
$IIMWV,303,R,10.1,N,A*13
$IIMWV,283,T,08.6,N,A*12
$IIVHW,,,121,M,03.3,N,,*66
$IIVLW,01527,N,000.0,N*52
$IIVWR,053,L,10.7,N,,,,*7F
$IIDPT,035.9,-1.0,*4F
$IIHDG,121,,,01,E*11
$IIMTW,+16.5,C*3A
$IIMWV,307,R,10.7,N,A*11
$IIMWV,290,T,09.0,N,A*17
$IIVHW,,,117,M,03.3,N,,*63
$IIVLW,01527,N,000.0,N*52
$IIVWR,050,L,11.2,N,,,,*78
$IIDPT,036.1,-1.0,*44
$IIHDG,117,,,01,E*14
$IIMTW,+16.5,C*3A
$IIMWV,310,R,11.2,N,A*13
$IIMWV,294,T,09.4,N,A*17
$IIVHW,,,115,M,03.2,N,,*60
$IIVLW,01527,N,000.0,N*52
$IIVWR,046,L,11.5,N,,,,*78
$IIDPT,036.1,-1.0,*44
$IIHDG,115,,,01,E*16
$IIMTW,+16.5,C*3A
$IIMWV,314,R,11.5,N,A*10
$IIMWV,299,T,09.4,N,A*1A
$IIVHW,,,112,M,03.2,N,,*67
$IIVLW,01527,N,000.0,N*52
$IIVWR,043,L,11.8,N,,,,*70
$IIDPT,036.7,-1.0,*42
$IIHDG,112,,,01,E*11
$IIMTW,+16.5,C*3A
$IIMWV,317,R,11.8,N,A*1E
$IIMWV,304,T,09.6,N,A*1D
$IIVHW,,,110,M,03.2,N,,*65
$IIVLW,01527,N,000.0,N*52
$IIVWR,043,L,12.4,N,,,,*7F
$IIDPT,035.5,-1.0,*43
$IIHDG,110,,,01,E*13
$IIMTW,+16.0,C*3F
$IIMWV,317,R,12.4,N,A*11
$IIMWV,305,T,10.2,N,A*10
$IIRMC,164536,A,4630.030,N,00641.046,E,03.4,100,250614,01,E,A*0F
$IIVHW,,,107,M,03.1,N,,*60
$IIVLW,01527,N,000.0,N*52
$IIVWR,044,L,12.6,N,,,,*7A
$IIDPT,035.3,-1.0,*45
$IIGLL,4630.030,N,00641.046,E,164536,A,A*50
$IIHDG,107,,,01,E*15
$IIMTW,+16.0,C*3F
$IIMWV,318,R,12.7,N,A*1D
$IIMWV,304,T,10.3,N,A*10
$IIRMC,164537,A,4630.030,N,00641.050,E,03.1,105,250614,01,E,A*09
$IIVHW,,,105,M,03.1,N,,*62
$IIVLW,01527,N,000.0,N*52
$IIVWR,042,L,12.7,N,,,,*7D
$IIDPT,035.3,-1.0,*45
$IIGLL,4630.030,N,00641.050,E,164537,A,A*56
$IIHDG,105,,,01,E*17
$IIMTW,+16.0,C*3F
$IIMWV,319,R,12.7,N,A*1C
$IIMWV,306,T,10.5,N,A*14
$IIRMC,164538,A,4630.030,N,00641.054,E,03.1,102,250614,01,E,A*05
$IIVHW,,,104,M,03.1,N,,*63
$IIVLW,01527,N,000.0,N*52
$IIVWR,041,L,12.7,N,,,,*7E
$IIDPT,035.0,-1.0,*46
$IIGLL,4630.030,N,00641.054,E,164538,A,A*5D
$IIHDG,103,,,01,E*11
$IIMTW,+16.0,C*3F
$IIMWV,321,R,12.6,N,A*16
$IIMWV,308,T,10.4,N,A*1B
$IIRMC,164539,A,4630.030,N,00641.056,E,03.3,102,250614,01,E,A*04
$IIVHW,,,103,M,03.0,N,,*65
$IIVLW,01527,N,000.0,N*52
$IIVWR,039,L,12.6,N,,,,*70
$IIDPT,035.2,-1.0,*44
$IIGLL,4630.030,N,00641.059,E,164540,A,A*5F
$IIHDG,101,,,01,E*13
$IIMTW,+16.0,C*3F
$IIMWV,323,R,12.6,N,A*14
$IIMWV,310,T,10.3,N,A*15
$IIRMC,164540,A,4630.030,N,00641.059,E,02.9,109,250614,01,E,A*05
$IIVHW,,,101,M,02.9,N,,*6F
$IIVLW,01527,N,000.0,N*52
$IIVWR,037,L,12.6,N,,,,*7E
$IIDPT,035.2,-1.0,*44
$IIGLL,4630.030,N,00641.060,E,164541,A,A*54
$IIHDG,101,,,01,E*13
$IIMTW,+16.0,C*3F
$IIMWV,325,R,12.9,N,A*1D
$IIMWV,313,T,10.2,N,A*17
$IIRMC,164541,A,4630.030,N,00641.060,E,03.2,097,250614,01,E,A*02
$IIVHW,,,101,M,02.8,N,,*6E
$IIVLW,01527,N,000.0,N*52
$IIVWR,034,L,12.9,N,,,,*72
$IIDPT,014.5,-1.0,*40
$IIGLL,4630.030,N,00641.061,E,164542,A,A*56
$IIHDG,101,,,01,E*13
$IIMTW,+15.5,C*39
$IIMWV,326,R,12.9,N,A*1E
$IIMWV,316,T,10.5,N,A*15
$IIRMC,164542,A,4630.030,N,00641.061,E,02.9,106,250614,01,E,A*03
$IIVHW,,,101,M,02.7,N,,*61
$IIVLW,01527,N,000.1,N*53
$IIVWR,036,L,13.0,N,,,,*78
$IIDPT,014.5,-1.0,*40
$IIGLL,4630.029,N,00641.062,E,164543,A,A*5C
$IIHDG,102,,,01,E*10
$IIMTW,+15.5,C*39
$IIMWV,324,R,13.0,N,A*14
$IIMWV,318,T,10.6,N,A*18
$IIRMC,164543,A,4630.029,N,00641.062,E,02.9,106,250614,01,E,A*09
$IIVHW,,,102,M,02.7,N,,*62
$IIVLW,01527,N,000.1,N*53
$IIVWR,037,L,12.9,N,,,,*71
$IIDPT,014.5,-1.0,*40
$IIGLL,4630.029,N,00641.064,E,164544,A,A*5D
$IIHDG,102,,,01,E*10
$IIMTW,+16.0,C*3F
$IIMWV,323,R,12.9,N,A*1B
$IIMWV,316,T,10.8,N,A*18
$IIRMC,164545,A,4630.029,N,00641.065,E,02.6,109,250614,01,E,A*08
$IIVHW,,,102,M,02.6,N,,*63
$IIVLW,01527,N,000.1,N*53
$IIVWR,039,L,12.5,N,,,,*73
$IIDPT,014.5,-1.0,*40
$IIGLL,4630.029,N,00641.065,E,164545,A,A*5D
$IIHDG,102,,,01,E*10
$IIMTW,+16.0,C*3F
$IIMWV,321,R,12.5,N,A*15
$IIMWV,312,T,10.4,N,A*10
$IIRMC,164546,A,4630.029,N,00641.066,E,02.4,113,250614,01,E,A*01
$IIVHW,,,103,M,02.6,N,,*62
$IIVLW,01527,N,000.1,N*53
$IIVWR,038,L,12.2,N,,,,*75
$IIDPT,014.5,-1.0,*40
$IIGLL,4630.029,N,00641.066,E,164546,A,A*5D
$IIHDG,103,,,01,E*11
$IIMTW,+16.0,C*3F
$IIMWV,321,R,12.0,N,A*10
$IIMWV,313,T,10.2,N,A*17
$IIRMC,164547,A,4630.028,N,00641.067,E,02.4,113,250614,01,E,A*00
$IIVHW,,,104,M,02.5,N,,*66
$IIVLW,01527,N,000.1,N*53
$IIVWR,039,L,12.0,N,,,,*76
$IIDPT,014.5,-1.0,*40
$IIGLL,4630.028,N,00641.067,E,164547,A,A*5C
$IIHDG,104,,,01,E*16
$IIMTW,+16.0,C*3F
$IIMWV,321,R,12.3,N,A*13
$IIMWV,312,T,10.0,N,A*14
$IIRMC,164548,A,4630.028,N,00641.068,E,02.3,109,250614,01,E,A*0C
$IIVHW,,,104,M,02.5,N,,*66
$IIVLW,01527,N,000.1,N*53
$IIVWR,039,L,12.3,N,,,,*75
$IIDPT,036.3,-1.0,*46
$IIGLL,4630.028,N,00641.068,E,164548,A,A*5C
$IIHDG,103,,,01,E*11
$IIMTW,+16.0,C*3F
$IIMWV,322,R,12.5,N,A*16
$IIMWV,312,T,10.4,N,A*10
$IIRMC,164549,A,4630.028,N,00641.068,E,02.2,105,250614,01,E,A*00
$IIVHW,,,103,M,02.5,N,,*61
$IIVLW,01527,N,000.1,N*53
$IIVWR,038,L,12.5,N,,,,*72
$IIDPT,036.3,-1.0,*46
$IIGLL,4630.028,N,00641.069,E,164550,A,A*54
$IIHDG,102,,,01,E*10
$IIMTW,+16.0,C*3F
$IIMWV,323,R,12.6,N,A*14
$IIMWV,313,T,10.6,N,A*13
$IIRMC,164550,A,4630.028,N,00641.069,E,02.6,097,250614,01,E,A*07
$IIVHW,,,102,M,02.4,N,,*61
$IIVLW,01527,N,000.1,N*53
$IIVWR,037,L,12.6,N,,,,*7E
$IIDPT,014.5,-1.0,*40
$IIGLL,4630.028,N,00641.071,E,164551,A,A*5C
$IIHDG,099,,,01,E*13
$IIMTW,+16.0,C*3F
$IIMWV,324,R,12.7,N,A*12
$IIMWV,315,T,10.6,N,A*15
$IIRMC,164551,A,4630.028,N,00641.071,E,02.2,091,250614,01,E,A*0D
$IIVHW,,,099,M,02.3,N,,*65
$IIVLW,01527,N,000.1,N*53
$IIVWR,034,L,12.9,N,,,,*72
$IIDPT,014.5,-1.0,*40
$IIGLL,4630.028,N,00641.072,E,164552,A,A*5C
$IIHDG,095,,,01,E*1F
$IIMTW,+16.0,C*3F
$IIMWV,326,R,12.9,N,A*1E
$IIMWV,317,T,10.7,N,A*16
$IIRMC,164552,A,4630.028,N,00641.072,E,02.3,092,250614,01,E,A*0F
$IIVHW,,,095,M,02.3,N,,*69
$IIVLW,01527,N,000.1,N*53
$IIVWR,032,L,13.0,N,,,,*7C
$IIDPT,014.5,-1.0,*40
$IIGLL,4630.028,N,00641.073,E,164553,A,A*5C
$IIHDG,091,,,01,E*1B
$IIMTW,+16.0,C*3F
$IIMWV,328,R,13.0,N,A*18
$IIMWV,319,T,11.0,N,A*1E
$IIRMC,164553,A,4630.028,N,00641.073,E,02.3,086,250614,01,E,A*0A
$IIVHW,,,088,M,02.2,N,,*64
$IIVLW,01527,N,000.1,N*53
$IIVWR,030,L,13.0,N,,,,*7E
$IIDPT,014.5,-1.0,*40
$IIGLL,4630.028,N,00641.074,E,164554,A,A*5C
$IIHDG,088,,,01,E*13
$IIMTW,+16.0,C*3F
$IIMWV,330,R,13.0,N,A*11
$IIMWV,322,T,11.0,N,A*16
$IIRMC,164555,A,4630.028,N,00641.075,E,02.2,090,250614,01,E,A*0C
$IIVHW,,,086,M,02.1,N,,*69
$IIVLW,01527,N,000.1,N*53
$IIVWR,030,L,12.8,N,,,,*77
$IIDPT,014.5,-1.0,*40
$IIGLL,4630.028,N,00641.075,E,164555,A,A*5C
$IIHDG,086,,,01,E*1D
$IIMTW,+16.0,C*3F
$IIMWV,330,R,12.8,N,A*18
$IIMWV,324,T,10.9,N,A*18
$IIRMC,164556,A,4630.028,N,00641.076,E,01.4,111,250614,01,E,A*01
$IIVHW,,,084,M,02.1,N,,*6B
$IIVLW,01527,N,000.1,N*53
$IIVWR,029,L,12.9,N,,,,*7E
$IIDPT,014.5,-1.0,*40
$IIGLL,4630.028,N,00641.076,E,164556,A,A*5C
$IIHDG,084,,,01,E*1F
$IIMTW,+16.0,C*3F
$IIMWV,334,R,12.8,N,A*1C
$IIMWV,326,T,10.9,N,A*1A
$IIRMC,164556,A,4630.028,N,00641.076,E,01.4,111,250614,01,E,A*01
$IIVHW,,,082,M,02.0,N,,*6C
$IIVLW,01527,N,000.1,N*53
$IIVWR,026,L,12.8,N,,,,*70
$IIDPT,014.5,-1.0,*40
$IIGLL,4630.028,N,00641.076,E,164556,A,A*5C
$IIHDG,082,,,01,E*19
$IIMTW,+16.0,C*3F
$IIMWV,338,R,12.7,N,A*1F
$IIMWV,329,T,11.0,N,A*1D
$IIRMC,164558,A,4629.979,N,00641.145,E,01.4,099,250614,01,E,A*0A
$IIVHW,,,081,M,01.9,N,,*65
$IIVLW,01527,N,000.1,N*53
$IIVWR,022,L,12.7,N,,,,*7B
$IIDPT,014.5,-1.0,*40
$IIGLL,4629.979,N,00641.145,E,164558,A,A*56
$IIHDG,081,,,01,E*1A
$IIMTW,+16.0,C*3F
$IIMWV,337,R,12.2,N,A*15
$IIMWV,335,T,10.8,N,A*19
$IIRMC,164559,A,4629.979,N,00641.146,E,01.6,100,250614,01,E,A*0B
$IIVHW,,,081,M,01.9,N,,*65
$IIVLW,01527,N,000.1,N*53
$IIVWR,023,L,12.2,N,,,,*7F
$IIDPT,014.5,-1.0,*40
$IIGLL,4629.980,N,00641.147,E,164600,A,A*5C
$IIHDG,079,,,01,E*1D
$IIMTW,+16.0,C*3F
$IIMWV,335,R,11.8,N,A*1E
$IIMWV,333,T,10.4,N,A*13
$IIRMC,164600,A,4629.980,N,00641.147,E,01.8,076,250614,01,E,A*0D
$IIVHW,,,079,M,01.7,N,,*6C
$IIVLW,01527,N,000.1,N*53
$IIVWR,025,L,11.8,N,,,,*70
$IIDPT,014.5,-1.0,*40
$IIGLL,4629.980,N,00641.148,E,164601,A,A*52
$IIHDG,078,,,01,E*1C
$IIMTW,+16.0,C*3F
$IIMWV,334,R,11.4,N,A*13
$IIMWV,331,T,10.1,N,A*14
$IIRMC,164601,A,4629.980,N,00641.148,E,01.8,078,250614,01,E,A*0D
$IIVHW,,,078,M,01.6,N,,*6C
$IIVLW,01527,N,000.1,N*53
$IIVWR,027,L,11.2,N,,,,*78
$IIDPT,014.5,-1.0,*40
$IIGLL,4629.979,N,00641.149,E,164602,A,A*56
$IIHDG,078,,,01,E*1C
$IIMTW,+16.0,C*3F
$IIMWV,333,R,11.2,N,A*12
$IIMWV,329,T,09.8,N,A*1C
$IIRMC,164602,A,4629.979,N,00641.149,E,01.8,084,250614,01,E,A*0A
$IIVHW,,,078,M,01.5,N,,*6F
$IIVLW,01527,N,000.1,N*53
$IIVWR,029,L,10.8,N,,,,*7D
$IIDPT,014.5,-1.0,*40
$IIGLL,4629.979,N,00641.149,E,164603,A,A*57
$IIHDG,077,,,01,E*13
$IIMTW,+16.0,C*3F
$IIMWV,331,R,10.8,N,A*1B
$IIMWV,329,T,09.6,N,A*12
$IIRMC,164603,A,4629.979,N,00641.149,E,01.7,080,250614,01,E,A*00
$IIVHW,,,076,M,01.3,N,,*67
$IIVLW,01527,N,000.1,N*53
$IIVWR,028,L,10.7,N,,,,*73
$IIDPT,014.5,-1.0,*40
$IIGLL,4629.979,N,00641.150,E,164604,A,A*58
$IIHDG,076,,,01,E*12
$IIMTW,+16.0,C*3F
$IIMWV,332,R,10.7,N,A*17
$IIMWV,327,T,09.4,N,A*1E
$IIRMC,164605,A,4629.979,N,00641.150,E,01.8,080,250614,01,E,A*01
$IIVHW,,,076,M,01.3,N,,*67
$IIVLW,01527,N,000.1,N*53
$IIVWR,028,L,10.4,N,,,,*70
$IIDPT,014.5,-1.0,*40
$IIGLL,4629.979,N,00641.150,E,164605,A,A*59
$IIHDG,076,,,01,E*12
$IIMTW,+16.0,C*3F
$IIMWV,332,R,10.4,N,A*14
$IIMWV,328,T,09.1,N,A*14
$IIRMC,164606,A,4629.979,N,00641.150,E,02.1,079,250614,01,E,A*0E
$IIVHW,,,076,M,01.1,N,,*65
$IIVLW,01527,N,000.1,N*53
$IIVWR,026,L,10.3,N,,,,*79
$IIDPT,014.5,-1.0,*40
$IIGLL,4629.979,N,00641.150,E,164606,A,A*5A
$IIHDG,076,,,01,E*12
$IIMTW,+16.0,C*3F
$IIMWV,335,R,10.4,N,A*13
$IIMWV,331,T,09.1,N,A*1C
$IIRMC,164607,A,4629.979,N,00641.151,E,01.8,078,250614,01,E,A*05
$IIVHW,,,076,M,00.9,N,,*6C
$IIVLW,01527,N,000.1,N*53
$IIVWR,025,L,10.4,N,,,,*7D
$IIDPT,014.5,-1.0,*40
$IIGLL,4629.979,N,00641.151,E,164607,A,A*5A
$IIHDG,076,,,01,E*12
$IIMTW,+16.0,C*3F
$IIMWV,337,R,10.5,N,A*10
$IIMWV,333,T,09.4,N,A*1B
$IIRMC,164608,A,4629.978,N,00641.151,E,01.4,073,250614,01,E,A*0C
$IIVHW,,,076,M,00.8,N,,*6D
$IIVLW,01527,N,000.1,N*53
$IIVWR,023,L,10.5,N,,,,*7A
$IIDPT,014.5,-1.0,*40
$IIGLL,4629.978,N,00641.151,E,164608,A,A*54
$IIHDG,076,,,01,E*12
$IIMTW,+16.0,C*3F
$IIMWV,339,R,10.7,N,A*1C
$IIMWV,335,T,09.5,N,A*1C
$IIRMC,164609,A,4629.978,N,00641.151,E,01.3,096,250614,01,E,A*01
$IIVHW,,,076,M,00.6,N,,*63
$IIVLW,01527,N,000.1,N*53
$IIVWR,021,L,10.7,N,,,,*7A
$IIDPT,014.5,-1.0,*40
$IIGLL,4629.978,N,00641.151,E,164609,A,A*55
$IIHDG,076,,,01,E*12
$IIMTW,+16.0,C*3F
$IIMWV,340,R,10.8,N,A*1D
$IIMWV,338,T,09.9,N,A*1D
$IIRMC,164609,A,4629.978,N,00641.151,E,01.3,096,250614,01,E,A*01
$IIVHW,,,076,M,00.5,N,,*60
$IIVLW,01527,N,000.1,N*53
$IIVWR,020,L,10.8,N,,,,*74
$IIDPT,036.4,-1.0,*41
$IIGLL,4629.978,N,00641.152,E,164611,A,A*5F
$IIHDG,076,,,01,E*12
$IIMTW,+15.5,C*39
$IIMWV,338,R,10.9,N,A*13
$IIMWV,339,T,10.1,N,A*1C
$IIRMC,164611,A,4629.978,N,00641.152,E,01.5,078,250614,01,E,A*0D
$IIVHW,,,076,M,00.4,N,,*61
$IIVLW,01527,N,000.1,N*53
$IIVWR,022,L,11.1,N,,,,*7E
$IIDPT,036.8,-1.0,*4D
$IIGLL,4629.978,N,00641.153,E,164612,A,A*5D
$IIHDG,076,,,01,E*12
$IIMTW,+15.5,C*39
$IIMWV,338,R,11.1,N,A*1A
$IIMWV,337,T,10.4,N,A*17
$IIRMC,164612,A,4629.978,N,00641.153,E,01.6,078,250614,01,E,A*0C
$IIVHW,,,076,M,00.3,N,,*66
$IIVLW,01527,N,000.1,N*53
$IIVWR,025,L,11.5,N,,,,*7D
$IIDPT,036.6,-1.0,*43
$IIGLL,4629.978,N,00641.154,E,164613,A,A*5B
$IIHDG,077,,,01,E*13
$IIMTW,+15.5,C*39
$IIMWV,335,R,11.5,N,A*13
$IIMWV,337,T,10.7,N,A*14
$IIRMC,164613,A,4629.978,N,00641.154,E,01.6,079,250614,01,E,A*0B
$IIVHW,,,078,M,00.2,N,,*69
$IIVLW,01527,N,000.1,N*53
$IIVWR,027,L,12.2,N,,,,*7B
$IIDPT,035.9,-1.0,*4F
$IIGLL,4629.978,N,00641.154,E,164614,A,A*5C
$IIHDG,078,,,01,E*1C
$IIMTW,+15.5,C*39
$IIMWV,333,R,12.2,N,A*11
$IIMWV,335,T,11.1,N,A*11
$IIRMC,164615,A,4629.978,N,00641.154,E,01.5,059,250614,01,E,A*0C
$IIVHW,,,078,M,00.2,N,,*69
$IIVLW,01527,N,000.1,N*53
$IIVWR,030,L,12.9,N,,,,*76
$IIDPT,035.9,-1.0,*4F
$IIGLL,4629.978,N,00641.154,E,164615,A,A*5D
$IIHDG,078,,,01,E*1C
$IIMTW,+15.5,C*39
$IIMWV,330,R,12.9,N,A*19
$IIMWV,330,T,12.7,N,A*11
$IIRMC,164616,A,4629.978,N,00641.155,E,01.3,074,250614,01,E,A*07
$IIVHW,,,078,M,00.1,N,,*6A
$IIVLW,01527,N,000.1,N*53
$IIVWR,032,L,13.1,N,,,,*7D
$IIDPT,035.9,-1.0,*4F
$IIGLL,4629.978,N,00641.155,E,164616,A,A*5F
$IIHDG,078,,,01,E*1C
$IIMTW,+15.5,C*39
$IIMWV,325,R,12.9,N,A*1D
$IIMWV,328,T,12.9,N,A*16
$IIRMC,164617,A,4629.978,N,00641.155,E,00.9,086,250614,01,E,A*00
$IIVHW,,,079,M,00.1,N,,*6B
$IIVLW,01527,N,000.1,N*53
$IIVWR,035,L,12.9,N,,,,*73
$IIDPT,035.9,-1.0,*4F
$IIGLL,4629.978,N,00641.155,E,164617,A,A*5E
$IIHDG,079,,,01,E*1D
$IIMTW,+16.0,C*3F
$IIMWV,321,R,12.5,N,A*15
$IIMWV,325,T,12.7,N,A*15
$IIRMC,164618,A,4629.978,N,00641.155,E,00.9,096,250614,01,E,A*0E
$IIVHW,,,080,M,00.1,N,,*6D
$IIVLW,01527,N,000.1,N*53
$IIVWR,039,L,12.5,N,,,,*73
$IIDPT,035.8,-1.0,*4E
$IIGLL,4629.978,N,00641.155,E,164618,A,A*51
$IIHDG,081,,,01,E*1A
$IIMTW,+16.0,C*3F
$IIMWV,320,R,12.3,N,A*12
$IIMWV,321,T,12.3,N,A*15
$IIRMC,164619,A,4629.978,N,00641.156,E,01.1,087,250614,01,E,A*05
$IIVHW,,,081,M,00.0,N,,*6D
$IIVLW,01527,N,000.1,N*53
$IIVWR,040,L,12.3,N,,,,*7B
$IIDPT,035.8,-1.0,*4E
$IIGLL,4629.978,N,00641.156,E,164620,A,A*59
$IIHDG,082,,,01,E*19
$IIMTW,+16.0,C*3F
$IIMWV,317,R,11.8,N,A*1E
$IIMWV,320,T,12.1,N,A*16
$IIRMC,164620,A,4629.978,N,00641.156,E,01.1,102,250614,01,E,A*03
$IIVHW,,,082,M,00.0,N,,*6E
$IIVLW,01527,N,000.1,N*53
$IIVWR,043,L,11.8,N,,,,*70
$IIDPT,035.8,-1.0,*4E
$IIGLL,4629.978,N,00641.158,E,164621,A,A*56
$IIHDG,084,,,01,E*1F
$IIMTW,+16.0,C*3F
$IIMWV,315,R,11.8,N,A*1C
$IIMWV,317,T,11.6,N,A*16
$IIRMC,164621,A,4629.978,N,00641.158,E,01.0,097,250614,01,E,A*00
$IIVHW,,,084,M,00.0,N,,*68
$IIVLW,01527,N,000.1,N*53
$IIVWR,048,L,11.7,N,,,,*74
$IIDPT,035.4,-1.0,*42
$IIGLL,4629.978,N,00641.159,E,164622,A,A*54
$IIHDG,085,,,01,E*1E
$IIMTW,+16.0,C*3F
$IIMWV,312,R,11.7,N,A*14
$IIMWV,315,T,11.6,N,A*14
$IIRMC,164622,A,4629.978,N,00641.159,E,00.8,109,250614,01,E,A*0D
$IIVHW,,,085,M,00.0,N,,*69
$IIVLW,01527,N,000.1,N*53
$IIVWR,050,L,11.4,N,,,,*7E
$IIDPT,035.1,-1.0,*47
$IIGLL,4629.977,N,00641.161,E,164623,A,A*51
$IIHDG,085,,,01,E*1E
$IIMTW,+16.0,C*3F
$IIMWV,310,R,11.4,N,A*15
$IIMWV,312,T,11.5,N,A*10
$IIRMC,164623,A,4629.977,N,00641.161,E,00.8,119,250614,01,E,A*09
$IIVHW,,,086,M,00.4,N,,*6E
$IIVLW,01527,N,000.1,N*53
$IIVWR,052,L,11.0,N,,,,*78
$IIDPT,035.1,-1.0,*47
$IIGLL,4629.977,N,00641.161,E,164624,A,A*56
$IIHDG,086,,,01,E*1D
$IIMTW,+16.0,C*3F
$IIMWV,308,R,11.0,N,A*18
$IIMWV,309,T,11.1,N,A*1E
$IIRMC,164625,A,4629.977,N,00641.162,E,01.0,123,250614,01,E,A*0C
$IIVHW,,,087,M,00.8,N,,*63
$IIVLW,01527,N,000.1,N*53
$IIVWR,054,L,10.6,N,,,,*79
$IIDPT,035.1,-1.0,*47
$IIGLL,4629.977,N,00641.162,E,164625,A,A*54
$IIHDG,087,,,01,E*1C
$IIMTW,+16.0,C*3F
$IIMWV,306,R,10.6,N,A*11
$IIMWV,303,T,10.0,N,A*14
$IIRMC,164626,A,4629.977,N,00641.162,E,01.2,123,250614,01,E,A*0D
$IIVHW,,,089,M,01.1,N,,*65
$IIVLW,01527,N,000.1,N*53
$IIVWR,057,L,10.3,N,,,,*7F
$IIDPT,014.5,-1.0,*40
$IIGLL,4629.977,N,00641.162,E,164626,A,A*57
$IIHDG,089,,,01,E*12
$IIMTW,+16.0,C*3F
$IIMWV,300,R,10.2,N,A*13
$IIMWV,297,T,09.6,N,A*16
$IIRMC,164627,A,4629.977,N,00641.162,E,01.2,124,250614,01,E,A*0B
$IIVHW,,,089,M,01.3,N,,*67
$IIVLW,01527,N,000.1,N*53
$IIVWR,060,L,10.2,N,,,,*7A
$IIDPT,014.5,-1.0,*40
$IIGLL,4629.977,N,00641.162,E,164627,A,A*56
$IIHDG,089,,,01,E*12
$IIMTW,+16.0,C*3F
$IIMWV,298,R,10.0,N,A*11
$IIMWV,293,T,09.5,N,A*11
$IIRMC,164628,A,4629.976,N,00641.162,E,01.3,112,250614,01,E,A*01
$IIVHW,,,089,M,01.4,N,,*60
$IIVLW,01527,N,000.1,N*53
$IIVWR,062,L,10.0,N,,,,*7A
$IIDPT,014.5,-1.0,*40
$IIGLL,4629.976,N,00641.162,E,164628,A,A*58
$IIHDG,089,,,01,E*12
$IIMTW,+16.0,C*3F
$IIMWV,298,R,09.8,N,A*11
$IIMWV,290,T,09.3,N,A*14
$IIRMC,164629,A,4629.977,N,00641.163,E,01.5,108,250614,01,E,A*0D
$IIVHW,,,089,M,01.4,N,,*60
$IIVLW,01527,N,000.1,N*53
$IIVWR,062,L,09.8,N,,,,*7A
$IIDPT,014.5,-1.0,*40
$IIGLL,4629.977,N,00641.165,E,164630,A,A*57
$IIHDG,087,,,01,E*1C
$IIMTW,+16.0,C*3F
$IIMWV,298,R,09.7,N,A*1E
$IIMWV,290,T,09.1,N,A*16
$IIRMC,164630,A,4629.977,N,00641.165,E,01.7,100,250614,01,E,A*09
$IIVHW,,,087,M,01.3,N,,*69
$IIVLW,01527,N,000.1,N*53
$IIVWR,062,L,09.7,N,,,,*75
$IIDPT,014.5,-1.0,*40
$IIGLL,4629.977,N,00641.166,E,164631,A,A*55
$IIHDG,085,,,01,E*1E
$IIMTW,+16.0,C*3F
$IIMWV,304,R,09.5,N,A*18
$IIMWV,290,T,09.0,N,A*17
$IIRMC,164631,A,4629.977,N,00641.166,E,01.8,094,250614,01,E,A*08
$IIVHW,,,085,M,01.1,N,,*69
$IIVLW,01527,N,000.1,N*53
$IIVWR,054,L,09.3,N,,,,*74
$IIDPT,014.5,-1.0,*40
$IIGLL,4629.977,N,00641.168,E,164632,A,A*58
$IIHDG,083,,,01,E*18
$IIMTW,+16.0,C*3F
$IIMWV,306,R,09.3,N,A*1C
$IIMWV,298,T,08.8,N,A*16
$IIRMC,164632,A,4629.977,N,00641.168,E,02.0,089,250614,01,E,A*02
$IIVHW,,,083,M,01.2,N,,*6C
$IIVLW,01527,N,000.1,N*53
$IIVWR,052,L,09.2,N,,,,*73
$IIDPT,014.5,-1.0,*40
$IIGLL,4629.977,N,00641.169,E,164633,A,A*58
$IIHDG,078,,,01,E*1C
$IIMTW,+16.0,C*3F
$IIMWV,308,R,09.2,N,A*13
$IIMWV,299,T,08.5,N,A*1A
$IIRMC,164633,A,4629.977,N,00641.169,E,02.0,081,250614,01,E,A*0A
$IIVHW,,,075,M,01.0,N,,*67
$IIVLW,01527,N,000.1,N*53
$IIVWR,050,L,09.2,N,,,,*71
$IIDPT,014.5,-1.0,*40
$IIGLL,4629.977,N,00641.169,E,164634,A,A*5F
$IIHDG,075,,,01,E*11
$IIMTW,+16.0,C*3F
$IIMWV,310,R,09.2,N,A*1A
$IIMWV,302,T,08.4,N,A*18
$IIRMC,164635,A,4629.978,N,00641.170,E,01.4,082,250614,01,E,A*0F
$IIVHW,,,071,M,01.1,N,,*62
$IIVLW,01527,N,000.1,N*53
$IIVWR,047,L,09.3,N,,,,*76
$IIDPT,014.5,-1.0,*40
$IIGLL,4629.978,N,00641.170,E,164635,A,A*59
$IIHDG,071,,,01,E*15
$IIMTW,+16.0,C*3F
$IIMWV,313,R,09.3,N,A*18
$IIMWV,308,T,08.4,N,A*12
$IIRMC,164636,A,4629.978,N,00641.171,E,01.8,076,250614,01,E,A*0A
$IIVHW,,,067,M,00.9,N,,*6C
$IIVLW,01527,N,000.1,N*53
$IIVWR,045,L,09.7,N,,,,*70
$IIDPT,036.6,-1.0,*43
$IIGLL,4629.978,N,00641.171,E,164636,A,A*5B
$IIHDG,067,,,01,E*12
$IIMTW,+16.0,C*3F
$IIMWV,318,R,10.1,N,A*19
$IIMWV,310,T,08.9,N,A*16
$IIRMC,164637,A,4629.978,N,00641.172,E,01.6,074,250614,01,E,A*04
$IIVHW,,,064,M,00.9,N,,*6F
$IIVLW,01527,N,000.1,N*53
$IIVWR,042,L,10.1,N,,,,*79
$IIDPT,036.6,-1.0,*43
$IIGLL,4629.978,N,00641.172,E,164637,A,A*59
$IIHDG,064,,,01,E*11
$IIMTW,+16.0,C*3F
$IIMWV,320,R,10.3,N,A*10
$IIMWV,314,T,09.2,N,A*18
$IIRMC,164638,A,4629.978,N,00641.173,E,01.6,076,250614,01,E,A*08
$IIVHW,,,060,M,01.0,N,,*63
$IIVLW,01527,N,000.1,N*53
$IIVWR,040,L,10.3,N,,,,*79
$IIDPT,014.5,-1.0,*40
$IIGLL,4629.978,N,00641.173,E,164638,A,A*57
$IIHDG,058,,,01,E*1E
$IIMTW,+16.0,C*3F
$IIMWV,323,R,10.7,N,A*17
$IIMWV,317,T,09.4,N,A*1D
$IIRMC,164639,A,4629.979,N,00641.174,E,01.6,070,250614,01,E,A*09
$IIVHW,,,058,M,00.8,N,,*61
$IIVLW,01527,N,000.1,N*53
$IIVWR,037,L,10.7,N,,,,*7D
$IIDPT,014.5,-1.0,*40
$IIGLL,4629.980,N,00641.175,E,164640,A,A*59
$IIHDG,056,,,01,E*10
$IIMTW,+15.5,C*39
$IIMWV,328,R,10.9,N,A*12
$IIMWV,320,T,09.9,N,A*14
$IIRMC,164640,A,4629.980,N,00641.175,E,01.9,052,250614,01,E,A*0F
$IIVHW,,,056,M,00.9,N,,*6E
$IIVLW,01527,N,000.1,N*53
$IIVWR,032,L,10.9,N,,,,*76
$IIDPT,014.5,-1.0,*40
$IIGLL,4629.980,N,00641.175,E,164640,A,A*59
$IIHDG,055,,,01,E*13
$IIMTW,+15.5,C*39
$IIMWV,331,R,11.0,N,A*12
$IIMWV,326,T,10.0,N,A*13
$IIRMC,164640,A,4629.980,N,00641.175,E,01.9,052,250614,01,E,A*0F
$IIVHW,,,055,M,01.0,N,,*65
$IIVLW,01527,N,000.1,N*53
$IIVWR,027,L,11.2,N,,,,*78
$IIDPT,014.5,-1.0,*40
$IIGLL,4629.980,N,00641.177,E,164642,A,A*59
$IIHDG,055,,,01,E*13
$IIMTW,+15.5,C*39
$IIMWV,333,R,11.2,N,A*12
$IIMWV,328,T,09.8,N,A*1D
$IIRMC,164642,A,4629.980,N,00641.177,E,01.8,066,250614,01,E,A*09
$IIVHW,,,055,M,01.2,N,,*67
$IIVLW,01527,N,000.1,N*53
$IIVWR,025,L,11.2,N,,,,*7A
$IIDPT,014.5,-1.0,*40
$IIGLL,4629.980,N,00641.177,E,164643,A,A*58
$IIHDG,055,,,01,E*13
$IIMTW,+15.5,C*39
$IIMWV,335,R,11.2,N,A*14
$IIMWV,330,T,09.9,N,A*15
$IIRMC,164643,A,4629.980,N,00641.177,E,01.8,073,250614,01,E,A*0C
$IIVHW,,,055,M,01.6,N,,*63
$IIVLW,01527,N,000.1,N*53
$IIVWR,024,L,11.2,N,,,,*7B
$IIDPT,035.0,-1.0,*46
$IIGLL,4629.980,N,00641.178,E,164644,A,A*50
$IIHDG,055,,,01,E*13
$IIMTW,+15.5,C*39
$IIMWV,336,R,11.2,N,A*17
$IIMWV,331,T,09.8,N,A*15
$IIRMC,164645,A,4629.980,N,00641.179,E,01.8,072,250614,01,E,A*05
$IIVHW,,,056,M,01.7,N,,*61
$IIVLW,01527,N,000.1,N*53
$IIVWR,023,L,11.3,N,,,,*7D
$IIDPT,035.1,-1.0,*47
$IIGLL,4629.980,N,00641.179,E,164645,A,A*50
$IIHDG,056,,,01,E*10
$IIMTW,+15.5,C*39
$IIMWV,337,R,11.3,N,A*17
$IIMWV,333,T,09.5,N,A*1A
$IIRMC,164646,A,4629.980,N,00641.180,E,01.8,070,250614,01,E,A*02
$IIVHW,,,057,M,01.8,N,,*6F
$IIVLW,01527,N,000.1,N*53
$IIVWR,022,L,11.3,N,,,,*7C
$IIDPT,035.1,-1.0,*47
$IIGLL,4629.980,N,00641.180,E,164646,A,A*55
$IIHDG,057,,,01,E*11
$IIMTW,+15.5,C*39
$IIMWV,339,R,11.3,N,A*19
$IIMWV,334,T,09.5,N,A*1D
$IIRMC,164647,A,4629.981,N,00641.181,E,02.2,063,250614,01,E,A*08
$IIVHW,,,057,M,01.8,N,,*6F
$IIVLW,01527,N,000.1,N*53
$IIVWR,021,L,11.3,N,,,,*7F
$IIDPT,035.1,-1.0,*47
$IIGLL,4629.981,N,00641.181,E,164647,A,A*54
$IIHDG,057,,,01,E*11
$IIMTW,+15.5,C*39
$IIMWV,341,R,11.0,N,A*15
$IIMWV,335,T,09.4,N,A*1D
$IIRMC,164648,A,4629.981,N,00641.182,E,02.1,067,250614,01,E,A*03
$IIVHW,,,057,M,01.9,N,,*6E
$IIVLW,01527,N,000.1,N*53
$IIVWR,019,L,11.0,N,,,,*77
$IIDPT,035.1,-1.0,*47
$IIGLL,4629.981,N,00641.182,E,164648,A,A*58
$IIHDG,057,,,01,E*11
$IIMTW,+15.5,C*39
$IIMWV,342,R,10.9,N,A*1E
$IIMWV,337,T,09.2,N,A*19
$IIRMC,164649,A,4629.981,N,00641.183,E,02.1,059,250614,01,E,A*0E
$IIVHW,,,057,M,01.9,N,,*6E
$IIVLW,01527,N,000.1,N*53
$IIVWR,018,L,10.9,N,,,,*7E
$IIDPT,035.1,-1.0,*47
$IIGLL,4629.982,N,00641.183,E,164650,A,A*53
$IIHDG,057,,,01,E*11
$IIMTW,+15.5,C*39
$IIMWV,340,R,10.8,N,A*1D
$IIMWV,339,T,09.0,N,A*15
$IIRMC,164650,A,4629.982,N,00641.183,E,01.9,066,250614,01,E,A*02
$IIVHW,,,057,M,01.8,N,,*6F
$IIVLW,01527,N,000.1,N*53
$IIVWR,020,L,10.8,N,,,,*74
$IIDPT,014.5,-1.0,*40
$IIGLL,4629.982,N,00641.184,E,164651,A,A*55
$IIHDG,057,,,01,E*11
$IIMTW,+15.5,C*39
$IIMWV,336,R,10.8,N,A*1C
$IIMWV,336,T,08.9,N,A*12
$IIRMC,164651,A,4629.982,N,00641.184,E,01.9,062,250614,01,E,A*00
$IIVHW,,,057,M,01.8,N,,*6F
$IIVLW,01527,N,000.1,N*53
$IIVWR,026,L,11.0,N,,,,*7B
$IIDPT,014.5,-1.0,*40
$IIGLL,4629.982,N,00641.185,E,164652,A,A*57
$IIHDG,056,,,01,E*10
$IIMTW,+15.5,C*39
$IIMWV,334,R,11.0,N,A*17
$IIMWV,331,T,09.1,N,A*1C
$IIRMC,164652,A,4629.982,N,00641.185,E,01.9,064,250614,01,E,A*04
$IIVHW,,,056,M,01.7,N,,*61
$IIVLW,01527,N,000.1,N*53
$IIVWR,025,L,11.1,N,,,,*79
$IIDPT,014.5,-1.0,*40
$IIGLL,4629.983,N,00641.186,E,164653,A,A*54
$IIHDG,056,,,01,E*10
$IIMTW,+15.5,C*39
$IIMWV,335,R,11.1,N,A*17
$IIMWV,329,T,09.4,N,A*10
$IIRMC,164653,A,4629.983,N,00641.186,E,01.9,065,250614,01,E,A*06
$IIVHW,,,056,M,01.7,N,,*61
$IIVLW,01527,N,000.1,N*53
$IIVWR,024,L,11.2,N,,,,*7B
$IIDPT,014.5,-1.0,*40
$IIGLL,4629.983,N,00641.186,E,164654,A,A*53
$IIHDG,056,,,01,E*10
$IIMTW,+15.5,C*39
$IIMWV,336,R,11.2,N,A*17
$IIMWV,331,T,09.4,N,A*19
$IIRMC,164655,A,4629.983,N,00641.187,E,01.9,066,250614,01,E,A*02
$IIVHW,,,056,M,01.8,N,,*6E
$IIVLW,01527,N,000.1,N*53
$IIVWR,025,L,11.2,N,,,,*7A
$IIDPT,033.3,-1.0,*43
$IIGLL,4629.983,N,00641.187,E,164655,A,A*53
$IIHDG,056,,,01,E*10
$IIMTW,+15.5,C*39
$IIMWV,335,R,11.2,N,A*14
$IIMWV,330,T,09.5,N,A*19
$IIRMC,164656,A,4629.983,N,00641.188,E,02.3,075,250614,01,E,A*05
$IIVHW,,,057,M,01.9,N,,*6E
$IIVLW,01527,N,000.1,N*53
$IIVWR,025,L,11.3,N,,,,*7B
$IIDPT,033.3,-1.0,*43
$IIGLL,4629.983,N,00641.188,E,164656,A,A*5F
$IIHDG,057,,,01,E*11
$IIMTW,+15.5,C*39
$IIMWV,331,R,11.5,N,A*17
$IIMWV,330,T,09.5,N,A*19
$IIRMC,164656,A,4629.983,N,00641.188,E,02.3,075,250614,01,E,A*05
$IIVHW,,,060,M,02.1,N,,*61
$IIVLW,01527,N,000.1,N*53
$IIVWR,029,L,11.5,N,,,,*71
$IIDPT,033.3,-1.0,*43
$IIGLL,4629.983,N,00641.188,E,164656,A,A*5F
$IIHDG,060,,,01,E*15
$IIMTW,+15.5,C*39
$IIMWV,329,R,11.5,N,A*1E
$IIMWV,325,T,09.5,N,A*1D
$IIRMC,164658,A,4629.983,N,00641.189,E,02.0,084,250614,01,E,A*07
$IIVHW,,,065,M,02.4,N,,*61
$IIVLW,01527,N,000.1,N*53
$IIVWR,031,L,11.5,N,,,,*78
$IIDPT,033.5,-1.0,*45
$IIGLL,4629.983,N,00641.189,E,164658,A,A*50
$IIHDG,070,,,01,E*14
$IIMTW,+16.0,C*3F
$IIMWV,327,R,11.4,N,A*11
$IIMWV,322,T,09.4,N,A*1B
$IIRMC,164659,A,4629.983,N,00641.190,E,02.1,097,250614,01,E,A*0D
$IIVHW,,,070,M,02.6,N,,*67
$IIVLW,01527,N,000.1,N*53
$IIVWR,033,L,11.4,N,,,,*7B
$IIDPT,032.7,-1.0,*46
$IIGLL,4629.983,N,00641.191,E,164700,A,A*55
$IIHDG,077,,,01,E*13
$IIMTW,+16.0,C*3F
$IIMWV,323,R,11.1,N,A*10
$IIMWV,318,T,09.1,N,A*17
$IIRMC,164700,A,4629.983,N,00641.191,E,02.1,105,250614,01,E,A*0B
$IIVHW,,,077,M,02.8,N,,*6E
$IIVLW,01527,N,000.1,N*53
$IIVWR,037,L,11.1,N,,,,*7A
$IIDPT,032.3,-1.0,*42
$IIGLL,4629.983,N,00641.192,E,164701,A,A*57
$IIHDG,084,,,01,E*1F
$IIMTW,+15.5,C*39
$IIMWV,319,R,10.6,N,A*1F
$IIMWV,312,T,08.9,N,A*14
$IIRMC,164701,A,4629.983,N,00641.192,E,02.3,112,250614,01,E,A*0D
$IIVHW,,,084,M,03.0,N,,*6B
$IIVLW,01527,N,000.1,N*53
$IIVWR,046,L,10.5,N,,,,*79
$IIDPT,032.3,-1.0,*42
$IIGLL,4629.983,N,00641.192,E,164702,A,A*54
$IIHDG,092,,,01,E*18
$IIMTW,+15.5,C*39
$IIMWV,314,R,10.5,N,A*11
$IIMWV,305,T,08.4,N,A*1F
$IIRMC,164702,A,4629.983,N,00641.192,E,02.4,119,250614,01,E,A*02
$IIVHW,,,092,M,03.0,N,,*6C
$IIVLW,01527,N,000.1,N*53
$IIVWR,051,L,10.4,N,,,,*7E
$IIDPT,032.3,-1.0,*42
$IIGLL,4629.982,N,00641.193,E,164703,A,A*55
$IIHDG,100,,,01,E*12
$IIMTW,+15.5,C*39
$IIMWV,309,R,10.4,N,A*1C
$IIMWV,299,T,08.5,N,A*1A
$IIRMC,164703,A,4629.982,N,00641.193,E,02.6,127,250614,01,E,A*0C
$IIVHW,,,107,M,03.0,N,,*61
$IIVLW,01527,N,000.1,N*53
$IIVWR,057,L,10.1,N,,,,*7D
$IIDPT,032.3,-1.0,*42
$IIGLL,4629.982,N,00641.194,E,164704,A,A*55
$IIHDG,107,,,01,E*15
$IIMTW,+15.5,C*39
$IIMWV,303,R,10.1,N,A*13
$IIMWV,293,T,08.7,N,A*12
$IIRMC,164705,A,4629.981,N,00641.195,E,03.0,139,250614,01,E,A*07
$IIVHW,,,114,M,03.0,N,,*63
$IIVLW,01527,N,000.1,N*53
$IIVWR,064,L,09.9,N,,,,*7D
$IIDPT,032.6,-1.0,*47
$IIGLL,4629.981,N,00641.195,E,164705,A,A*56
$IIHDG,114,,,01,E*17
$IIMTW,+15.5,C*39
$IIMWV,296,R,09.9,N,A*1E
$IIMWV,278,T,08.9,N,A*19
$IIRMC,164706,A,4629.980,N,00641.196,E,03.1,145,250614,01,E,A*0C
$IIVHW,,,122,M,02.9,N,,*6E
$IIVLW,01527,N,000.1,N*53
$IIVWR,072,L,09.5,N,,,,*76
$IIDPT,032.6,-1.0,*47
$IIGLL,4629.980,N,00641.196,E,164706,A,A*57
$IIHDG,122,,,01,E*12
$IIMTW,+15.5,C*39
$IIMWV,280,R,09.1,N,A*11
$IIMWV,270,T,09.0,N,A*19
$IIRMC,164707,A,4629.980,N,00641.196,E,03.1,149,250614,01,E,A*01
$IIVHW,,,128,M,02.9,N,,*64
$IIVLW,01527,N,000.1,N*53
$IIVWR,080,L,09.1,N,,,,*7F
$IIDPT,033.1,-1.0,*41
$IIGLL,4629.980,N,00641.196,E,164707,A,A*56
$IIHDG,128,,,01,E*18
$IIMTW,+15.5,C*39
$IIMWV,272,R,08.8,N,A*14
$IIMWV,261,T,09.0,N,A*19
$IIRMC,164708,A,4629.979,N,00641.197,E,03.4,152,250614,01,E,A*06
$IIVHW,,,134,M,02.9,N,,*69
$IIVLW,01527,N,000.1,N*53
$IIVWR,088,L,08.8,N,,,,*7F
$IIDPT,033.1,-1.0,*41
$IIGLL,4629.979,N,00641.197,E,164708,A,A*5E
$IIHDG,141,,,01,E*17
$IIMTW,+15.5,C*39
$IIMWV,264,R,08.5,N,A*1E
$IIMWV,253,T,09.2,N,A*1A
$IIRMC,164709,A,4629.978,N,00641.197,E,03.6,159,250614,01,E,A*0F
$IIVHW,,,141,M,02.9,N,,*6B
$IIVLW,01527,N,000.1,N*53
$IIVWR,096,L,08.5,N,,,,*7D
$IIDPT,033.1,-1.0,*41
$IIGLL,4629.977,N,00641.198,E,164710,A,A*56
$IIHDG,146,,,01,E*10
$IIMTW,+15.5,C*39
$IIMWV,255,R,08.1,N,A*18
$IIMWV,246,T,09.2,N,A*1E
$IIRMC,164710,A,4629.977,N,00641.198,E,03.7,162,250614,01,E,A*0E
$IIVHW,,,146,M,02.9,N,,*6C
$IIVLW,01527,N,000.1,N*53
$IIVWR,105,L,08.1,N,,,,*72
$IIDPT,014.5,-1.0,*40
$IIGLL,4629.976,N,00641.198,E,164711,A,A*56
$IIHDG,153,,,01,E*14
$IIMTW,+15.5,C*39
$IIMWV,247,R,07.9,N,A*1C
$IIMWV,237,T,09.3,N,A*19
$IIRMC,164711,A,4629.976,N,00641.198,E,03.7,170,250614,01,E,A*0D
$IIVHW,,,153,M,03.0,N,,*60
$IIVLW,01527,N,000.1,N*53
$IIVWR,119,L,08.0,N,,,,*7E
$IIDPT,014.5,-1.0,*40
$IIGLL,4629.975,N,00641.198,E,164712,A,A*56
$IIHDG,160,,,01,E*14
$IIMTW,+15.5,C*39
$IIMWV,241,R,08.0,N,A*1C
$IIMWV,230,T,09.3,N,A*1E
$IIRMC,164712,A,4629.975,N,00641.198,E,03.7,176,250614,01,E,A*0B
$IIVHW,,,160,M,03.0,N,,*60
$IIVLW,01527,N,000.1,N*53
$IIVWR,128,L,07.8,N,,,,*7B
$IIDPT,014.5,-1.0,*40
$IIGLL,4629.974,N,00641.198,E,164713,A,A*56
$IIHDG,164,,,01,E*10
$IIMTW,+15.5,C*39
$IIMWV,232,R,07.8,N,A*1F
$IIMWV,225,T,09.7,N,A*1E
$IIRMC,164713,A,4629.974,N,00641.198,E,03.9,178,250614,01,E,A*0B
$IIVHW,,,168,M,03.0,N,,*68
$IIVLW,01527,N,000.1,N*53
$IIVWR,127,L,07.3,N,,,,*7F
$IIDPT,014.5,-1.0,*40
$IIGLL,4629.973,N,00641.198,E,164714,A,A*56
$IIHDG,168,,,01,E*1C
$IIMTW,+15.5,C*39
$IIMWV,233,R,07.3,N,A*15
$IIMWV,218,T,09.9,N,A*1E
$IIRMC,164715,A,4629.972,N,00641.198,E,03.9,177,250614,01,E,A*04
$IIVHW,,,170,M,03.0,N,,*61
$IIVLW,01527,N,000.1,N*53
$IIVWR,119,L,06.7,N,,,,*77
$IIDPT,036.7,-1.0,*42
$IIGLL,4629.972,N,00641.198,E,164715,A,A*56
$IIHDG,170,,,01,E*15
$IIMTW,+15.5,C*39
$IIMWV,241,R,06.7,N,A*15
$IIMWV,223,T,08.5,N,A*1B
$IIRMC,164716,A,4629.971,N,00641.198,E,03.9,174,250614,01,E,A*07
$IIVHW,,,170,M,03.0,N,,*61
$IIVLW,01527,N,000.1,N*53
$IIVWR,114,L,06.6,N,,,,*7B
$IIDPT,036.7,-1.0,*42
$IIGLL,4629.971,N,00641.198,E,164716,A,A*56
$IIHDG,170,,,01,E*15
$IIMTW,+15.5,C*39
$IIMWV,249,R,06.8,N,A*12
$IIMWV,226,T,08.3,N,A*18
$IIRMC,164717,A,4629.970,N,00641.198,E,03.9,174,250614,01,E,A*07
$IIVHW,,,170,M,03.0,N,,*61
$IIVLW,01527,N,000.1,N*53
$IIVWR,111,L,06.8,N,,,,*70
$IIDPT,036.7,-1.0,*42
$IIGLL,4629.970,N,00641.198,E,164717,A,A*56
$IIHDG,170,,,01,E*15
$IIMTW,+16.0,C*3F
$IIMWV,249,R,07.5,N,A*1E
$IIMWV,229,T,08.3,N,A*17
$IIRMC,164718,A,4629.969,N,00641.198,E,04.1,172,250614,01,E,A*09
$IIVHW,,,169,M,03.1,N,,*68
$IIVLW,01527,N,000.1,N*53
$IIVWR,111,L,07.5,N,,,,*7C
$IIDPT,036.7,-1.0,*42
$IIGLL,4629.969,N,00641.198,E,164718,A,A*51
$IIHDG,169,,,01,E*1D
$IIMTW,+16.0,C*3F
$IIMWV,249,R,07.7,N,A*1C
$IIMWV,230,T,09.0,N,A*1D
$IIRMC,164718,A,4629.969,N,00641.198,E,04.1,172,250614,01,E,A*09
$IIVHW,,,169,M,03.1,N,,*68
$IIVLW,01527,N,000.1,N*53
$IIVWR,111,L,07.7,N,,,,*7E
$IIDPT,014.5,-1.0,*40
$IIGLL,4629.967,N,00641.199,E,164720,A,A*55
$IIHDG,169,,,01,E*1D
$IIMTW,+16.0,C*3F
$IIMWV,246,R,07.7,N,A*13
$IIMWV,231,T,09.1,N,A*1D
$IIRMC,164720,A,4629.967,N,00641.199,E,04.6,173,250614,01,E,A*0B
$IIVHW,,,169,M,03.1,N,,*68
$IIVLW,01527,N,000.1,N*53
$IIVWR,114,L,07.7,N,,,,*7B
$IIDPT,014.5,-1.0,*40
$IIGLL,4629.966,N,00641.199,E,164721,A,A*55
$IIHDG,170,,,01,E*15
$IIMTW,+16.0,C*3F
$IIMWV,245,R,07.5,N,A*12
$IIMWV,228,T,09.4,N,A*10
$IIRMC,164721,A,4629.966,N,00641.199,E,04.3,173,250614,01,E,A*0E
$IIVHW,,,170,M,03.2,N,,*63
$IIVLW,01527,N,000.1,N*53
$IIVWR,114,L,07.4,N,,,,*78
$IIDPT,014.5,-1.0,*40
$IIGLL,4629.965,N,00641.199,E,164722,A,A*55
$IIHDG,172,,,01,E*17
$IIMTW,+16.0,C*3F
$IIMWV,246,R,07.4,N,A*10
$IIMWV,227,T,09.3,N,A*18
$IIRMC,164722,A,4629.965,N,00641.199,E,05.1,169,250614,01,E,A*06
$IIVHW,,,172,M,03.3,N,,*60
$IIVLW,01527,N,000.1,N*53
$IIVWR,113,L,07.5,N,,,,*7E
$IIDPT,014.5,-1.0,*40
$IIGLL,4629.964,N,00641.199,E,164723,A,A*55
$IIHDG,174,,,01,E*11
$IIMTW,+16.0,C*3F
$IIMWV,247,R,07.5,N,A*10
$IIMWV,227,T,09.1,N,A*1A
$IIRMC,164723,A,4629.964,N,00641.199,E,04.8,175,250614,01,E,A*03
$IIVHW,,,176,M,03.4,N,,*63
$IIVLW,01527,N,000.1,N*53
$IIVWR,115,L,07.5,N,,,,*78
$IIDPT,013.8,-1.0,*4A
$IIGLL,4629.962,N,00641.199,E,164724,A,A*54
$IIHDG,176,,,01,E*13
$IIMTW,+16.0,C*3F
$IIMWV,245,R,07.5,N,A*12
$IIMWV,228,T,09.3,N,A*17
$IIRMC,164725,A,4629.961,N,00641.199,E,03.7,186,250614,01,E,A*04
$IIVHW,,,180,M,03.5,N,,*6B
$IIVLW,01527,N,000.1,N*53
$IIVWR,117,L,07.3,N,,,,*7C
$IIDPT,013.1,-1.0,*43
$IIGLL,4629.961,N,00641.199,E,164725,A,A*56
$IIHDG,180,,,01,E*1A
$IIMTW,+16.0,C*3F
$IIMWV,243,R,07.3,N,A*12
$IIMWV,224,T,09.2,N,A*1A
$IIRMC,164726,A,4629.960,N,00641.199,E,03.8,195,250614,01,E,A*0B
$IIVHW,,,185,M,03.5,N,,*6E
$IIVLW,01527,N,000.1,N*53
$IIVWR,120,L,07.1,N,,,,*7A
$IIDPT,013.0,-1.0,*42
$IIGLL,4629.960,N,00641.199,E,164726,A,A*54
$IIHDG,185,,,01,E*1F
$IIMTW,+16.0,C*3F
$IIMWV,233,R,06.6,N,A*11
$IIMWV,221,T,09.3,N,A*1E
$IIRMC,164727,A,4629.959,N,00641.199,E,04.1,200,250614,01,E,A*01
$IIVHW,,,192,M,03.6,N,,*6B
$IIVLW,01527,N,000.1,N*53
$IIVWR,127,L,06.6,N,,,,*7B
$IIDPT,013.0,-1.0,*42
$IIGLL,4629.959,N,00641.199,E,164727,A,A*5F
$IIHDG,192,,,01,E*19
$IIMTW,+16.0,C*3F
$IIMWV,230,R,06.4,N,A*10
$IIMWV,215,T,09.1,N,A*1B
$IIRMC,164728,A,4629.958,N,00641.198,E,04.2,207,250614,01,E,A*0A
$IIVHW,,,198,M,03.6,N,,*61
$IIVLW,01527,N,000.1,N*53
$IIVWR,130,L,06.4,N,,,,*7F
$IIDPT,013.0,-1.0,*42
$IIGLL,4629.958,N,00641.198,E,164728,A,A*50
$IIHDG,205,,,01,E*14
$IIMTW,+16.0,C*3F
$IIMWV,222,R,05.7,N,A*13
$IIMWV,213,T,09.1,N,A*1D
$IIRMC,164729,A,4629.957,N,00641.197,E,04.3,218,250614,01,E,A*04
$IIVHW,,,205,M,03.6,N,,*66
$IIVLW,01527,N,000.1,N*53
$IIVWR,138,L,05.7,N,,,,*77
$IIDPT,013.0,-1.0,*42
$IIGLL,4629.957,N,00641.195,E,164730,A,A*5B
$IIHDG,213,,,01,E*13
$IIMTW,+16.0,C*3F
$IIMWV,214,R,05.4,N,A*15
$IIMWV,206,T,08.6,N,A*1F
$IIRMC,164730,A,4629.957,N,00641.195,E,04.1,230,250614,01,E,A*06
$IIVHW,,,213,M,03.5,N,,*62
$IIVLW,01527,N,000.1,N*53
$IIVWR,146,L,05.4,N,,,,*7D
$IIDPT,013.0,-1.0,*42
$IIGLL,4629.956,N,00641.194,E,164731,A,A*5A
$IIHDG,218,,,01,E*18
$IIMTW,+16.0,C*3F
$IIMWV,200,R,05.0,N,A*14
$IIMWV,201,T,08.5,N,A*1B
$IIRMC,164731,A,4629.956,N,00641.194,E,04.1,233,250614,01,E,A*04
$IIVHW,,,218,M,03.5,N,,*69
$IIVLW,01527,N,000.1,N*53
$IIVWR,173,L,04.7,N,,,,*79
$IIDPT,013.0,-1.0,*42
$IIGLL,4629.956,N,00641.193,E,164732,A,A*5E
$IIHDG,222,,,01,E*11
$IIMTW,+16.0,C*3F
$IIMWV,187,R,04.7,N,A*1E
$IIMWV,192,T,08.4,N,A*13
$IIRMC,164732,A,4629.956,N,00641.193,E,04.0,238,250614,01,E,A*0A
$IIVHW,,,222,M,03.4,N,,*61
$IIVLW,01527,N,000.1,N*53
$IIVWR,176,R,04.7,N,,,,*62
$IIDPT,013.5,-1.0,*47
$IIGLL,4629.955,N,00641.191,E,164733,A,A*5E
$IIHDG,225,,,01,E*16
$IIMTW,+16.0,C*3F
$IIMWV,176,R,04.7,N,A*10
$IIMWV,184,T,08.1,N,A*11
$IIRMC,164733,A,4629.955,N,00641.191,E,04.0,235,250614,01,E,A*07
$IIVHW,,,228,M,03.3,N,,*6C
$IIVLW,01527,N,000.1,N*53
$IIVWR,167,R,04.7,N,,,,*62
$IIDPT,013.5,-1.0,*47
$IIGLL,4629.954,N,00641.190,E,164734,A,A*59
$IIHDG,228,,,01,E*1B
$IIMTW,+16.0,C*3F
$IIMWV,167,R,04.7,N,A*10
$IIMWV,178,T,08.1,N,A*12
$IIRMC,164735,A,4629.954,N,00641.188,E,03.9,237,250614,01,E,A*04
$IIVHW,,,230,M,03.3,N,,*65
$IIVLW,01527,N,000.1,N*53
$IIVWR,163,R,04.7,N,,,,*66
$IIDPT,014.2,-1.0,*47
$IIGLL,4629.954,N,00641.188,E,164735,A,A*51
$IIHDG,230,,,01,E*12
$IIMTW,+16.0,C*3F
$IIMWV,163,R,04.7,N,A*14
$IIMWV,171,T,08.0,N,A*1A
$IIRMC,164736,A,4629.953,N,00641.187,E,03.9,237,250614,01,E,A*0F
$IIVHW,,,231,M,03.3,N,,*64
$IIVLW,01527,N,000.1,N*53
$IIVWR,161,R,04.6,N,,,,*65
$IIDPT,014.2,-1.0,*47
$IIGLL,4629.953,N,00641.187,E,164736,A,A*5A
$IIHDG,231,,,01,E*13
$IIMTW,+16.0,C*3F
$IIMWV,161,R,04.6,N,A*17
$IIMWV,169,T,07.7,N,A*1B
$IIRMC,164737,A,4629.953,N,00641.186,E,03.9,235,250614,01,E,A*0D
$IIVHW,,,231,M,03.2,N,,*65
$IIVLW,01527,N,000.1,N*53
$IIVWR,161,R,04.6,N,,,,*65
$IIDPT,014.2,-1.0,*47
$IIGLL,4629.953,N,00641.186,E,164737,A,A*5A
$IIHDG,231,,,01,E*13
$IIMTW,+15.5,C*39
$IIMWV,161,R,04.6,N,A*17
$IIMWV,169,T,07.7,N,A*1B
$IIRMC,164738,A,4629.952,N,00641.184,E,03.8,235,250614,01,E,A*00
$IIVHW,,,231,M,03.2,N,,*65
$IIVLW,01527,N,000.1,N*53
$IIVWR,161,R,04.6,N,,,,*65
$IIDPT,014.2,-1.0,*47
$IIGLL,4629.952,N,00641.184,E,164738,A,A*56
$IIHDG,231,,,01,E*13
$IIMTW,+15.5,C*39
$IIMWV,158,R,04.9,N,A*12
$IIMWV,169,T,07.6,N,A*1A
$IIRMC,164739,A,4629.952,N,00641.183,E,03.8,234,250614,01,E,A*07
$IIVHW,,,231,M,03.1,N,,*66
$IIVLW,01527,N,000.1,N*53
$IIVWR,158,R,04.9,N,,,,*60
$IIDPT,013.7,-1.0,*45
$IIGLL,4629.951,N,00641.182,E,164740,A,A*5C
$IIHDG,231,,,01,E*13
$IIMTW,+15.5,C*39
$IIMWV,158,R,05.1,N,A*1B
$IIMWV,167,T,07.9,N,A*1B
$IIRMC,164740,A,4629.951,N,00641.182,E,03.7,232,250614,01,E,A*02
$IIVHW,,,231,M,03.1,N,,*66
$IIVLW,01527,N,000.1,N*53
$IIVWR,158,R,05.1,N,,,,*69
$IIDPT,014.2,-1.0,*47
$IIGLL,4629.951,N,00641.182,E,164740,A,A*5C
$IIHDG,231,,,01,E*13
$IIMTW,+15.5,C*39
$IIMWV,153,R,04.8,N,A*18
$IIMWV,167,T,08.1,N,A*1C
$IIRMC,164740,A,4629.951,N,00641.182,E,03.7,232,250614,01,E,A*02
$IIVHW,,,231,M,03.1,N,,*66
$IIVLW,01527,N,000.1,N*53
$IIVWR,152,R,04.7,N,,,,*64
$IIDPT,014.3,-1.0,*46
$IIGLL,4629.950,N,00641.180,E,164742,A,A*5D
$IIHDG,231,,,01,E*13
$IIMTW,+15.5,C*39
$IIMWV,152,R,04.7,N,A*16
$IIMWV,164,T,07.5,N,A*14
$IIRMC,164742,A,4629.950,N,00641.180,E,03.7,233,250614,01,E,A*02
$IIVHW,,,231,M,03.0,N,,*67
$IIVLW,01527,N,000.1,N*53
$IIVWR,152,R,05.2,N,,,,*60
$IIDPT,014.3,-1.0,*46
$IIGLL,4629.949,N,00641.178,E,164743,A,A*53
$IIHDG,230,,,01,E*12
$IIMTW,+16.0,C*3F
$IIMWV,152,R,05.2,N,A*12
$IIMWV,163,T,07.5,N,A*13
$IIRMC,164743,A,4629.949,N,00641.178,E,03.6,233,250614,01,E,A*0D
$IIVHW,,,230,M,03.0,N,,*66
$IIVLW,01527,N,000.1,N*53
$IIVWR,150,R,05.2,N,,,,*62
$IIDPT,014.3,-1.0,*46
$IIGLL,4629.949,N,00641.177,E,164744,A,A*5B
$IIHDG,230,,,01,E*12
$IIMTW,+15.5,C*39
$IIMWV,150,R,05.2,N,A*10
$IIMWV,163,T,07.9,N,A*1F
$IIRMC,164745,A,4629.948,N,00641.176,E,03.6,234,250614,01,E,A*03
$IIVHW,,,230,M,03.0,N,,*66
$IIVLW,01527,N,000.1,N*53
$IIVWR,151,R,05.7,N,,,,*66
$IIDPT,014.3,-1.0,*46
$IIGLL,4629.948,N,00641.176,E,164745,A,A*5A
$IIHDG,230,,,01,E*12
$IIMTW,+15.5,C*39
$IIMWV,151,R,05.7,N,A*14
$IIMWV,161,T,08.3,N,A*18
$IIRMC,164746,A,4629.948,N,00641.175,E,03.6,235,250614,01,E,A*02
$IIVHW,,,230,M,02.9,N,,*6E
$IIVLW,01527,N,000.1,N*53
$IIVWR,153,R,06.4,N,,,,*64
$IIDPT,014.3,-1.0,*46
$IIGLL,4629.948,N,00641.175,E,164746,A,A*5A
$IIHDG,230,,,01,E*12
$IIMTW,+15.5,C*39
$IIMWV,156,R,07.2,N,A*14
$IIMWV,162,T,09.0,N,A*19
$IIRMC,164747,A,4629.947,N,00641.174,E,03.6,231,250614,01,E,A*09
$IIVHW,,,230,M,02.9,N,,*6E
$IIVLW,01527,N,000.1,N*53
$IIVWR,156,R,07.2,N,,,,*66
$IIDPT,014.2,-1.0,*47
$IIGLL,4629.947,N,00641.174,E,164747,A,A*55
$IIHDG,230,,,01,E*12
$IIMTW,+15.5,C*39
$IIMWV,159,R,07.9,N,A*10
$IIMWV,163,T,09.9,N,A*11
$IIRMC,164747,A,4629.947,N,00641.174,E,03.6,231,250614,01,E,A*09
$IIVHW,,,230,M,02.9,N,,*6E
$IIVLW,01527,N,000.1,N*53
$IIVWR,159,R,07.9,N,,,,*62
$IIDPT,014.2,-1.0,*47
$IIGLL,4629.947,N,00641.174,E,164747,A,A*55
$IIHDG,230,,,01,E*12
$IIMTW,+15.5,C*39
$IIMWV,160,R,08.4,N,A*18
$IIMWV,165,T,10.6,N,A*10
$IIRMC,164749,A,4629.946,N,00641.171,E,03.5,233,250614,01,E,A*02
$IIVHW,,,230,M,02.9,N,,*6E
$IIVLW,01527,N,000.1,N*53
$IIVWR,160,R,08.4,N,,,,*6A
$IIDPT,014.2,-1.0,*47
$IIGLL,4629.946,N,00641.170,E,164750,A,A*56
$IIHDG,231,,,01,E*13
$IIMTW,+15.5,C*39
$IIMWV,161,R,08.6,N,A*1B
$IIMWV,165,T,11.1,N,A*16
$IIRMC,164750,A,4629.946,N,00641.170,E,03.5,235,250614,01,E,A*0D
$IIVHW,,,231,M,02.9,N,,*6F
$IIVLW,01527,N,000.1,N*53
$IIVWR,161,R,08.6,N,,,,*69
$IIDPT,014.1,-1.0,*44
$IIGLL,4629.945,N,00641.169,E,164751,A,A*5C
$IIHDG,231,,,01,E*13
$IIMTW,+16.0,C*3F
$IIMWV,161,R,08.6,N,A*1B
$IIMWV,166,T,11.3,N,A*17
$IIRMC,164751,A,4629.945,N,00641.169,E,03.5,234,250614,01,E,A*06
$IIVHW,,,231,M,02.9,N,,*6F
$IIVLW,01527,N,000.1,N*53
$IIVWR,159,R,08.6,N,,,,*62
$IIDPT,014.1,-1.0,*44
$IIGLL,4629.945,N,00641.168,E,164752,A,A*5E
$IIHDG,231,,,01,E*13
$IIMTW,+15.5,C*39
$IIMWV,159,R,08.6,N,A*10
$IIMWV,166,T,11.3,N,A*17
$IIRMC,164752,A,4629.945,N,00641.168,E,03.5,234,250614,01,E,A*04
$IIVHW,,,231,M,02.9,N,,*6F
$IIVLW,01527,N,000.1,N*53
$IIVWR,156,R,08.6,N,,,,*6D
$IIDPT,014.1,-1.0,*44
$IIGLL,4629.944,N,00641.167,E,164753,A,A*51
$IIHDG,231,,,01,E*13
$IIMTW,+15.5,C*39
$IIMWV,156,R,08.6,N,A*1F
$IIMWV,165,T,11.2,N,A*15
$IIRMC,164753,A,4629.944,N,00641.167,E,03.5,236,250614,01,E,A*09
$IIVHW,,,232,M,02.8,N,,*6D
$IIVLW,01527,N,000.1,N*53
$IIVWR,151,R,08.3,N,,,,*6F
$IIDPT,014.1,-1.0,*44
$IIGLL,4629.943,N,00641.166,E,164754,A,A*50
$IIHDG,232,,,01,E*10
$IIMTW,+15.5,C*39
$IIMWV,151,R,08.3,N,A*1D
$IIMWV,162,T,11.2,N,A*12
$IIRMC,164755,A,4629.943,N,00641.164,E,03.4,240,250614,01,E,A*0B
$IIVHW,,,233,M,02.8,N,,*6C
$IIVLW,01527,N,000.1,N*53
$IIVWR,144,R,08.3,N,,,,*6B
$IIDPT,014.2,-1.0,*47
$IIGLL,4629.943,N,00641.164,E,164755,A,A*53
$IIHDG,233,,,01,E*11
$IIMTW,+15.5,C*39
$IIMWV,144,R,08.3,N,A*19
$IIMWV,153,T,10.6,N,A*15
$IIRMC,164756,A,4629.942,N,00641.163,E,03.4,241,250614,01,E,A*0F
$IIVHW,,,234,M,02.8,N,,*6B
$IIVLW,01527,N,000.1,N*53
$IIVWR,141,R,08.2,N,,,,*6F
$IIDPT,014.3,-1.0,*46
$IIGLL,4629.942,N,00641.163,E,164756,A,A*56
$IIHDG,234,,,01,E*16
$IIMTW,+15.5,C*39
$IIMWV,141,R,07.9,N,A*19
$IIMWV,151,T,10.4,N,A*15
$IIRMC,164757,A,4629.942,N,00641.162,E,03.4,240,250614,01,E,A*0E
$IIVHW,,,236,M,02.8,N,,*69
$IIVLW,01527,N,000.1,N*53
$IIVWR,141,R,07.9,N,,,,*6B
$IIDPT,014.3,-1.0,*46
$IIGLL,4629.942,N,00641.162,E,164757,A,A*56
$IIHDG,236,,,01,E*14
$IIMTW,+15.5,C*39
$IIMWV,142,R,07.8,N,A*1B
$IIMWV,151,T,10.1,N,A*10
$IIRMC,164758,A,4629.942,N,00641.161,E,03.4,242,250614,01,E,A*00
$IIVHW,,,236,M,02.7,N,,*66
$IIVLW,01527,N,000.1,N*53
$IIVWR,142,R,07.8,N,,,,*69
$IIDPT,014.3,-1.0,*46
$IIGLL,4629.942,N,00641.161,E,164758,A,A*5A
$IIHDG,237,,,01,E*15
$IIMTW,+15.5,C*39
$IIMWV,140,R,07.7,N,A*16
$IIMWV,152,T,10.1,N,A*13
$IIRMC,164759,A,4629.941,N,00641.160,E,03.4,240,250614,01,E,A*01
$IIVHW,,,237,M,02.7,N,,*67
$IIVLW,01527,N,000.1,N*53
$IIVWR,140,R,07.7,N,,,,*64
$IIDPT,014.3,-1.0,*46
$IIGLL,4629.941,N,00641.159,E,164800,A,A*50
$IIHDG,238,,,01,E*1A
$IIMTW,+15.5,C*39
$IIMWV,135,R,07.6,N,A*15
$IIMWV,150,T,09.9,N,A*11
$IIRMC,164800,A,4629.941,N,00641.159,E,03.4,243,250614,01,E,A*0B
$IIVHW,,,238,M,02.7,N,,*68
$IIVLW,01527,N,000.1,N*53
$IIVWR,135,R,07.6,N,,,,*67
$IIDPT,014.2,-1.0,*47
$IIGLL,4629.940,N,00641.157,E,164801,A,A*5E
$IIHDG,239,,,01,E*1B
$IIMTW,+15.5,C*39
$IIMWV,135,R,07.6,N,A*15
$IIMWV,147,T,09.6,N,A*18
$IIRMC,164801,A,4629.940,N,00641.157,E,03.4,242,250614,01,E,A*04
$IIVHW,,,239,M,02.7,N,,*69
$IIVLW,01527,N,000.1,N*53
$IIVWR,135,R,07.6,N,,,,*67
$IIDPT,014.2,-1.0,*47
$IIGLL,4629.940,N,00641.156,E,164802,A,A*5C
$IIHDG,239,,,01,E*1B
$IIMTW,+15.5,C*39
$IIMWV,135,R,07.6,N,A*15
$IIMWV,147,T,09.6,N,A*18
$IIRMC,164802,A,4629.940,N,00641.156,E,03.5,243,250614,01,E,A*06
$IIVHW,,,239,M,02.7,N,,*69
$IIVLW,01527,N,000.1,N*53
$IIVWR,139,R,07.3,N,,,,*6E
$IIDPT,014.2,-1.0,*47
$IIGLL,4629.939,N,00641.154,E,164804,A,A*56
$IIHDG,239,,,01,E*1B
$IIMTW,+15.5,C*39
$IIMWV,139,R,07.3,N,A*1C
$IIMWV,149,T,09.5,N,A*15
$IIRMC,164804,A,4629.939,N,00641.154,E,03.5,241,250614,01,E,A*0E
$IIVHW,,,239,M,02.7,N,,*69
$IIVLW,01527,N,000.1,N*53
$IIVWR,141,R,07.1,N,,,,*63
$IIDPT,014.2,-1.0,*47
$IIGLL,4629.938,N,00641.152,E,164805,A,A*50
$IIHDG,239,,,01,E*1B
$IIMTW,+15.5,C*39
$IIMWV,141,R,07.1,N,A*11
$IIMWV,150,T,09.5,N,A*1D
$IIRMC,164806,A,4629.938,N,00641.151,E,03.5,241,250614,01,E,A*08
$IIVHW,,,239,M,02.7,N,,*69
$IIVLW,01527,N,000.1,N*53
$IIVWR,140,R,07.0,N,,,,*63
$IIDPT,014.2,-1.0,*47
$IIGLL,4629.938,N,00641.151,E,164806,A,A*50
$IIHDG,239,,,01,E*1B
$IIMTW,+15.5,C*39
$IIMWV,140,R,07.0,N,A*11
$IIMWV,151,T,09.2,N,A*1B
$IIRMC,164807,A,4629.937,N,00641.150,E,03.5,241,250614,01,E,A*07
$IIVHW,,,238,M,02.7,N,,*68
$IIVLW,01527,N,000.1,N*53
$IIVWR,144,R,06.8,N,,,,*6E
$IIDPT,014.2,-1.0,*47
$IIGLL,4629.937,N,00641.150,E,164807,A,A*5F
$IIHDG,238,,,01,E*1A
$IIMTW,+15.5,C*39
$IIMWV,149,R,06.7,N,A*1E
$IIMWV,154,T,09.2,N,A*1E
$IIRMC,164808,A,4629.937,N,00641.148,E,03.5,242,250614,01,E,A*02
$IIVHW,,,238,M,02.7,N,,*68
$IIVLW,01527,N,000.1,N*53
$IIVWR,149,R,06.7,N,,,,*6C
$IIDPT,014.2,-1.0,*47
$IIGLL,4629.937,N,00641.148,E,164808,A,A*59
$IIHDG,238,,,01,E*1A
$IIMTW,+15.5,C*39
$IIMWV,150,R,06.7,N,A*16
$IIMWV,158,T,09.1,N,A*11
$IIRMC,164809,A,4629.937,N,00641.147,E,03.5,242,250614,01,E,A*0C
$IIVHW,,,238,M,02.7,N,,*68
$IIVLW,01527,N,000.1,N*53
$IIVWR,150,R,06.7,N,,,,*64
$IIDPT,014.2,-1.0,*47
$IIGLL,4629.937,N,00641.147,E,164809,A,A*57
$IIHDG,238,,,01,E*1A
$IIMTW,+15.5,C*39
$IIMWV,152,R,06.7,N,A*14
$IIMWV,159,T,09.2,N,A*13
$IIRMC,164810,A,4629.936,N,00641.146,E,03.5,241,250614,01,E,A*07
$IIVHW,,,238,M,02.7,N,,*68
$IIVLW,01527,N,000.1,N*53
$IIVWR,152,R,06.7,N,,,,*66
$IIDPT,014.2,-1.0,*47
$IIGLL,4629.936,N,00641.145,E,164811,A,A*5D
$IIHDG,238,,,01,E*1A
$IIMTW,+15.5,C*39
$IIMWV,160,R,06.6,N,A*14
$IIMWV,160,T,09.1,N,A*1A
$IIRMC,164811,A,4629.936,N,00641.145,E,03.4,243,250614,01,E,A*06
$IIVHW,,,238,M,02.7,N,,*68
$IIVLW,01527,N,000.1,N*53
$IIVWR,160,R,06.6,N,,,,*66
$IIDPT,014.2,-1.0,*47
$IIGLL,4629.935,N,00641.144,E,164812,A,A*5C
$IIHDG,239,,,01,E*1B
$IIMTW,+15.5,C*39
$IIMWV,161,R,06.5,N,A*16
$IIMWV,166,T,09.2,N,A*1F
$IIRMC,164812,A,4629.935,N,00641.144,E,03.4,243,250614,01,E,A*07
$IIVHW,,,239,M,02.7,N,,*69
$IIVLW,01527,N,000.1,N*53
$IIVWR,159,R,06.2,N,,,,*68
$IIDPT,014.2,-1.0,*47
$IIGLL,4629.935,N,00641.142,E,164813,A,A*5B
$IIHDG,239,,,01,E*1B
$IIMTW,+15.5,C*39
$IIMWV,159,R,06.2,N,A*1A
$IIMWV,167,T,09.1,N,A*1D
$IIRMC,164813,A,4629.935,N,00641.142,E,03.4,243,250614,01,E,A*00
$IIVHW,,,239,M,02.7,N,,*69
$IIVLW,01527,N,000.1,N*53
$IIVWR,164,R,05.8,N,,,,*6F
$IIDPT,014.2,-1.0,*47
$IIGLL,4629.935,N,00641.141,E,164814,A,A*5F
$IIHDG,239,,,01,E*1B
$IIMTW,+15.5,C*39
$IIMWV,164,R,05.8,N,A*1D
$IIMWV,165,T,08.7,N,A*18
$IIRMC,164814,A,4629.935,N,00641.141,E,03.4,242,250614,01,E,A*05
$IIVHW,,,240,M,02.7,N,,*67
$IIVLW,01527,N,000.1,N*53
$IIVWR,164,R,06.1,N,,,,*65
$IIDPT,014.2,-1.0,*47
$IIGLL,4629.934,N,00641.140,E,164815,A,A*5E
$IIHDG,240,,,01,E*15
$IIMTW,+15.5,C*39
$IIMWV,164,R,06.1,N,A*17
$IIMWV,169,T,08.3,N,A*10
$IIRMC,164816,A,4629.934,N,00641.139,E,03.3,249,250614,01,E,A*05
$IIVHW,,,241,M,02.7,N,,*66
$IIVLW,01527,N,000.1,N*53
$IIVWR,164,R,06.3,N,,,,*67
$IIDPT,014.2,-1.0,*47
$IIGLL,4629.934,N,00641.139,E,164816,A,A*53
$IIHDG,241,,,01,E*14
$IIMTW,+15.5,C*39
$IIMWV,164,R,06.3,N,A*15
$IIMWV,169,T,08.8,N,A*1B
$IIRMC,164817,A,4629.934,N,00641.138,E,03.1,250,250614,01,E,A*0F
$IIVHW,,,243,M,02.7,N,,*64
$IIVLW,01527,N,000.1,N*53
$IIVWR,157,R,06.3,N,,,,*67
$IIDPT,014.2,-1.0,*47
$IIGLL,4629.934,N,00641.138,E,164817,A,A*53
$IIHDG,243,,,01,E*16
$IIMTW,+15.5,C*39
$IIMWV,154,R,06.2,N,A*17
$IIMWV,164,T,08.7,N,A*19
$IIRMC,164818,A,4629.933,N,00641.137,E,03.2,252,250614,01,E,A*09
$IIVHW,,,244,M,02.7,N,,*63
$IIVLW,01527,N,000.1,N*53
$IIVWR,154,R,06.2,N,,,,*65
$IIDPT,014.2,-1.0,*47
$IIGLL,4629.933,N,00641.137,E,164818,A,A*54
$IIHDG,244,,,01,E*11
$IIMTW,+15.5,C*39
$IIMWV,150,R,06.0,N,A*11
$IIMWV,162,T,08.6,N,A*1E
$IIRMC,164819,A,4629.933,N,00641.135,E,03.2,249,250614,01,E,A*00
$IIVHW,,,245,M,02.7,N,,*62
$IIVLW,01527,N,000.1,N*53
$IIVWR,150,R,06.0,N,,,,*63
$IIDPT,014.2,-1.0,*47
$IIGLL,4629.933,N,00641.135,E,164819,A,A*57
$IIHDG,246,,,01,E*13
$IIMTW,+15.5,C*39
$IIMWV,147,R,06.3,N,A*14
$IIMWV,159,T,08.4,N,A*14
$IIRMC,164820,A,4629.933,N,00641.134,E,03.2,252,250614,01,E,A*01
$IIVHW,,,246,M,02.6,N,,*60
$IIVLW,01527,N,000.1,N*53
$IIVWR,147,R,06.3,N,,,,*66
$IIDPT,014.2,-1.0,*47
$IIGLL,4629.932,N,00641.133,E,164821,A,A*5B
$IIHDG,247,,,01,E*12
$IIMTW,+15.5,C*39
$IIMWV,146,R,06.5,N,A*13
$IIMWV,157,T,08.6,N,A*18
$IIRMC,164821,A,4629.932,N,00641.133,E,03.3,251,250614,01,E,A*04
$IIVHW,,,247,M,02.6,N,,*61
$IIVLW,01527,N,000.1,N*53
$IIVWR,146,R,06.5,N,,,,*61
$IIDPT,014.3,-1.0,*46
$IIGLL,4629.932,N,00641.132,E,164822,A,A*59
$IIHDG,247,,,01,E*12
$IIMTW,+15.5,C*39
$IIMWV,151,R,06.9,N,A*19
$IIMWV,156,T,08.7,N,A*18
$IIRMC,164822,A,4629.932,N,00641.132,E,03.3,250,250614,01,E,A*07
$IIVHW,,,247,M,02.6,N,,*61
$IIVLW,01527,N,000.1,N*53
$IIVWR,145,R,06.8,N,,,,*6F
$IIDPT,014.3,-1.0,*46
$IIGLL,4629.932,N,00641.130,E,164823,A,A*5A
$IIHDG,247,,,01,E*12
$IIMTW,+15.5,C*39
$IIMWV,145,R,06.8,N,A*1D
$IIMWV,159,T,09.3,N,A*12
$IIRMC,164823,A,4629.932,N,00641.130,E,03.4,251,250614,01,E,A*02
$IIVHW,,,247,M,02.6,N,,*61
$IIVLW,01527,N,000.1,N*53
$IIVWR,139,R,06.8,N,,,,*64
$IIDPT,014.3,-1.0,*46
$IIGLL,4629.931,N,00641.129,E,164824,A,A*56
$IIHDG,247,,,01,E*12
$IIMTW,+15.5,C*39
$IIMWV,139,R,06.8,N,A*16
$IIMWV,155,T,09.0,N,A*1D
$IIRMC,164824,A,4629.931,N,00641.129,E,03.5,249,250614,01,E,A*06
$IIVHW,,,247,M,02.7,N,,*60
$IIVLW,01527,N,000.2,N*50
$IIVWR,138,R,06.7,N,,,,*6A
$IIDPT,014.3,-1.0,*46
$IIGLL,4629.931,N,00641.127,E,164825,A,A*59
$IIHDG,247,,,01,E*12
$IIMTW,+15.5,C*39
$IIMWV,138,R,06.7,N,A*18
$IIMWV,150,T,08.9,N,A*10
$IIRMC,164826,A,4629.931,N,00641.126,E,03.5,249,250614,01,E,A*0B
$IIVHW,,,247,M,02.7,N,,*60
$IIVLW,01527,N,000.2,N*50
$IIVWR,139,R,06.7,N,,,,*6B
$IIDPT,014.3,-1.0,*46
$IIGLL,4629.931,N,00641.126,E,164826,A,A*5B
$IIHDG,247,,,01,E*12
$IIMTW,+15.5,C*39
$IIMWV,139,R,06.7,N,A*19
$IIMWV,150,T,08.8,N,A*11
$IIRMC,164827,A,4629.930,N,00641.125,E,03.6,246,250614,01,E,A*04
$IIVHW,,,246,M,02.7,N,,*61
$IIVLW,01527,N,000.2,N*50
$IIVWR,139,R,06.5,N,,,,*69
$IIDPT,014.3,-1.0,*46
$IIGLL,4629.930,N,00641.125,E,164827,A,A*58
$IIHDG,246,,,01,E*13
$IIMTW,+15.5,C*39
$IIMWV,138,R,06.5,N,A*1A
$IIMWV,151,T,08.5,N,A*1D
$IIRMC,164828,A,4629.930,N,00641.124,E,03.6,246,250614,01,E,A*0A
$IIVHW,,,246,M,02.7,N,,*61
$IIVLW,01527,N,000.2,N*50
$IIVWR,138,R,06.5,N,,,,*68
$IIDPT,014.1,-1.0,*44
$IIGLL,4629.930,N,00641.124,E,164828,A,A*56
$IIHDG,246,,,01,E*13
$IIMTW,+15.5,C*39
$IIMWV,138,R,06.3,N,A*1C
$IIMWV,150,T,08.6,N,A*1F
$IIRMC,164829,A,4629.930,N,00641.122,E,03.6,247,250614,01,E,A*0C
$IIVHW,,,245,M,02.7,N,,*62
$IIVLW,01527,N,000.2,N*50
$IIVWR,138,R,06.3,N,,,,*6E
$IIDPT,014.1,-1.0,*44
$IIGLL,4629.930,N,00641.122,E,164829,A,A*51
$IIHDG,245,,,01,E*10
$IIMTW,+16.0,C*3F
$IIMWV,137,R,06.3,N,A*13
$IIMWV,150,T,08.5,N,A*1C
$IIRMC,164829,A,4629.930,N,00641.122,E,03.6,247,250614,01,E,A*0C
$IIVHW,,,245,M,02.7,N,,*62
$IIVLW,01527,N,000.2,N*50
$IIVWR,137,R,06.3,N,,,,*61
$IIDPT,014.1,-1.0,*44
$IIGLL,4629.929,N,00641.120,E,164831,A,A*52
$IIHDG,244,,,01,E*11
$IIMTW,+16.0,C*3F
$IIMWV,137,R,06.3,N,A*13
$IIMWV,150,T,08.4,N,A*1D
$IIRMC,164831,A,4629.929,N,00641.120,E,03.6,245,250614,01,E,A*0D
$IIVHW,,,244,M,02.8,N,,*6C
$IIVLW,01527,N,000.2,N*50
$IIVWR,137,R,06.3,N,,,,*61
$IIDPT,014.1,-1.0,*44
$IIGLL,4629.928,N,00641.118,E,164832,A,A*5B
$IIHDG,244,,,01,E*11
$IIMTW,+16.0,C*3F
$IIMWV,135,R,06.4,N,A*16
$IIMWV,150,T,08.4,N,A*1D
$IIRMC,164832,A,4629.928,N,00641.118,E,03.7,246,250614,01,E,A*06
$IIVHW,,,244,M,02.8,N,,*6C
$IIVLW,01527,N,000.2,N*50
$IIVWR,131,R,06.6,N,,,,*62
$IIDPT,014.1,-1.0,*44
$IIGLL,4629.928,N,00641.117,E,164833,A,A*55
$IIHDG,243,,,01,E*16
$IIMTW,+16.0,C*3F
$IIMWV,131,R,06.6,N,A*10
$IIMWV,148,T,08.5,N,A*15
$IIRMC,164833,A,4629.928,N,00641.117,E,03.7,246,250614,01,E,A*08
$IIVHW,,,243,M,02.8,N,,*6B
$IIVLW,01527,N,000.2,N*50
$IIVWR,127,R,07.9,N,,,,*6B
$IIDPT,013.9,-1.0,*4B
$IIGLL,4629.927,N,00641.113,E,164836,A,A*5B
$IIHDG,240,,,01,E*15
$IIMTW,+16.0,C*3F
$IIMWV,127,R,07.9,N,A*19
$IIMWV,141,T,09.1,N,A*19
$IIRMC,164836,A,4629.927,N,00641.113,E,03.8,241,250614,01,E,A*0E
$IIVHW,,,240,M,02.7,N,,*67
$IIVLW,01527,N,000.2,N*50
$IIVWR,127,R,08.2,N,,,,*6F
$IIDPT,013.9,-1.0,*4B
$IIGLL,4629.926,N,00641.111,E,164837,A,A*59
$IIHDG,240,,,01,E*15
$IIMTW,+15.5,C*39
$IIMWV,127,R,08.2,N,A*1D
$IIMWV,140,T,09.7,N,A*1E
$IIRMC,164838,A,4629.926,N,00641.110,E,03.8,240,250614,01,E,A*03
$IIVHW,,,239,M,02.8,N,,*66
$IIVLW,01527,N,000.2,N*50
$IIVWR,126,R,08.3,N,,,,*6F
$IIDPT,013.7,-1.0,*45
$IIGLL,4629.926,N,00641.110,E,164838,A,A*57
$IIHDG,239,,,01,E*1B
$IIMTW,+15.5,C*39
$IIMWV,126,R,08.3,N,A*1D
$IIMWV,139,T,10.1,N,A*1E
$IIRMC,164839,A,4629.925,N,00641.109,E,03.8,240,250614,01,E,A*09
$IIVHW,,,238,M,02.7,N,,*68
$IIVLW,01527,N,000.2,N*50
$IIVWR,126,R,08.2,N,,,,*6E
$IIDPT,013.0,-1.0,*42
$IIGLL,4629.925,N,00641.109,E,164839,A,A*5D
$IIHDG,238,,,01,E*1A
$IIMTW,+15.5,C*39
$IIMWV,125,R,07.8,N,A*1A
$IIMWV,139,T,10.0,N,A*1F
$IIRMC,164840,A,4629.925,N,00641.107,E,03.8,239,250614,01,E,A*07
$IIVHW,,,238,M,02.8,N,,*67
$IIVLW,01527,N,000.2,N*50
$IIVWR,125,R,07.8,N,,,,*68
$IIDPT,013.1,-1.0,*43
$IIGLL,4629.925,N,00641.107,E,164840,A,A*5D
$IIHDG,238,,,01,E*1A
$IIMTW,+15.5,C*39
$IIMWV,122,R,07.7,N,A*12
$IIMWV,139,T,09.5,N,A*12
$IIRMC,164841,A,4629.924,N,00641.107,E,03.7,240,250614,01,E,A*06
$IIVHW,,,237,M,02.8,N,,*68
$IIVLW,01527,N,000.2,N*50
$IIVWR,122,R,07.7,N,,,,*60
$IIDPT,013.1,-1.0,*43
$IIGLL,4629.924,N,00641.107,E,164841,A,A*5D
$IIHDG,237,,,01,E*15
$IIMTW,+15.5,C*39
$IIMWV,124,R,07.6,N,A*15
$IIMWV,136,T,09.4,N,A*1C
$IIRMC,164842,A,4629.924,N,00641.106,E,03.7,238,250614,01,E,A*0B
$IIVHW,,,237,M,02.8,N,,*68
$IIVLW,01527,N,000.2,N*50
$IIVWR,124,R,07.6,N,,,,*67
$IIDPT,013.7,-1.0,*45
$IIGLL,4629.923,N,00641.105,E,164843,A,A*5A
$IIHDG,235,,,01,E*17
$IIMTW,+15.5,C*39
$IIMWV,119,R,07.1,N,A*1C
$IIMWV,138,T,09.4,N,A*12
$IIRMC,164843,A,4629.923,N,00641.105,E,03.7,237,250614,01,E,A*01
$IIVHW,,,235,M,02.8,N,,*6A
$IIVLW,01527,N,000.2,N*50
$IIVWR,119,R,07.1,N,,,,*6E
$IIDPT,014.0,-1.0,*45
$IIGLL,4629.923,N,00641.104,E,164844,A,A*5C
$IIHDG,235,,,01,E*17
$IIMTW,+15.5,C*39
$IIMWV,117,R,06.8,N,A*1A
$IIMWV,136,T,08.7,N,A*1E
$IIRMC,164844,A,4629.923,N,00641.104,E,03.7,241,250614,01,E,A*06
$IIVHW,,,235,M,02.8,N,,*6A
$IIVLW,01527,N,000.2,N*50
$IIVWR,118,R,06.3,N,,,,*6C
$IIDPT,014.0,-1.0,*45
$IIGLL,4629.922,N,00641.103,E,164845,A,A*5B
$IIHDG,234,,,01,E*16
$IIMTW,+15.5,C*39
$IIMWV,118,R,06.3,N,A*1E
$IIMWV,135,T,08.4,N,A*1E
$IIRMC,164845,A,4629.922,N,00641.103,E,03.7,237,250614,01,E,A*00
$IIVHW,,,234,M,02.9,N,,*6A
$IIVLW,01527,N,000.2,N*50
$IIVWR,118,R,06.0,N,,,,*6F
$IIDPT,014.0,-1.0,*45
$IIGLL,4629.922,N,00641.102,E,164846,A,A*59
$IIHDG,234,,,01,E*16
$IIMTW,+15.5,C*39
$IIMWV,118,R,06.0,N,A*1D
$IIMWV,137,T,07.9,N,A*1E
$IIRMC,164846,A,4629.922,N,00641.102,E,03.7,237,250614,01,E,A*02
$IIVHW,,,234,M,02.8,N,,*6B
$IIVLW,01527,N,000.2,N*50
$IIVWR,121,R,05.8,N,,,,*6E
$IIDPT,014.0,-1.0,*45
$IIGLL,4629.921,N,00641.100,E,164847,A,A*59
$IIHDG,234,,,01,E*16
$IIMTW,+16.5,C*3A
$IIMWV,121,R,05.8,N,A*1C
$IIMWV,138,T,07.7,N,A*1F
$IIRMC,164848,A,4629.921,N,00641.099,E,03.7,238,250614,01,E,A*03
$IIVHW,,,234,M,02.8,N,,*6B
$IIVLW,01527,N,000.2,N*50
$IIVWR,121,R,05.6,N,,,,*60
$IIDPT,013.9,-1.0,*4B
$IIGLL,4629.921,N,00641.099,E,164848,A,A*57
$IIHDG,234,,,01,E*16
$IIMTW,+15.5,C*39
$IIMWV,121,R,05.6,N,A*12
$IIMWV,140,T,07.4,N,A*13
$IIRMC,164849,A,4629.920,N,00641.098,E,03.7,236,250614,01,E,A*0C
$IIVHW,,,234,M,02.8,N,,*6B
$IIVLW,01527,N,000.2,N*50
$IIVWR,123,R,05.3,N,,,,*67
$IIDPT,013.7,-1.0,*45
$IIGLL,4629.920,N,00641.098,E,164849,A,A*56
$IIHDG,234,,,01,E*16
$IIMTW,+15.5,C*39
$IIMWV,127,R,05.4,N,A*16
$IIMWV,142,T,07.2,N,A*17
