$IIMWV,117,R,06.9,N,A*1B
$IIMWV,141,T,09.5,N,A*1D
$IIVHW,,,054,M,04.2,N,,*63
$IIVLW,01581,N,000.3,N*5D
$IIVWR,117,R,06.9,N,,,,*69
$IIDPT,012.9,-1.0,*4A
$IIHDG,054,,,01,E*12
$IIMTW,+14.5,C*38
$IIMWV,116,R,06.9,N,A*1A
$IIMWV,140,T,09.5,N,A*1C
$IIVHW,,,055,M,04.2,N,,*62
$IIVLW,01581,N,000.3,N*5D
$IIVWR,116,R,06.9,N,,,,*68
$IIDPT,012.9,-1.0,*4A
$IIHDG,055,,,01,E*13
$IIMTW,+15.0,C*3C
$IIMWV,114,R,07.1,N,A*11
$IIMWV,140,T,09.5,N,A*1C
$IIVHW,,,056,M,04.3,N,,*60
$IIVLW,01581,N,000.3,N*5D
$IIVWR,114,R,07.1,N,,,,*63
$IIDPT,031.9,-1.0,*4B
$IIHDG,056,,,01,E*10
$IIMTW,+14.5,C*38
$IIMWV,113,R,07.3,N,A*14
$IIMWV,138,T,09.6,N,A*10
$IIVHW,,,057,M,04.3,N,,*61
$IIVLW,01581,N,000.3,N*5D
$IIVWR,113,R,07.3,N,,,,*66
$IIDPT,031.9,-1.0,*4B
$IIHDG,057,,,01,E*11
$IIMTW,+15.0,C*3C
$IIMWV,112,R,07.3,N,A*15
$IIMWV,137,T,09.7,N,A*1E
$IIVHW,,,058,M,04.4,N,,*69
$IIVLW,01581,N,000.3,N*5D
$IIVWR,109,R,07.3,N,,,,*6D
$IIDPT,035.2,-1.0,*44
$IIHDG,058,,,01,E*1E
$IIMTW,+15.5,C*39
$IIMWV,109,R,07.3,N,A*1F
$IIMWV,137,T,09.7,N,A*1E
$IIVHW,,,059,M,04.4,N,,*68
$IIVLW,01581,N,000.3,N*5D
$IIVWR,106,R,07.2,N,,,,*63
$IIDPT,041.4,-1.0,*41
$IIHDG,059,,,01,E*1F
$IIMTW,+14.5,C*38
$IIMWV,106,R,07.2,N,A*11
$IIMWV,135,T,09.6,N,A*1D
$IIVHW,,,060,M,04.4,N,,*62
$IIVLW,01581,N,000.3,N*5D
$IIVWR,104,R,07.2,N,,,,*61
$IIDPT,041.4,-1.0,*41
$IIHDG,060,,,01,E*15
$IIMTW,+14.0,C*3D
$IIMWV,104,R,07.2,N,A*13
$IIMWV,133,T,09.4,N,A*19
$IIVHW,,,061,M,04.5,N,,*62
$IIVLW,01581,N,000.3,N*5D
$IIVWR,100,R,07.2,N,,,,*65
$IIDPT,033.8,-1.0,*48
$IIHDG,061,,,01,E*14
$IIMTW,+15.5,C*39
$IIMWV,100,R,07.2,N,A*17
$IIMWV,132,T,09.2,N,A*1E
$IIVHW,,,061,M,04.5,N,,*62
$IIVLW,01581,N,000.3,N*5D
$IIVWR,097,R,07.2,N,,,,*6A
$IIDPT,033.8,-1.0,*48
$IIHDG,061,,,01,E*14
$IIMTW,+15.5,C*39
$IIMWV,097,R,07.2,N,A*18
$IIMWV,129,T,09.0,N,A*16
$IIVHW,,,061,M,04.5,N,,*62
$IIVLW,01581,N,000.3,N*5D
$IIVWR,097,R,07.3,N,,,,*6B
$IIDPT,030.4,-1.0,*47
$IIHDG,061,,,01,E*14
$IIMTW,+14.0,C*3D
$IIMWV,097,R,07.3,N,A*19
$IIMWV,127,T,08.8,N,A*11
$IIVHW,,,062,M,04.6,N,,*62
$IIVLW,01581,N,000.3,N*5D
$IIVWR,094,R,07.3,N,,,,*68
$IIDPT,030.4,-1.0,*47
$IIHDG,062,,,01,E*17
$IIMTW,+14.0,C*3D
$IIMWV,094,R,07.3,N,A*1A
$IIMWV,127,T,09.0,N,A*18
$IIVHW,,,063,M,04.6,N,,*63
$IIVLW,01581,N,000.3,N*5D
$IIVWR,093,R,07.3,N,,,,*6F
$IIDPT,030.4,-1.0,*47
$IIHDG,063,,,01,E*16
$IIMTW,+15.5,C*39
$IIMWV,093,R,07.3,N,A*1D
$IIMWV,125,T,08.9,N,A*12
$IIVHW,,,063,M,04.6,N,,*63
$IIVLW,01581,N,000.3,N*5D
$IIVWR,091,R,07.4,N,,,,*6A
$IIDPT,030.4,-1.0,*47
$IIHDG,063,,,01,E*16
$IIMTW,+15.5,C*39
$IIMWV,091,R,07.4,N,A*18
$IIMWV,124,T,08.7,N,A*1D
$IIVHW,,,063,M,04.7,N,,*62
$IIVLW,01581,N,000.3,N*5D
$IIVWR,089,R,07.4,N,,,,*63
$IIDPT,029.9,-1.0,*42
$IIHDG,063,,,01,E*16
$IIMTW,+15.5,C*39
$IIMWV,089,R,07.4,N,A*11
$IIMWV,123,T,08.8,N,A*15
$IIVHW,,,063,M,04.7,N,,*62
$IIVLW,01581,N,000.3,N*5D
$IIVWR,089,R,07.4,N,,,,*63
$IIDPT,029.9,-1.0,*42
$IIHDG,063,,,01,E*16
$IIMTW,+15.5,C*39
$IIMWV,089,R,07.4,N,A*11
$IIMWV,122,T,08.7,N,A*1B
$IIVHW,,,063,M,04.8,N,,*6D
$IIVLW,01581,N,000.3,N*5D
$IIVWR,090,R,07.4,N,,,,*6B
$IIDPT,031.2,-1.0,*40
$IIHDG,063,,,01,E*16
$IIMTW,+15.5,C*39
$IIMWV,090,R,07.4,N,A*19
$IIMWV,123,T,08.7,N,A*1A
$IIVHW,,,062,M,04.8,N,,*6C
$IIVLW,01581,N,000.3,N*5D
$IIVWR,089,R,07.3,N,,,,*64
$IIDPT,034.4,-1.0,*43
$IIHDG,062,,,01,E*17
$IIMTW,+14.5,C*38
$IIMWV,089,R,07.3,N,A*16
$IIMWV,123,T,08.8,N,A*15
$IIVHW,,,062,M,04.9,N,,*6D
$IIVLW,01581,N,000.3,N*5D
$IIVWR,088,R,07.3,N,,,,*65
$IIDPT,031.6,-1.0,*44
$IIHDG,062,,,01,E*17
$IIMTW,+14.0,C*3D
$IIMWV,088,R,07.3,N,A*17
$IIMWV,123,T,08.7,N,A*1A
$IIVHW,,,061,M,04.9,N,,*6E
$IIVLW,01581,N,000.3,N*5D
$IIVWR,087,R,07.2,N,,,,*6B
$IIDPT,031.6,-1.0,*44
$IIHDG,061,,,01,E*14
$IIMTW,+14.0,C*3D
$IIMWV,087,R,07.2,N,A*19
$IIMWV,123,T,08.6,N,A*1B
$IIVHW,,,062,M,05.0,N,,*65
$IIVLW,01581,N,000.3,N*5D
$IIVWR,086,R,07.2,N,,,,*6A
$IIDPT,031.6,-1.0,*44
$IIHDG,062,,,01,E*17
$IIMTW,+14.0,C*3D
$IIMWV,086,R,07.2,N,A*18
$IIMWV,123,T,08.5,N,A*18
$IIVHW,,,063,M,05.0,N,,*64
$IIVLW,01581,N,000.3,N*5D
$IIVWR,085,R,07.1,N,,,,*6A
$IIDPT,031.6,-1.0,*44
$IIHDG,063,,,01,E*16
$IIMTW,+15.0,C*3C
$IIMWV,085,R,07.1,N,A*18
$IIMWV,122,T,08.4,N,A*18
$IIVHW,,,063,M,05.1,N,,*65
$IIVLW,01581,N,000.3,N*5D
$IIVWR,083,R,07.1,N,,,,*6C
$IIDPT,031.9,-1.0,*4B
$IIHDG,063,,,01,E*16
$IIMTW,+14.0,C*3D
$IIMWV,083,R,07.1,N,A*1E
$IIMWV,122,T,08.4,N,A*18
$IIVHW,,,063,M,05.1,N,,*65
$IIVLW,01581,N,000.3,N*5D
$IIVWR,084,R,06.9,N,,,,*62
$IIDPT,030.9,-1.0,*4A
$IIHDG,063,,,01,E*16
$IIMTW,+15.0,C*3C
$IIMWV,084,R,06.9,N,A*10
$IIMWV,122,T,08.2,N,A*1E
$IIVHW,,,065,M,05.1,N,,*63
$IIVLW,01581,N,000.3,N*5D
$IIVWR,084,R,06.9,N,,,,*62
$IIDPT,030.9,-1.0,*4A
$IIHDG,065,,,01,E*10
$IIMTW,+14.0,C*3D
$IIMWV,084,R,06.9,N,A*10
$IIMWV,123,T,08.1,N,A*1C
$IIVHW,,,065,M,05.2,N,,*60
$IIVLW,01581,N,000.4,N*5A
$IIVWR,085,R,06.8,N,,,,*62
$IIDPT,010.8,-1.0,*49
$IIHDG,065,,,01,E*10
$IIMTW,+14.0,C*3D
$IIMWV,085,R,06.8,N,A*10
$IIMWV,124,T,08.2,N,A*18
$IIVHW,,,065,M,05.2,N,,*60
$IIVLW,01581,N,000.4,N*5A
$IIVWR,086,R,07.0,N,,,,*68
$IIDPT,010.6,-1.0,*47
$IIHDG,065,,,01,E*10
$IIMTW,+15.0,C*3C
$IIMWV,086,R,07.0,N,A*1A
$IIMWV,124,T,08.2,N,A*18
$IIVHW,,,065,M,05.3,N,,*61
$IIVLW,01581,N,000.4,N*5A
$IIVWR,086,R,07.1,N,,,,*69
$IIDPT,010.6,-1.0,*47
$IIHDG,065,,,01,E*10
$IIMTW,+16.0,C*3F
$IIMWV,086,R,07.1,N,A*1B
$IIMWV,125,T,08.5,N,A*1E
$IIVHW,,,064,M,05.3,N,,*60
$IIVLW,01581,N,000.4,N*5A
$IIVWR,087,R,07.2,N,,,,*6B
$IIDPT,010.6,-1.0,*47
$IIHDG,064,,,01,E*11
$IIMTW,+16.0,C*3F
$IIMWV,087,R,07.2,N,A*19
$IIMWV,125,T,08.6,N,A*1D
$IIVHW,,,064,M,05.3,N,,*60
$IIVLW,01581,N,000.4,N*5A
$IIVWR,087,R,07.2,N,,,,*6B
$IIDPT,010.6,-1.0,*47
$IIHDG,064,,,01,E*11
$IIMTW,+16.0,C*3F
$IIMWV,087,R,07.2,N,A*19
$IIMWV,125,T,08.8,N,A*13
$IIVHW,,,064,M,05.4,N,,*67
$IIVLW,01581,N,000.4,N*5A
$IIVWR,088,R,07.3,N,,,,*65
$IIDPT,010.6,-1.0,*47
$IIHDG,064,,,01,E*11
$IIMTW,+16.0,C*3F
$IIMWV,088,R,07.3,N,A*17
$IIMWV,125,T,08.8,N,A*13
$IIVHW,,,064,M,05.4,N,,*67
$IIVLW,01581,N,000.4,N*5A
$IIVWR,089,R,07.2,N,,,,*65
$IIDPT,010.6,-1.0,*47
$IIHDG,064,,,01,E*11
$IIMTW,+16.0,C*3F
$IIMWV,089,R,07.2,N,A*17
$IIMWV,125,T,08.9,N,A*12
$IIVHW,,,064,M,05.4,N,,*67
$IIVLW,01581,N,000.4,N*5A
$IIVWR,088,R,07.2,N,,,,*64
$IIDPT,010.6,-1.0,*47
$IIHDG,064,,,01,E*11
$IIMTW,+14.5,C*38
$IIMWV,088,R,07.2,N,A*16
$IIMWV,126,T,08.9,N,A*11
$IIVHW,,,063,M,05.4,N,,*60
$IIVLW,01581,N,000.4,N*5A
$IIVWR,089,R,07.1,N,,,,*66
$IIDPT,010.6,-1.0,*47
$IIHDG,063,,,01,E*16
$IIMTW,+14.5,C*38
$IIMWV,089,R,07.1,N,A*14
$IIMWV,126,T,08.8,N,A*10
$IIVHW,,,063,M,05.4,N,,*60
$IIVLW,01581,N,000.4,N*5A
$IIVWR,090,R,07.0,N,,,,*6F
$IIDPT,010.6,-1.0,*47
$IIHDG,063,,,01,E*16
$IIMTW,+15.0,C*3C
$IIMWV,090,R,07.0,N,A*1D
$IIMWV,127,T,08.9,N,A*10
$IIVHW,,,063,M,05.4,N,,*60
$IIVLW,01581,N,000.4,N*5A
$IIVWR,090,R,07.0,N,,,,*6F
$IIDPT,010.6,-1.0,*47
$IIHDG,063,,,01,E*16
$IIMTW,+15.0,C*3C
$IIMWV,090,R,07.0,N,A*1D
$IIMWV,128,T,08.9,N,A*1F
$IIVHW,,,063,M,05.5,N,,*61
$IIVLW,01581,N,000.4,N*5A
$IIVWR,089,R,06.9,N,,,,*6F
$IIDPT,010.6,-1.0,*47
$IIHDG,063,,,01,E*16
$IIMTW,+15.0,C*3C
$IIMWV,089,R,06.9,N,A*1D
$IIMWV,128,T,08.9,N,A*1F
$IIVHW,,,063,M,05.5,N,,*61
$IIVLW,01581,N,000.4,N*5A
$IIVWR,089,R,06.9,N,,,,*6F
$IIDPT,010.6,-1.0,*47
$IIHDG,063,,,01,E*16
$IIMTW,+15.5,C*39
$IIMWV,089,R,06.9,N,A*1D
$IIMWV,128,T,08.7,N,A*11
$IIVHW,,,063,M,05.5,N,,*61
$IIVLW,01581,N,000.4,N*5A
$IIVWR,088,R,06.9,N,,,,*6E
$IIDPT,010.6,-1.0,*47
$IIHDG,063,,,01,E*16
$IIMTW,+15.5,C*39
$IIMWV,088,R,06.9,N,A*1C
$IIMWV,128,T,08.7,N,A*11
$IIVHW,,,063,M,05.5,N,,*61
$IIVLW,01581,N,000.4,N*5A
$IIVWR,089,R,06.9,N,,,,*6F
$IIDPT,010.6,-1.0,*47
$IIHDG,063,,,01,E*16
$IIMTW,+14.5,C*38
$IIMWV,089,R,06.9,N,A*1D
$IIMWV,128,T,08.7,N,A*11
$IIVHW,,,063,M,05.5,N,,*61
$IIVLW,01581,N,000.4,N*5A
$IIVWR,089,R,06.8,N,,,,*6E
$IIDPT,010.6,-1.0,*47
$IIHDG,063,,,01,E*16
$IIMTW,+14.0,C*3D
$IIMWV,089,R,06.8,N,A*1C
$IIMWV,128,T,08.7,N,A*11
$IIVHW,,,063,M,05.5,N,,*61
$IIVLW,01581,N,000.4,N*5A
$IIVWR,090,R,06.7,N,,,,*69
$IIDPT,010.6,-1.0,*47
$IIHDG,063,,,01,E*16
$IIMTW,+14.5,C*38
$IIMWV,090,R,06.7,N,A*1B
$IIMWV,128,T,08.6,N,A*10
$IIVHW,,,063,M,05.5,N,,*61
$IIVLW,01581,N,000.4,N*5A
$IIVWR,091,R,06.8,N,,,,*67
$IIDPT,010.6,-1.0,*47
$IIHDG,063,,,01,E*16
$IIMTW,+14.5,C*38
$IIMWV,091,R,06.8,N,A*15
$IIMWV,130,T,08.7,N,A*18
$IIVHW,,,063,M,05.5,N,,*61
$IIVLW,01581,N,000.4,N*5A
$IIVWR,092,R,06.7,N,,,,*6B
$IIDPT,010.6,-1.0,*47
$IIHDG,063,,,01,E*16
$IIMTW,+14.5,C*38
$IIMWV,092,R,06.7,N,A*19
$IIMWV,130,T,08.8,N,A*17
$IIVHW,,,063,M,05.5,N,,*61
$IIVLW,01581,N,000.4,N*5A
$IIVWR,093,R,06.7,N,,,,*6A
$IIDPT,010.6,-1.0,*47
$IIHDG,063,,,01,E*16
$IIMTW,+15.0,C*3C
$IIMWV,093,R,06.7,N,A*18
$IIMWV,131,T,08.8,N,A*16
$IIVHW,,,063,M,05.5,N,,*61
$IIVLW,01581,N,000.4,N*5A
$IIVWR,093,R,06.5,N,,,,*68
$IIDPT,010.6,-1.0,*47
$IIHDG,063,,,01,E*16
$IIMTW,+15.0,C*3C
$IIMWV,093,R,06.5,N,A*1A
$IIMWV,131,T,08.9,N,A*17
$IIVHW,,,063,M,05.5,N,,*61
$IIVLW,01581,N,000.4,N*5A
$IIVWR,094,R,06.6,N,,,,*6C
$IIDPT,010.6,-1.0,*47
$IIHDG,063,,,01,E*16
$IIMTW,+15.0,C*3C
$IIMWV,094,R,06.6,N,A*1E
$IIMWV,132,T,08.7,N,A*1A
$IIVHW,,,062,M,05.5,N,,*60
$IIVLW,01581,N,000.4,N*5A
$IIVWR,094,R,06.5,N,,,,*6F
$IIDPT,010.6,-1.0,*47
$IIHDG,062,,,01,E*17
$IIMTW,+15.0,C*3C
$IIMWV,094,R,06.5,N,A*1D
$IIMWV,132,T,08.9,N,A*14
$IIVHW,,,062,M,05.5,N,,*60
$IIVLW,01581,N,000.4,N*5A
$IIVWR,094,R,06.5,N,,,,*6F
$IIDPT,010.6,-1.0,*47
$IIHDG,062,,,01,E*17
$IIMTW,+14.5,C*38
$IIMWV,094,R,06.5,N,A*1D
$IIMWV,133,T,08.8,N,A*14
$IIVHW,,,062,M,05.5,N,,*60
$IIVLW,01581,N,000.4,N*5A
$IIVWR,094,R,06.4,N,,,,*6E
$IIDPT,010.6,-1.0,*47
$IIHDG,062,,,01,E*17
$IIMTW,+14.0,C*3D
$IIMWV,094,R,06.4,N,A*1C
$IIMWV,133,T,08.8,N,A*14
$IIVHW,,,063,M,05.5,N,,*61
$IIVLW,01581,N,000.4,N*5A
$IIVWR,094,R,06.4,N,,,,*6E
$IIDPT,010.6,-1.0,*47
$IIHDG,063,,,01,E*16
$IIMTW,+14.0,C*3D
$IIMWV,094,R,06.4,N,A*1C
$IIMWV,133,T,08.7,N,A*1B
$IIVHW,,,063,M,05.5,N,,*61
$IIVLW,01581,N,000.4,N*5A
$IIVWR,095,R,06.4,N,,,,*6F
$IIDPT,010.6,-1.0,*47
$IIHDG,063,,,01,E*16
$IIMTW,+14.0,C*3D
$IIMWV,095,R,06.4,N,A*1D
$IIMWV,133,T,08.7,N,A*1B
$IIVHW,,,063,M,05.5,N,,*61
$IIVLW,01581,N,000.4,N*5A
$IIVWR,095,R,06.4,N,,,,*6F
$IIDPT,030.9,-1.0,*4A
$IIHDG,063,,,01,E*16
$IIMTW,+14.5,C*38
$IIMWV,095,R,06.4,N,A*1D
$IIMWV,134,T,08.8,N,A*13
$IIVHW,,,063,M,05.5,N,,*61
$IIVLW,01581,N,000.4,N*5A
$IIVWR,094,R,06.7,N,,,,*6D
$IIDPT,032.5,-1.0,*44
$IIHDG,063,,,01,E*16
$IIMTW,+14.5,C*38
$IIMWV,094,R,06.7,N,A*1F
$IIMWV,133,T,08.7,N,A*1B
$IIVHW,,,063,M,05.5,N,,*61
$IIVLW,01581,N,000.4,N*5A
$IIVWR,094,R,06.4,N,,,,*6E
$IIDPT,032.5,-1.0,*44
$IIHDG,063,,,01,E*16
$IIMTW,+14.0,C*3D
$IIMWV,094,R,06.4,N,A*1C
$IIMWV,131,T,08.9,N,A*17
$IIVHW,,,063,M,05.4,N,,*60
$IIVLW,01581,N,000.4,N*5A
$IIVWR,095,R,06.2,N,,,,*69
$IIDPT,032.8,-1.0,*49
$IIHDG,063,,,01,E*16
$IIMTW,+14.0,C*3D
$IIMWV,095,R,06.2,N,A*1B
$IIMWV,133,T,08.7,N,A*1B
$IIVHW,,,062,M,05.4,N,,*61
$IIVLW,01581,N,000.4,N*5A
$IIVWR,095,R,06.1,N,,,,*6A
$IIDPT,035.8,-1.0,*4E
$IIHDG,062,,,01,E*17
$IIMTW,+14.5,C*38
$IIMWV,095,R,06.1,N,A*18
$IIMWV,134,T,08.6,N,A*1D
$IIVHW,,,061,M,05.4,N,,*62
$IIVLW,01581,N,000.4,N*5A
$IIVWR,095,R,06.0,N,,,,*6B
$IIDPT,033.0,-1.0,*40
$IIHDG,061,,,01,E*14
$IIMTW,+14.5,C*38
$IIMWV,095,R,06.0,N,A*19
$IIMWV,134,T,08.4,N,A*1F
$IIVHW,,,060,M,05.3,N,,*64
$IIVLW,01581,N,000.4,N*5A
$IIVWR,096,R,05.9,N,,,,*62
$IIDPT,030.9,-1.0,*4A
$IIHDG,060,,,01,E*15
$IIMTW,+14.5,C*38
$IIMWV,096,R,05.9,N,A*10
$IIMWV,135,T,08.4,N,A*1E
$IIVHW,,,060,M,05.3,N,,*64
$IIVLW,01581,N,000.4,N*5A
$IIVWR,097,R,06.2,N,,,,*6B
$IIDPT,030.9,-1.0,*4A
$IIHDG,060,,,01,E*15
$IIMTW,+14.5,C*38
$IIMWV,097,R,06.2,N,A*19
$IIMWV,135,T,08.2,N,A*18
$IIVHW,,,060,M,05.3,N,,*64
$IIVLW,01581,N,000.4,N*5A
$IIVWR,097,R,06.0,N,,,,*69
$IIDPT,031.5,-1.0,*47
$IIHDG,060,,,01,E*15
$IIMTW,+14.5,C*38
$IIMWV,097,R,06.0,N,A*1B
$IIMWV,135,T,08.6,N,A*1C
$IIVHW,,,060,M,05.2,N,,*65
$IIVLW,01581,N,000.4,N*5A
$IIVWR,098,R,05.7,N,,,,*62
$IIDPT,032.0,-1.0,*41
$IIHDG,060,,,01,E*15
$IIMTW,+14.5,C*38
$IIMWV,098,R,05.7,N,A*10
$IIMWV,135,T,08.4,N,A*1E
$IIVHW,,,060,M,05.2,N,,*65
$IIVLW,01581,N,000.4,N*5A
$IIVWR,100,R,05.7,N,,,,*62
$IIDPT,031.7,-1.0,*45
$IIHDG,060,,,01,E*15
$IIMTW,+14.5,C*38
$IIMWV,100,R,05.7,N,A*10
$IIMWV,137,T,08.2,N,A*1A
$IIVHW,,,060,M,05.2,N,,*65
$IIVLW,01581,N,000.4,N*5A
$IIVWR,101,R,05.6,N,,,,*62
$IIDPT,031.7,-1.0,*45
$IIHDG,060,,,01,E*15
$IIMTW,+14.5,C*38
$IIMWV,101,R,05.6,N,A*10
$IIMWV,138,T,08.2,N,A*15
$IIVHW,,,061,M,05.1,N,,*67
$IIVLW,01581,N,000.4,N*5A
$IIVWR,100,R,05.7,N,,,,*62
$IIDPT,032.0,-1.0,*41
$IIHDG,061,,,01,E*14
$IIMTW,+14.5,C*38
$IIMWV,100,R,05.7,N,A*10
$IIMWV,139,T,08.2,N,A*14
$IIRMC,095333,A,4614.087,N,00610.579,E,05.3,057,290614,01,E,A*0A
$IIVHW,,,061,M,05.0,N,,*66
$IIVLW,01581,N,000.4,N*5A
$IIVWR,100,R,05.7,N,,,,*62
$IIDPT,032.0,-1.0,*41
$IIGLL,4614.087,N,00610.579,E,095333,A,A*5B
$IIHDG,061,,,01,E*14
$IIMTW,+14.5,C*38
$IIMWV,100,R,05.7,N,A*10
$IIMWV,138,T,08.1,N,A*16
$IIRMC,095334,A,4614.087,N,00610.579,E,05.1,054,290614,01,E,A*0C
$IIVHW,,,061,M,05.0,N,,*66
$IIVLW,01581,N,000.4,N*5A
$IIVWR,099,R,05.5,N,,,,*61
$IIDPT,029.7,-1.0,*4C
$IIGLL,4614.087,N,00610.579,E,095334,A,A*5C
$IIHDG,061,,,01,E*14
$IIMTW,+14.0,C*3D
$IIMWV,101,R,05.5,N,A*13
$IIMWV,138,T,07.9,N,A*11
$IIRMC,095335,A,4614.088,N,00610.581,E,05.1,058,290614,01,E,A*09
$IIVHW,,,061,M,05.0,N,,*66
$IIVLW,01581,N,000.4,N*5A
$IIVWR,101,R,05.5,N,,,,*61
$IIDPT,029.6,-1.0,*4D
$IIGLL,4614.088,N,00610.581,E,095335,A,A*55
$IIHDG,061,,,01,E*14
$IIMTW,+14.5,C*38
$IIMWV,104,R,05.4,N,A*17
$IIMWV,139,T,08.0,N,A*16
$IIRMC,095336,A,4614.088,N,00610.583,E,05.1,057,290614,01,E,A*07
$IIVHW,,,061,M,04.9,N,,*6E
$IIVLW,01581,N,000.4,N*5A
$IIVWR,104,R,05.4,N,,,,*65
$IIDPT,029.6,-1.0,*4D
$IIGLL,4614.088,N,00610.583,E,095336,A,A*54
$IIHDG,061,,,01,E*14
$IIMTW,+14.5,C*38
$IIMWV,103,R,05.5,N,A*11
$IIMWV,140,T,08.0,N,A*18
$IIRMC,095337,A,4614.089,N,00610.584,E,04.9,059,290614,01,E,A*07
$IIVHW,,,061,M,04.9,N,,*6E
$IIVLW,01581,N,000.4,N*5A
$IIVWR,103,R,05.5,N,,,,*63
$IIDPT,029.6,-1.0,*4D
$IIGLL,4614.090,N,00610.585,E,095338,A,A*55
$IIHDG,061,,,01,E*14
$IIMTW,+14.5,C*38
$IIMWV,104,R,05.7,N,A*14
$IIMWV,139,T,08.0,N,A*16
$IIRMC,095338,A,4614.090,N,00610.585,E,04.9,061,290614,01,E,A*0A
$IIVHW,,,061,M,04.8,N,,*6F
$IIVLW,01581,N,000.4,N*5A
$IIVWR,104,R,05.7,N,,,,*66
$IIDPT,034.8,-1.0,*4F
$IIGLL,4614.091,N,00610.586,E,095339,A,A*56
$IIHDG,062,,,01,E*17
$IIMTW,+14.5,C*38
$IIMWV,104,R,05.7,N,A*14
$IIMWV,138,T,08.2,N,A*15
$IIRMC,095339,A,4614.091,N,00610.586,E,04.9,062,290614,01,E,A*0A
$IIVHW,,,062,M,04.8,N,,*6C
$IIVLW,01581,N,000.4,N*5A
$IIVWR,106,R,05.6,N,,,,*65
$IIDPT,034.8,-1.0,*4F
$IIGLL,4614.093,N,00610.587,E,095340,A,A*5B
$IIHDG,063,,,01,E*16
$IIMTW,+14.0,C*3D
$IIMWV,106,R,05.6,N,A*17
$IIMWV,138,T,08.2,N,A*15
$IIRMC,095340,A,4614.093,N,00610.587,E,04.9,061,290614,01,E,A*04
$IIVHW,,,063,M,04.8,N,,*6D
$IIVLW,01581,N,000.4,N*5A
$IIVWR,109,R,05.7,N,,,,*6B
$IIDPT,034.8,-1.0,*4F
$IIGLL,4614.094,N,00610.588,E,095341,A,A*52
$IIHDG,063,,,01,E*16
$IIMTW,+14.0,C*3D
$IIMWV,109,R,05.7,N,A*19
$IIMWV,140,T,08.2,N,A*1A
$IIRMC,095341,A,4614.094,N,00610.588,E,04.8,061,290614,01,E,A*0C
$IIVHW,,,063,M,04.7,N,,*62
$IIVLW,01581,N,000.4,N*5A
$IIVWR,107,R,05.7,N,,,,*65
$IIDPT,032.6,-1.0,*47
$IIGLL,4614.095,N,00610.590,E,095342,A,A*59
$IIHDG,063,,,01,E*16
$IIMTW,+14.5,C*38
$IIMWV,107,R,05.7,N,A*17
$IIMWV,141,T,08.5,N,A*1C
$IIRMC,095343,A,4614.097,N,00610.591,E,04.6,060,290614,01,E,A*0A
$IIVHW,,,063,M,04.7,N,,*62
$IIVLW,01581,N,000.4,N*5A
$IIVWR,108,R,05.7,N,,,,*6A
$IIDPT,032.0,-1.0,*41
$IIGLL,4614.097,N,00610.591,E,095343,A,A*5B
$IIHDG,063,,,01,E*16
$IIMTW,+14.0,C*3D
$IIMWV,108,R,05.7,N,A*18
$IIMWV,140,T,08.3,N,A*1B
$IIRMC,095344,A,4614.097,N,00610.592,E,04.6,058,290614,01,E,A*05
$IIVHW,,,063,M,04.7,N,,*62
$IIVLW,01581,N,000.4,N*5A
$IIVWR,109,R,05.5,N,,,,*69
$IIDPT,032.0,-1.0,*41
$IIGLL,4614.097,N,00610.592,E,095344,A,A*5F
$IIHDG,063,,,01,E*16
$IIMTW,+13.5,C*3F
$IIMWV,106,R,05.5,N,A*14
$IIMWV,141,T,08.3,N,A*1A
$IIRMC,095345,A,4614.098,N,00610.594,E,05.0,063,290614,01,E,A*02
$IIVHW,,,064,M,04.6,N,,*64
$IIVLW,01581,N,000.4,N*5A
$IIVWR,106,R,05.5,N,,,,*66
$IIDPT,032.0,-1.0,*41
$IIGLL,4614.098,N,00610.594,E,095345,A,A*57
$IIHDG,064,,,01,E*11
$IIMTW,+14.5,C*38
$IIMWV,106,R,05.3,N,A*12
$IIMWV,140,T,08.0,N,A*18
$IIRMC,095346,A,4614.099,N,00610.596,E,05.7,062,290614,01,E,A*04
$IIVHW,,,064,M,04.6,N,,*64
$IIVLW,01581,N,000.4,N*5A
$IIVWR,106,R,05.3,N,,,,*60
$IIDPT,032.0,-1.0,*41
$IIGLL,4614.099,N,00610.596,E,095346,A,A*57
$IIHDG,064,,,01,E*11
$IIMTW,+14.5,C*38
$IIMWV,107,R,05.7,N,A*17
$IIMWV,141,T,07.8,N,A*1E
$IIRMC,095347,A,4614.099,N,00610.598,E,05.7,068,290614,01,E,A*01
$IIVHW,,,064,M,04.6,N,,*64
$IIVLW,01581,N,000.4,N*5A
$IIVWR,107,R,05.7,N,,,,*65
$IIDPT,032.0,-1.0,*41
$IIGLL,4614.100,N,00610.600,E,095348,A,A*54
$IIHDG,064,,,01,E*11
$IIMTW,+14.0,C*3D
$IIMWV,110,R,05.6,N,A*10
$IIMWV,139,T,08.2,N,A*14
$IIRMC,095348,A,4614.100,N,00610.600,E,04.5,060,290614,01,E,A*06
$IIVHW,,,064,M,04.6,N,,*64
$IIVLW,01581,N,000.4,N*5A
$IIVWR,110,R,05.6,N,,,,*62
$IIDPT,033.9,-1.0,*49
$IIGLL,4614.100,N,00610.601,E,095349,A,A*54
$IIHDG,064,,,01,E*11
$IIMTW,+14.0,C*3D
$IIMWV,110,R,05.6,N,A*10
$IIMWV,141,T,08.3,N,A*1A
$IIRMC,095349,A,4614.100,N,00610.601,E,04.5,063,290614,01,E,A*05
$IIVHW,,,064,M,04.5,N,,*67
$IIVLW,01581,N,000.4,N*5A
$IIVWR,106,R,05.6,N,,,,*65
$IIDPT,032.4,-1.0,*45
$IIGLL,4614.101,N,00610.603,E,095350,A,A*5F
$IIHDG,064,,,01,E*11
$IIMTW,+14.0,C*3D
$IIMWV,106,R,05.6,N,A*17
$IIMWV,141,T,08.3,N,A*1A
$IIRMC,095350,A,4614.101,N,00610.603,E,04.2,056,290614,01,E,A*0F
$IIVHW,,,064,M,04.5,N,,*67
$IIVLW,01581,N,000.4,N*5A
$IIVWR,102,R,05.8,N,,,,*6F
$IIDPT,032.4,-1.0,*45
$IIGLL,4614.101,N,00610.605,E,095351,A,A*58
$IIHDG,064,,,01,E*11
$IIMTW,+14.5,C*38
$IIMWV,102,R,05.8,N,A*1D
$IIMWV,139,T,08.0,N,A*16
$IIRMC,095351,A,4614.101,N,00610.605,E,04.8,063,290614,01,E,A*04
$IIVHW,,,064,M,04.5,N,,*67
$IIVLW,01581,N,000.4,N*5A
$IIVWR,101,R,05.5,N,,,,*61
$IIDPT,032.4,-1.0,*45
$IIGLL,4614.102,N,00610.606,E,095352,A,A*5B
$IIHDG,064,,,01,E*11
$IIMTW,+14.5,C*38
$IIMWV,101,R,05.5,N,A*13
$IIMWV,136,T,08.0,N,A*19
$IIRMC,095353,A,4614.103,N,00610.608,E,04.8,064,290614,01,E,A*0E
$IIVHW,,,065,M,04.5,N,,*66
$IIVLW,01581,N,000.4,N*5A
$IIVWR,100,R,05.5,N,,,,*60
$IIDPT,033.8,-1.0,*48
$IIGLL,4614.103,N,00610.608,E,095353,A,A*55
$IIHDG,065,,,01,E*10
$IIMTW,+14.5,C*38
$IIMWV,100,R,05.5,N,A*12
$IIMWV,136,T,07.6,N,A*10
$IIRMC,095354,A,4614.103,N,00610.609,E,04.8,064,290614,01,E,A*08
$IIVHW,,,065,M,04.5,N,,*66
$IIVLW,01581,N,000.4,N*5A
$IIVWR,098,R,05.4,N,,,,*61
$IIDPT,033.8,-1.0,*48
$IIGLL,4614.103,N,00610.609,E,095354,A,A*53
$IIHDG,065,,,01,E*10
$IIMTW,+14.5,C*38
$IIMWV,096,R,05.7,N,A*1E
$IIMWV,135,T,07.4,N,A*11
$IIRMC,095355,A,4614.104,N,00610.611,E,04.6,062,290614,01,E,A*0F
$IIVHW,,,065,M,04.5,N,,*66
$IIVLW,01581,N,000.4,N*5A
$IIVWR,096,R,05.7,N,,,,*6C
$IIDPT,038.7,-1.0,*4C
$IIGLL,4614.104,N,00610.611,E,095355,A,A*5C
$IIHDG,065,,,01,E*10
$IIMTW,+15.0,C*3C
$IIMWV,095,R,05.5,N,A*1F
$IIMWV,132,T,07.5,N,A*17
$IIRMC,095356,A,4614.105,N,00610.612,E,04.4,061,290614,01,E,A*0F
$IIVHW,,,065,M,04.5,N,,*66
$IIVLW,01581,N,000.4,N*5A
$IIVWR,095,R,05.5,N,,,,*6D
$IIDPT,045.2,-1.0,*43
$IIGLL,4614.105,N,00610.612,E,095356,A,A*5D
$IIHDG,065,,,01,E*10
$IIMTW,+14.5,C*38
$IIMWV,094,R,05.3,N,A*18
$IIMWV,132,T,07.4,N,A*16
$IIRMC,095357,A,4614.105,N,00610.614,E,04.4,064,290614,01,E,A*0D
$IIVHW,,,065,M,04.5,N,,*66
$IIVLW,01581,N,000.4,N*5A
$IIVWR,094,R,05.3,N,,,,*6A
$IIDPT,045.2,-1.0,*43
$IIGLL,4614.106,N,00610.616,E,095358,A,A*54
$IIHDG,065,,,01,E*10
$IIMTW,+14.5,C*38
$IIMWV,096,R,05.7,N,A*1E
$IIMWV,132,T,07.1,N,A*13
$IIRMC,095358,A,4614.106,N,00610.616,E,04.5,063,290614,01,E,A*05
$IIVHW,,,065,M,04.4,N,,*67
$IIVLW,01581,N,000.4,N*5A
$IIVWR,096,R,05.7,N,,,,*6C
$IIDPT,039.5,-1.0,*4F
$IIGLL,4614.106,N,00610.617,E,095359,A,A*54
$IIHDG,065,,,01,E*10
$IIMTW,+14.5,C*38
$IIMWV,099,R,05.6,N,A*10
$IIMWV,132,T,07.5,N,A*17
$IIRMC,095359,A,4614.106,N,00610.617,E,04.7,062,290614,01,E,A*06
$IIVHW,,,065,M,04.4,N,,*67
$IIVLW,01581,N,000.4,N*5A
$IIVWR,101,R,05.6,N,,,,*62
$IIDPT,033.7,-1.0,*47
$IIGLL,4614.107,N,00610.618,E,095400,A,A*51
$IIHDG,065,,,01,E*10
$IIMTW,+14.5,C*38
$IIMWV,101,R,05.6,N,A*10
$IIMWV,134,T,07.6,N,A*12
$IIRMC,095400,A,4614.107,N,00610.618,E,04.5,063,290614,01,E,A*00
$IIVHW,,,065,M,04.4,N,,*67
$IIVLW,01581,N,000.4,N*5A
$IIVWR,101,R,05.6,N,,,,*62
$IIDPT,031.8,-1.0,*4A
$IIGLL,4614.107,N,00610.620,E,095401,A,A*5B
$IIHDG,065,,,01,E*10
$IIMTW,+14.5,C*38
$IIMWV,101,R,05.6,N,A*10
$IIMWV,135,T,07.7,N,A*12
$IIRMC,095401,A,4614.107,N,00610.620,E,04.7,063,290614,01,E,A*08
$IIVHW,,,065,M,04.4,N,,*67
$IIVLW,01581,N,000.4,N*5A
$IIVWR,100,R,05.8,N,,,,*6D
$IIDPT,031.8,-1.0,*4A
$IIGLL,4614.107,N,00610.620,E,095401,A,A*5B
$IIHDG,065,,,01,E*10
$IIMTW,+14.5,C*38
$IIMWV,100,R,05.8,N,A*1F
$IIMWV,135,T,07.7,N,A*12
$IIRMC,095403,A,4614.109,N,00610.623,E,04.5,061,290614,01,E,A*07
$IIVHW,,,065,M,04.4,N,,*67
$IIVLW,01581,N,000.4,N*5A
$IIVWR,098,R,05.9,N,,,,*6C
$IIDPT,031.8,-1.0,*4A
$IIGLL,4614.109,N,00610.623,E,095403,A,A*54
$IIHDG,065,,,01,E*10
$IIMTW,+14.5,C*38
$IIMWV,098,R,05.9,N,A*1E
$IIMWV,132,T,07.7,N,A*15
$IIRMC,095404,A,4614.109,N,00610.625,E,05.7,064,290614,01,E,A*00
$IIVHW,,,065,M,04.4,N,,*67
$IIVLW,01581,N,000.4,N*5A
$IIVWR,097,R,06.0,N,,,,*69
$IIDPT,029.4,-1.0,*4F
$IIGLL,4614.109,N,00610.625,E,095404,A,A*55
$IIHDG,065,,,01,E*10
$IIMTW,+14.5,C*38
$IIMWV,096,R,06.1,N,A*1B
$IIMWV,131,T,07.8,N,A*19
$IIRMC,095404,A,4614.109,N,00610.625,E,05.7,064,290614,01,E,A*00
$IIVHW,,,065,M,04.4,N,,*67
$IIVLW,01581,N,000.5,N*5B
$IIVWR,096,R,06.1,N,,,,*69
$IIDPT,029.3,-1.0,*48
$IIGLL,4614.109,N,00610.625,E,095404,A,A*55
$IIHDG,065,,,01,E*10
$IIMTW,+14.5,C*38
$IIMWV,096,R,06.2,N,A*18
$IIMWV,130,T,07.8,N,A*18
$IIRMC,095406,A,4614.111,N,00610.628,E,05.0,061,290614,01,E,A*04
$IIVHW,,,065,M,04.4,N,,*67
$IIVLW,01581,N,000.5,N*5B
$IIVWR,096,R,06.2,N,,,,*6A
$IIDPT,024.6,-1.0,*40
$IIGLL,4614.111,N,00610.628,E,095406,A,A*53
$IIHDG,065,,,01,E*10
$IIMTW,+14.5,C*38
$IIMWV,097,R,06.1,N,A*1A
$IIMWV,129,T,07.8,N,A*10
$IIRMC,095407,A,4614.111,N,00610.630,E,04.7,061,290614,01,E,A*0A
$IIVHW,,,065,M,04.4,N,,*67
$IIVLW,01581,N,000.5,N*5B
$IIVWR,097,R,06.1,N,,,,*68
$IIDPT,026.6,-1.0,*42
$IIGLL,4614.112,N,00610.632,E,095408,A,A*55
$IIHDG,064,,,01,E*11
$IIMTW,+14.5,C*38
$IIMWV,099,R,06.2,N,A*17
$IIMWV,131,T,07.9,N,A*18
$IIRMC,095408,A,4614.112,N,00610.632,E,04.7,061,290614,01,E,A*04
$IIVHW,,,064,M,04.4,N,,*66
$IIVLW,01581,N,000.5,N*5B
$IIVWR,099,R,06.2,N,,,,*65
$IIDPT,028.6,-1.0,*4C
$IIGLL,4614.113,N,00610.634,E,095409,A,A*53
$IIHDG,064,,,01,E*11
$IIMTW,+14.5,C*38
$IIMWV,101,R,06.3,N,A*16
$IIMWV,131,T,08.1,N,A*1F
$IIRMC,095409,A,4614.113,N,00610.634,E,04.9,064,290614,01,E,A*09
$IIVHW,,,064,M,04.4,N,,*66
$IIVLW,01581,N,000.5,N*5B
$IIVWR,101,R,06.2,N,,,,*65
$IIDPT,029.6,-1.0,*4D
$IIGLL,4614.113,N,00610.635,E,095410,A,A*5A
$IIHDG,064,,,01,E*11
$IIMTW,+14.0,C*3D
$IIMWV,101,R,06.2,N,A*17
$IIMWV,133,T,08.2,N,A*1E
$IIRMC,095410,A,4614.113,N,00610.635,E,04.9,062,290614,01,E,A*06
$IIVHW,,,064,M,04.5,N,,*67
$IIVLW,01581,N,000.5,N*5B
$IIVWR,103,R,06.4,N,,,,*61
$IIDPT,027.9,-1.0,*4C
$IIGLL,4614.114,N,00610.637,E,095411,A,A*5E
$IIHDG,064,,,01,E*11
$IIMTW,+15.0,C*3C
$IIMWV,103,R,06.4,N,A*13
$IIMWV,133,T,08.2,N,A*1E
$IIRMC,095411,A,4614.114,N,00610.637,E,04.6,059,290614,01,E,A*05
$IIVHW,,,064,M,04.5,N,,*67
$IIVLW,01581,N,000.5,N*5B
$IIVWR,104,R,06.3,N,,,,*61
$IIDPT,029.6,-1.0,*4D
$IIGLL,4614.115,N,00610.638,E,095412,A,A*53
$IIHDG,064,,,01,E*11
$IIMTW,+15.0,C*3C
$IIMWV,104,R,06.3,N,A*13
$IIMWV,134,T,08.5,N,A*1E
$IIRMC,095413,A,4614.115,N,00610.640,E,04.6,060,290614,01,E,A*0C
$IIVHW,,,064,M,04.5,N,,*67
$IIVLW,01581,N,000.5,N*5B
$IIVWR,105,R,06.2,N,,,,*61
$IIDPT,033.4,-1.0,*44
$IIGLL,4614.115,N,00610.640,E,095413,A,A*5D
$IIHDG,064,,,01,E*11
$IIMTW,+15.0,C*3C
$IIMWV,105,R,06.2,N,A*13
$IIMWV,135,T,08.5,N,A*1F
$IIRMC,095414,A,4614.116,N,00610.641,E,04.5,058,290614,01,E,A*01
$IIVHW,,,064,M,04.5,N,,*67
$IIVLW,01581,N,000.5,N*5B
$IIVWR,107,R,06.3,N,,,,*62
$IIDPT,033.4,-1.0,*44
$IIGLL,4614.116,N,00610.641,E,095414,A,A*58
$IIHDG,064,,,01,E*11
$IIMTW,+15.0,C*3C
$IIMWV,109,R,06.2,N,A*1F
$IIMWV,136,T,08.7,N,A*1E
$IIRMC,095414,A,4614.116,N,00610.641,E,04.5,058,290614,01,E,A*01
$IIVHW,,,063,M,04.5,N,,*60
$IIVLW,01581,N,000.5,N*5B
$IIVWR,109,R,06.2,N,,,,*6D
$IIDPT,036.8,-1.0,*4D
$IIGLL,4614.116,N,00610.641,E,095414,A,A*58
$IIHDG,063,,,01,E*16
$IIMTW,+15.0,C*3C
$IIMWV,109,R,06.2,N,A*1F
$IIMWV,139,T,08.7,N,A*11
$IIRMC,095416,A,4614.117,N,00610.645,E,05.1,060,290614,01,E,A*08
$IIVHW,,,063,M,04.5,N,,*60
$IIVLW,01581,N,000.5,N*5B
$IIVWR,109,R,06.2,N,,,,*6D
$IIDPT,036.8,-1.0,*4D
$IIGLL,4614.117,N,00610.645,E,095416,A,A*5F
$IIHDG,063,,,01,E*16
$IIMTW,+14.5,C*38
$IIMWV,110,R,06.0,N,A*15
$IIMWV,139,T,08.7,N,A*11
$IIRMC,095417,A,4614.118,N,00610.647,E,04.7,061,290614,01,E,A*02
$IIVHW,,,063,M,04.5,N,,*60
$IIVLW,01581,N,000.5,N*5B
$IIVWR,110,R,06.0,N,,,,*67
$IIDPT,036.8,-1.0,*4D
$IIGLL,4614.118,N,00610.648,E,095418,A,A*53
$IIHDG,063,,,01,E*16
$IIMTW,+14.5,C*38
$IIMWV,110,R,05.7,N,A*11
$IIMWV,140,T,08.6,N,A*1E
$IIRMC,095418,A,4614.118,N,00610.648,E,04.3,055,290614,01,E,A*01
$IIVHW,,,063,M,04.5,N,,*60
$IIVLW,01581,N,000.5,N*5B
$IIVWR,110,R,05.7,N,,,,*63
$IIDPT,034.5,-1.0,*42
$IIGLL,4614.119,N,00610.649,E,095419,A,A*52
$IIHDG,063,,,01,E*16
$IIMTW,+14.5,C*38
$IIMWV,110,R,05.7,N,A*11
$IIMWV,141,T,08.3,N,A*1A
$IIRMC,095419,A,4614.119,N,00610.649,E,04.7,059,290614,01,E,A*08
$IIVHW,,,063,M,04.6,N,,*63
$IIVLW,01581,N,000.5,N*5B
$IIVWR,112,R,05.8,N,,,,*6E
$IIDPT,034.3,-1.0,*44
$IIGLL,4614.120,N,00610.651,E,095420,A,A*5B
$IIHDG,062,,,01,E*17
$IIMTW,+14.0,C*3D
$IIMWV,112,R,05.8,N,A*1C
$IIMWV,141,T,08.3,N,A*1A
$IIRMC,095420,A,4614.120,N,00610.651,E,05.0,058,290614,01,E,A*06
$IIVHW,,,062,M,04.6,N,,*62
$IIVLW,01581,N,000.5,N*5B
$IIVWR,113,R,05.8,N,,,,*6F
$IIDPT,034.3,-1.0,*44
$IIGLL,4614.121,N,00610.653,E,095421,A,A*59
$IIHDG,062,,,01,E*17
$IIMTW,+14.0,C*3D
$IIMWV,113,R,05.8,N,A*1D
$IIMWV,142,T,08.5,N,A*1F
$IIRMC,095421,A,4614.121,N,00610.653,E,04.9,054,290614,01,E,A*00
$IIVHW,,,061,M,04.6,N,,*61
$IIVLW,01581,N,000.5,N*5B
$IIVWR,114,R,05.7,N,,,,*67
$IIDPT,036.8,-1.0,*4D
$IIGLL,4614.121,N,00610.655,E,095422,A,A*5C
$IIHDG,061,,,01,E*14
$IIMTW,+14.5,C*38
$IIMWV,114,R,05.7,N,A*15
$IIMWV,142,T,08.7,N,A*1D
$IIRMC,095423,A,4614.122,N,00610.656,E,05.0,057,290614,01,E,A*0F
$IIVHW,,,060,M,04.6,N,,*60
$IIVLW,01581,N,000.5,N*5B
$IIVWR,115,R,05.8,N,,,,*69
$IIDPT,036.8,-1.0,*4D
$IIGLL,4614.122,N,00610.656,E,095423,A,A*5D
$IIHDG,060,,,01,E*15
$IIMTW,+14.5,C*38
$IIMWV,115,R,05.8,N,A*1B
$IIMWV,144,T,08.8,N,A*14
$IIRMC,095424,A,4614.123,N,00610.658,E,05.0,056,290614,01,E,A*06
$IIVHW,,,059,M,04.6,N,,*6A
$IIVLW,01581,N,000.5,N*5B
$IIVWR,114,R,05.8,N,,,,*68
$IIDPT,036.8,-1.0,*4D
$IIGLL,4614.123,N,00610.658,E,095424,A,A*55
$IIHDG,059,,,01,E*1F
$IIMTW,+14.5,C*38
$IIMWV,115,R,05.8,N,A*1B
$IIMWV,143,T,08.7,N,A*1C
$IIRMC,095425,A,4614.123,N,00610.660,E,05.0,056,290614,01,E,A*0C
$IIVHW,,,059,M,04.6,N,,*6A
$IIVLW,01581,N,000.5,N*5B
$IIVWR,115,R,05.8,N,,,,*69
$IIDPT,036.8,-1.0,*4D
$IIGLL,4614.123,N,00610.660,E,095425,A,A*5F
$IIHDG,059,,,01,E*1F
$IIMTW,+14.5,C*38
$IIMWV,114,R,05.8,N,A*1A
$IIMWV,144,T,08.8,N,A*14
$IIRMC,095426,A,4614.124,N,00610.661,E,04.8,055,290614,01,E,A*03
$IIVHW,,,058,M,04.6,N,,*6B
$IIVLW,01581,N,000.5,N*5B
$IIVWR,114,R,05.8,N,,,,*68
$IIDPT,035.2,-1.0,*44
$IIGLL,4614.124,N,00610.661,E,095426,A,A*5A
$IIHDG,057,,,01,E*11
$IIMTW,+14.5,C*38
$IIMWV,115,R,05.8,N,A*1B
$IIMWV,143,T,08.7,N,A*1C
$IIRMC,095427,A,4614.125,N,00610.663,E,05.0,059,290614,01,E,A*04
$IIVHW,,,057,M,04.6,N,,*64
$IIVLW,01581,N,000.5,N*5B
$IIVWR,115,R,05.8,N,,,,*69
$IIDPT,032.4,-1.0,*45
$IIGLL,4614.126,N,00610.665,E,095428,A,A*52
$IIHDG,056,,,01,E*10
$IIMTW,+14.5,C*38
$IIMWV,118,R,05.8,N,A*16
$IIMWV,144,T,08.8,N,A*14
$IIRMC,095428,A,4614.126,N,00610.665,E,04.9,053,290614,01,E,A*0C
$IIVHW,,,056,M,04.6,N,,*65
$IIVLW,01581,N,000.5,N*5B
$IIVWR,118,R,05.8,N,,,,*64
$IIDPT,032.4,-1.0,*45
$IIGLL,4614.127,N,00610.666,E,095429,A,A*51
$IIHDG,054,,,01,E*12
$IIMTW,+14.5,C*38
$IIMWV,122,R,05.7,N,A*10
$IIMWV,145,T,08.9,N,A*14
$IIRMC,095429,A,4614.127,N,00610.666,E,05.1,047,290614,01,E,A*03
$IIVHW,,,054,M,04.6,N,,*67
$IIVLW,01581,N,000.5,N*5B
$IIVWR,127,R,05.6,N,,,,*66
$IIDPT,034.5,-1.0,*42
$IIGLL,4614.128,N,00610.667,E,095430,A,A*57
$IIHDG,050,,,01,E*16
$IIMTW,+14.5,C*38
$IIMWV,127,R,05.6,N,A*14
$IIMWV,148,T,09.0,N,A*11
$IIRMC,095430,A,4614.128,N,00610.667,E,04.7,045,290614,01,E,A*00
$IIVHW,,,050,M,04.6,N,,*63
$IIVLW,01581,N,000.5,N*5B
$IIVWR,135,R,05.5,N,,,,*66
$IIDPT,032.9,-1.0,*48
$IIGLL,4614.129,N,00610.668,E,095431,A,A*58
$IIHDG,047,,,01,E*10
$IIMTW,+14.0,C*3D
$IIMWV,135,R,05.5,N,A*14
$IIMWV,151,T,09.1,N,A*18
$IIRMC,095431,A,4614.129,N,00610.668,E,04.9,037,290614,01,E,A*04
$IIVHW,,,042,M,04.6,N,,*60
$IIVLW,01581,N,000.5,N*5B
$IIVWR,145,R,05.3,N,,,,*67
$IIDPT,034.6,-1.0,*41
$IIGLL,4614.130,N,00610.669,E,095432,A,A*52
$IIHDG,042,,,01,E*15
$IIMTW,+14.5,C*38
$IIMWV,145,R,05.3,N,A*15
$IIMWV,155,T,09.3,N,A*1E
$IIRMC,095433,A,4614.131,N,00610.670,E,04.9,026,290614,01,E,A*06
$IIVHW,,,037,M,04.5,N,,*61
$IIVLW,01581,N,000.5,N*5B
$IIVWR,152,R,05.3,N,,,,*61
$IIDPT,034.6,-1.0,*41
$IIGLL,4614.131,N,00610.670,E,095433,A,A*5A
$IIHDG,037,,,01,E*17
$IIMTW,+15.0,C*3C
$IIMWV,152,R,05.3,N,A*13
$IIMWV,165,T,09.5,N,A*1B
$IIRMC,095434,A,4614.132,N,00610.671,E,04.9,018,290614,01,E,A*0E
$IIVHW,,,032,M,04.5,N,,*64
$IIVLW,01581,N,000.5,N*5B
$IIVWR,160,R,04.9,N,,,,*6B
$IIDPT,032.6,-1.0,*47
$IIGLL,4614.132,N,00610.671,E,095434,A,A*5F
$IIHDG,032,,,01,E*12
$IIMTW,+14.5,C*38
$IIMWV,167,R,04.9,N,A*1E
$IIMWV,170,T,09.2,N,A*18
$IIRMC,095435,A,4614.134,N,00610.671,E,04.8,012,290614,01,E,A*02
$IIVHW,,,027,M,04.4,N,,*61
$IIVLW,01581,N,000.5,N*5B
$IIVWR,167,R,04.9,N,,,,*6C
$IIDPT,032.6,-1.0,*47
$IIGLL,4614.134,N,00610.671,E,095435,A,A*58
$IIHDG,027,,,01,E*16
$IIMTW,+14.5,C*38
$IIMWV,173,R,04.5,N,A*17
$IIMWV,174,T,09.1,N,A*1F
$IIRMC,095436,A,4614.135,N,00610.672,E,04.6,006,290614,01,E,A*08
$IIVHW,,,019,M,04.3,N,,*6B
$IIVLW,01581,N,000.5,N*5B
$IIVWR,173,R,04.5,N,,,,*65
$IIDPT,031.7,-1.0,*45
$IIGLL,4614.135,N,00610.672,E,095436,A,A*59
$IIHDG,012,,,01,E*10
$IIMTW,+14.5,C*38
$IIMWV,180,R,04.5,N,A*1B
$IIMWV,177,T,08.8,N,A*14
$IIRMC,095437,A,4614.136,N,00610.672,E,04.5,001,290614,01,E,A*0E
$IIVHW,,,012,M,04.3,N,,*60
$IIVLW,01581,N,000.5,N*5B
$IIVWR,180,R,04.5,N,,,,*69
$IIDPT,031.7,-1.0,*45
$IIGLL,4614.138,N,00610.671,E,095438,A,A*59
$IIHDG,005,,,01,E*16
$IIMTW,+15.0,C*3C
$IIMWV,190,R,04.1,N,A*1E
$IIMWV,180,T,08.8,N,A*1C
$IIRMC,095438,A,4614.138,N,00610.671,E,04.5,356,290614,01,E,A*0D
$IIVHW,,,005,M,04.2,N,,*67
$IIVLW,01581,N,000.5,N*5B
$IIVWR,170,L,04.1,N,,,,*7C
$IIDPT,032.8,-1.0,*49
$IIGLL,4614.139,N,00610.671,E,095439,A,A*59
$IIHDG,359,,,01,E*1C
$IIMTW,+14.5,C*38
$IIMWV,202,R,03.9,N,A*19
$IIMWV,184,T,08.2,N,A*12
$IIRMC,095439,A,4614.139,N,00610.671,E,04.5,348,290614,01,E,A*02
$IIVHW,,,359,M,04.1,N,,*6E
$IIVLW,01581,N,000.5,N*5B
$IIVWR,146,L,04.3,N,,,,*7B
$IIDPT,033.7,-1.0,*47
$IIGLL,4614.140,N,00610.671,E,095440,A,A*59
$IIHDG,353,,,01,E*16
$IIMTW,+14.5,C*38
$IIMWV,214,R,04.3,N,A*13
$IIMWV,190,T,07.9,N,A*13
$IIRMC,095440,A,4614.140,N,00610.671,E,04.4,342,290614,01,E,A*09
$IIVHW,,,353,M,04.1,N,,*64
$IIVLW,01581,N,000.5,N*5B
$IIVWR,135,L,04.5,N,,,,*79
$IIDPT,036.5,-1.0,*40
$IIGLL,4614.141,N,00610.670,E,095441,A,A*58
$IIHDG,346,,,01,E*12
$IIMTW,+14.0,C*3D
$IIMWV,225,R,04.5,N,A*17
$IIMWV,197,T,07.9,N,A*14
$IIRMC,095441,A,4614.141,N,00610.670,E,04.2,335,290614,01,E,A*0E
$IIVHW,,,338,M,04.0,N,,*68
$IIVLW,01581,N,000.5,N*5B
$IIVWR,125,L,04.9,N,,,,*74
$IIDPT,041.1,-1.0,*44
$IIGLL,4614.142,N,00610.669,E,095442,A,A*50
$IIHDG,338,,,01,E*1B
$IIMTW,+14.0,C*3D
$IIMWV,235,R,04.9,N,A*1A
$IIMWV,203,T,07.8,N,A*1B
$IIRMC,095443,A,4614.142,N,00610.668,E,04.2,319,290614,01,E,A*08
$IIVHW,,,329,M,04.0,N,,*68
$IIVLW,01581,N,000.5,N*5B
$IIVWR,115,L,05.2,N,,,,*7D
$IIDPT,041.1,-1.0,*44
$IIGLL,4614.142,N,00610.668,E,095443,A,A*50
$IIHDG,329,,,01,E*1B
$IIMTW,+14.5,C*38
$IIMWV,245,R,05.2,N,A*17
$IIMWV,217,T,07.7,N,A*11
$IIRMC,095444,A,4614.143,N,00610.666,E,04.2,311,290614,01,E,A*08
$IIVHW,,,321,M,04.0,N,,*60
$IIVLW,01581,N,000.5,N*5B
$IIVWR,106,L,05.7,N,,,,*7A
$IIDPT,041.6,-1.0,*43
$IIGLL,4614.143,N,00610.666,E,095444,A,A*58
$IIHDG,321,,,01,E*13
$IIMTW,+14.5,C*38
$IIMWV,263,R,06.1,N,A*13
$IIMWV,225,T,07.7,N,A*10
$IIRMC,095445,A,4614.144,N,00610.665,E,04.2,303,290614,01,E,A*0E
$IIVHW,,,312,M,04.0,N,,*60
$IIVLW,01581,N,000.5,N*5B
$IIVWR,097,L,06.1,N,,,,*76
$IIDPT,041.6,-1.0,*43
$IIGLL,4614.144,N,00610.665,E,095445,A,A*5D
$IIHDG,312,,,01,E*13
$IIMTW,+14.5,C*38
$IIMWV,269,R,06.6,N,A*1E
$IIMWV,232,T,07.6,N,A*17
$IIRMC,095446,A,4614.144,N,00610.664,E,04.2,298,290614,01,E,A*0F
$IIVHW,,,306,M,04.0,N,,*65
$IIVLW,01581,N,000.5,N*5B
$IIVWR,091,L,06.6,N,,,,*77
$IIDPT,033.7,-1.0,*47
$IIGLL,4614.144,N,00610.664,E,095446,A,A*5F
$IIHDG,299,,,01,E*11
$IIMTW,+14.5,C*38
$IIMWV,275,R,07.0,N,A*14
$IIMWV,237,T,07.8,N,A*1C
$IIRMC,095447,A,4614.145,N,00610.662,E,04.2,292,290614,01,E,A*03
$IIVHW,,,299,M,04.0,N,,*62
$IIVLW,01581,N,000.5,N*5B
$IIVWR,085,L,07.0,N,,,,*75
$IIDPT,031.7,-1.0,*45
$IIGLL,4614.145,N,00610.661,E,095448,A,A*55
$IIHDG,295,,,01,E*1D
$IIMTW,+14.5,C*38
$IIMWV,280,R,07.3,N,A*1D
$IIMWV,243,T,07.8,N,A*1F
$IIRMC,095448,A,4614.145,N,00610.661,E,04.9,296,290614,01,E,A*00
$IIVHW,,,295,M,04.1,N,,*6F
$IIVLW,01581,N,000.5,N*5B
$IIVWR,080,L,07.3,N,,,,*73
$IIDPT,031.5,-1.0,*47
$IIGLL,4614.146,N,00610.659,E,095449,A,A*5C
$IIHDG,292,,,01,E*1A
$IIMTW,+14.5,C*38
$IIMWV,284,R,07.7,N,A*1D
$IIMWV,248,T,07.6,N,A*1A
$IIRMC,095449,A,4614.146,N,00610.659,E,04.3,294,290614,01,E,A*01
$IIVHW,,,292,M,04.1,N,,*68
$IIVLW,01581,N,000.5,N*5B
$IIVWR,073,L,07.9,N,,,,*75
$IIDPT,031.5,-1.0,*47
$IIGLL,4614.146,N,00610.658,E,095450,A,A*55
$IIHDG,290,,,01,E*18
$IIMTW,+14.5,C*38
$IIMWV,287,R,07.9,N,A*10
$IIMWV,253,T,07.7,N,A*11
$IIRMC,095450,A,4614.146,N,00610.658,E,04.3,291,290614,01,E,A*0D
$IIVHW,,,290,M,04.1,N,,*6A
$IIVLW,01581,N,000.5,N*5B
$IIVWR,071,L,08.0,N,,,,*71
$IIDPT,039.6,-1.0,*4C
$IIGLL,4614.147,N,00610.656,E,095451,A,A*5B
$IIHDG,289,,,01,E*10
$IIMTW,+14.5,C*38
$IIMWV,289,R,08.0,N,A*18
$IIMWV,255,T,07.7,N,A*17
$IIRMC,095451,A,4614.147,N,00610.656,E,04.3,295,290614,01,E,A*07
$IIVHW,,,288,M,04.2,N,,*60
$IIVLW,01581,N,000.5,N*5B
$IIVWR,069,L,08.1,N,,,,*79
$IIDPT,043.6,-1.0,*41
$IIGLL,4614.147,N,00610.655,E,095452,A,A*5B
$IIHDG,288,,,01,E*11
$IIMTW,+14.5,C*38
$IIMWV,291,R,08.1,N,A*10
$IIMWV,258,T,07.7,N,A*1A
$IIRMC,095453,A,4614.147,N,00610.653,E,04.5,293,290614,01,E,A*00
$IIVHW,,,287,M,04.3,N,,*6E
$IIVLW,01581,N,000.5,N*5B
$IIVWR,068,L,08.2,N,,,,*7B
$IIDPT,043.6,-1.0,*41
$IIGLL,4614.147,N,00610.653,E,095453,A,A*5C
$IIHDG,287,,,01,E*1E
$IIMTW,+14.5,C*38
$IIMWV,292,R,08.2,N,A*10
$IIMWV,260,T,07.7,N,A*11
$IIRMC,095454,A,4614.148,N,00610.651,E,04.5,293,290614,01,E,A*0A
$IIVHW,,,288,M,04.3,N,,*61
$IIVLW,01581,N,000.5,N*5B
$IIVWR,066,L,08.4,N,,,,*73
$IIDPT,043.6,-1.0,*41
$IIGLL,4614.148,N,00610.651,E,095454,A,A*56
$IIHDG,288,,,01,E*11
$IIMTW,+14.5,C*38
$IIMWV,297,R,08.6,N,A*11
$IIMWV,262,T,07.6,N,A*12
$IIRMC,095455,A,4614.149,N,00610.650,E,04.6,294,290614,01,E,A*0F
$IIVHW,,,288,M,04.4,N,,*66
$IIVLW,01581,N,000.5,N*5B
$IIVWR,063,L,08.6,N,,,,*74
$IIDPT,043.3,-1.0,*44
$IIGLL,4614.149,N,00610.650,E,095455,A,A*57
$IIHDG,288,,,01,E*11
$IIMTW,+14.5,C*38
$IIMWV,298,R,08.8,N,A*10
$IIMWV,265,T,07.6,N,A*15
$IIRMC,095456,A,4614.149,N,00610.648,E,04.6,296,290614,01,E,A*07
$IIVHW,,,288,M,04.5,N,,*67
$IIVLW,01581,N,000.5,N*5B
$IIVWR,062,L,08.8,N,,,,*7B
$IIDPT,038.7,-1.0,*4C
$IIGLL,4614.149,N,00610.648,E,095456,A,A*5D
$IIHDG,288,,,01,E*11
$IIMTW,+15.0,C*3C
$IIMWV,300,R,08.9,N,A*11
$IIMWV,267,T,07.7,N,A*16
$IIRMC,095456,A,4614.149,N,00610.648,E,04.6,296,290614,01,E,A*07
$IIVHW,,,288,M,04.5,N,,*67
$IIVLW,01581,N,000.5,N*5B
$IIVWR,060,L,08.9,N,,,,*78
$IIDPT,035.6,-1.0,*40
$IIGLL,4614.150,N,00610.644,E,095458,A,A*57
$IIHDG,288,,,01,E*11
$IIMTW,+15.0,C*3C
$IIMWV,301,R,09.2,N,A*1A
$IIMWV,269,T,07.7,N,A*18
$IIRMC,095458,A,4614.150,N,00610.644,E,04.6,291,290614,01,E,A*0A
$IIVHW,,,288,M,04.6,N,,*64
$IIVLW,01581,N,000.5,N*5B
$IIVWR,059,L,09.2,N,,,,*78
$IIDPT,036.3,-1.0,*46
$IIGLL,4614.151,N,00610.642,E,095459,A,A*51
$IIHDG,288,,,01,E*11
$IIMTW,+15.0,C*3C
$IIMWV,303,R,09.2,N,A*18
$IIMWV,271,T,07.9,N,A*1F
$IIRMC,095459,A,4614.151,N,00610.642,E,04.4,288,290614,01,E,A*06
$IIVHW,,,288,M,04.6,N,,*64
$IIVLW,01581,N,000.5,N*5B
$IIVWR,057,L,09.3,N,,,,*77
$IIDPT,036.3,-1.0,*46
$IIGLL,4614.151,N,00610.641,E,095500,A,A*5F
$IIHDG,287,,,01,E*1E
$IIMTW,+15.0,C*3C
$IIMWV,303,R,09.3,N,A*19
$IIMWV,272,T,07.7,N,A*12
$IIRMC,095500,A,4614.151,N,00610.641,E,04.0,293,290614,01,E,A*06
$IIVHW,,,287,M,04.6,N,,*6B
$IIVLW,01581,N,000.5,N*5B
$IIVWR,056,L,09.3,N,,,,*76
$IIDPT,036.3,-1.0,*46
$IIGLL,4614.151,N,00610.640,E,095501,A,A*5F
$IIHDG,287,,,01,E*1E
$IIMTW,+15.0,C*3C
$IIMWV,304,R,09.3,N,A*1E
$IIMWV,272,T,07.8,N,A*1D
$IIRMC,095501,A,4614.151,N,00610.640,E,04.5,292,290614,01,E,A*02
$IIVHW,,,287,M,04.7,N,,*6A
$IIVLW,01581,N,000.5,N*5B
$IIVWR,055,L,09.2,N,,,,*74
$IIDPT,039.1,-1.0,*4B
$IIGLL,4614.152,N,00610.638,E,095502,A,A*50
$IIHDG,287,,,01,E*1E
$IIMTW,+14.5,C*38
$IIMWV,305,R,09.2,N,A*1E
$IIMWV,274,T,07.7,N,A*14
$IIRMC,095504,A,4614.153,N,00610.635,E,04.7,297,290614,01,E,A*00
$IIVHW,,,288,M,04.7,N,,*65
$IIVLW,01581,N,000.5,N*5B
$IIVWR,054,L,09.1,N,,,,*76
$IIDPT,041.3,-1.0,*46
$IIGLL,4614.153,N,00610.635,E,095504,A,A*5A
$IIHDG,288,,,01,E*11
$IIMTW,+15.0,C*3C
$IIMWV,306,R,09.1,N,A*1E
$IIMWV,274,T,07.3,N,A*10
$IIRMC,095505,A,4614.154,N,00610.633,E,04.8,295,290614,01,E,A*0D
$IIVHW,,,288,M,04.8,N,,*6A
$IIVLW,01581,N,000.5,N*5B
$IIVWR,055,L,09.0,N,,,,*76
$IIDPT,041.3,-1.0,*46
$IIGLL,4614.154,N,00610.633,E,095505,A,A*5A
$IIHDG,288,,,01,E*11
$IIMTW,+15.0,C*3C
$IIMWV,305,R,09.0,N,A*1C
$IIMWV,272,T,07.3,N,A*16
$IIRMC,095506,A,4614.154,N,00610.631,E,05.2,299,290614,01,E,A*0B
$IIVHW,,,290,M,04.8,N,,*63
$IIVLW,01581,N,000.5,N*5B
$IIVWR,055,L,09.0,N,,,,*76
$IIDPT,048.5,-1.0,*49
$IIGLL,4614.154,N,00610.631,E,095506,A,A*5B
$IIHDG,290,,,01,E*18
$IIMTW,+14.5,C*38
$IIMWV,306,R,09.1,N,A*1E
$IIMWV,272,T,07.3,N,A*16
$IIRMC,095507,A,4614.155,N,00610.629,E,05.1,295,290614,01,E,A*0D
$IIVHW,,,290,M,04.8,N,,*63
$IIVLW,01581,N,000.5,N*5B
$IIVWR,054,L,09.1,N,,,,*76
$IIDPT,048.2,-1.0,*4E
$IIGLL,4614.155,N,00610.629,E,095507,A,A*52
$IIHDG,289,,,01,E*10
$IIMTW,+15.0,C*3C
$IIMWV,306,R,09.2,N,A*1D
$IIMWV,273,T,07.3,N,A*17
$IIRMC,095508,A,4614.156,N,00610.627,E,04.9,297,290614,01,E,A*04
$IIVHW,,,289,M,04.8,N,,*6B
$IIVLW,01581,N,000.5,N*5B
$IIVWR,054,L,09.2,N,,,,*75
$IIDPT,048.2,-1.0,*4E
$IIGLL,4614.156,N,00610.625,E,095509,A,A*53
$IIHDG,289,,,01,E*10
$IIMTW,+15.0,C*3C
$IIMWV,306,R,09.2,N,A*1D
$IIMWV,274,T,07.4,N,A*17
$IIRMC,095509,A,4614.156,N,00610.625,E,04.9,296,290614,01,E,A*06
$IIVHW,,,289,M,04.9,N,,*6A
$IIVLW,01581,N,000.5,N*5B
$IIVWR,054,L,09.2,N,,,,*75
$IIDPT,055.5,-1.0,*45
$IIGLL,4614.157,N,00610.623,E,095510,A,A*5C
$IIHDG,289,,,01,E*10
$IIMTW,+15.0,C*3C
$IIMWV,306,R,09.4,N,A*1B
$IIMWV,274,T,07.4,N,A*17
$IIRMC,095510,A,4614.157,N,00610.623,E,05.0,301,290614,01,E,A*0E
$IIVHW,,,289,M,04.9,N,,*6A
$IIVLW,01581,N,000.5,N*5B
$IIVWR,054,L,09.4,N,,,,*73
$IIDPT,050.3,-1.0,*46
$IIGLL,4614.158,N,00610.621,E,095511,A,A*50
$IIHDG,290,,,01,E*18
$IIMTW,+15.0,C*3C
$IIMWV,306,R,09.4,N,A*1B
$IIMWV,275,T,07.6,N,A*14
$IIRMC,095511,A,4614.158,N,00610.621,E,04.9,296,290614,01,E,A*05
$IIVHW,,,290,M,04.9,N,,*62
$IIVLW,01581,N,000.5,N*5B
$IIVWR,054,L,09.4,N,,,,*73
$IIDPT,043.7,-1.0,*40
$IIGLL,4614.159,N,00610.619,E,095512,A,A*59
$IIHDG,290,,,01,E*18
$IIMTW,+14.5,C*38
$IIMWV,306,R,09.4,N,A*1B
$IIMWV,275,T,07.6,N,A*14
$IIRMC,095512,A,4614.159,N,00610.619,E,04.9,299,290614,01,E,A*03
$IIVHW,,,290,M,04.9,N,,*62
$IIVLW,01581,N,000.5,N*5B
$IIVWR,056,L,09.5,N,,,,*70
$IIDPT,043.7,-1.0,*40
$IIGLL,4614.159,N,00610.618,E,095513,A,A*59
$IIHDG,290,,,01,E*18
$IIMTW,+14.5,C*38
$IIMWV,304,R,09.5,N,A*18
$IIMWV,275,T,07.6,N,A*14
$IIRMC,095514,A,4614.160,N,00610.616,E,04.9,298,290614,01,E,A*01
$IIVHW,,,290,M,04.9,N,,*62
$IIVLW,01581,N,000.5,N*5B
$IIVWR,056,L,09.6,N,,,,*73
$IIDPT,039.2,-1.0,*48
$IIGLL,4614.160,N,00610.616,E,095514,A,A*5A
$IIHDG,290,,,01,E*18
$IIMTW,+14.5,C*38
$IIMWV,304,R,09.6,N,A*1B
$IIMWV,272,T,07.9,N,A*1C
$IIRMC,095515,A,4614.160,N,00610.614,E,05.1,296,290614,01,E,A*05
$IIVHW,,,290,M,04.9,N,,*62
$IIVLW,01581,N,000.5,N*5B
$IIVWR,058,L,09.5,N,,,,*7E
$IIDPT,040.0,-1.0,*44
$IIGLL,4614.160,N,00610.614,E,095515,A,A*59
$IIHDG,290,,,01,E*18
$IIMTW,+15.0,C*3C
$IIMWV,301,R,09.4,N,A*1C
$IIMWV,270,T,08.0,N,A*18
$IIRMC,095516,A,4614.161,N,00610.612,E,05.1,299,290614,01,E,A*0E
$IIVHW,,,290,M,04.9,N,,*62
$IIVLW,01581,N,000.5,N*5B
$IIVWR,059,L,09.4,N,,,,*7E
$IIDPT,040.0,-1.0,*44
$IIGLL,4614.161,N,00610.612,E,095516,A,A*5D
$IIHDG,290,,,01,E*18
$IIMTW,+14.5,C*38
$IIMWV,300,R,09.4,N,A*1D
$IIMWV,269,T,08.0,N,A*10
$IIRMC,095517,A,4614.161,N,00610.610,E,05.1,297,290614,01,E,A*03
$IIVHW,,,290,M,05.0,N,,*6A
$IIVLW,01581,N,000.5,N*5B
$IIVWR,060,L,09.4,N,,,,*74
$IIDPT,041.0,-1.0,*45
$IIGLL,4614.161,N,00610.610,E,095517,A,A*5E
$IIHDG,291,,,01,E*19
$IIMTW,+15.0,C*3C
$IIMWV,298,R,09.4,N,A*1D
$IIMWV,268,T,08.1,N,A*10
$IIRMC,095518,A,4614.162,N,00610.608,E,05.3,300,290614,01,E,A*0B
$IIVHW,,,291,M,05.0,N,,*6B
$IIVLW,01581,N,000.5,N*5B
$IIVWR,062,L,09.4,N,,,,*76
$IIDPT,047.6,-1.0,*45
$IIGLL,4614.162,N,00610.606,E,095519,A,A*54
$IIHDG,291,,,01,E*19
$IIMTW,+15.0,C*3C
$IIMWV,296,R,09.4,N,A*13
$IIMWV,265,T,08.2,N,A*1E
$IIRMC,095519,A,4614.162,N,00610.606,E,05.3,297,290614,01,E,A*0B
$IIVHW,,,291,M,05.1,N,,*6A
$IIVLW,01581,N,000.5,N*5B
$IIVWR,064,L,09.4,N,,,,*70
$IIDPT,056.8,-1.0,*4B
$IIGLL,4614.163,N,00610.604,E,095520,A,A*5D
$IIHDG,291,,,01,E*19
$IIMTW,+15.0,C*3C
$IIMWV,295,R,09.4,N,A*10
$IIMWV,263,T,08.4,N,A*1E
$IIRMC,095520,A,4614.163,N,00610.604,E,05.4,296,290614,01,E,A*04
$IIVHW,,,291,M,05.1,N,,*6A
$IIVLW,01581,N,000.5,N*5B
$IIVWR,065,L,09.5,N,,,,*70
$IIDPT,049.5,-1.0,*48
$IIGLL,4614.164,N,00610.603,E,095521,A,A*5C
$IIHDG,290,,,01,E*18
$IIMTW,+15.0,C*3C
$IIMWV,295,R,09.5,N,A*11
$IIMWV,261,T,08.5,N,A*1D
$IIRMC,095521,A,4614.164,N,00610.603,E,05.4,294,290614,01,E,A*07
$IIVHW,,,290,M,05.2,N,,*68
$IIVLW,01581,N,000.5,N*5B
$IIVWR,065,L,09.5,N,,,,*70
$IIDPT,049.5,-1.0,*48
$IIGLL,4614.165,N,00610.601,E,095522,A,A*5C
$IIHDG,290,,,01,E*18
$IIMTW,+14.5,C*38
$IIMWV,295,R,09.5,N,A*11
$IIMWV,261,T,08.6,N,A*1E
$IIRMC,095522,A,4614.165,N,00610.601,E,05.5,294,290614,01,E,A*06
$IIVHW,,,289,M,05.2,N,,*60
$IIVLW,01581,N,000.5,N*5B
$IIVWR,065,L,09.6,N,,,,*73
$IIDPT,049.5,-1.0,*48
$IIGLL,4614.165,N,00610.599,E,095523,A,A*5F
$IIHDG,289,,,01,E*10
$IIMTW,+14.5,C*38
$IIMWV,295,R,09.6,N,A*12
$IIMWV,261,T,08.6,N,A*1E
$IIRMC,095524,A,4614.166,N,00610.597,E,05.4,296,290614,01,E,A*0C
$IIVHW,,,289,M,05.2,N,,*60
$IIVLW,01581,N,000.6,N*58
$IIVWR,064,L,09.4,N,,,,*70
$IIDPT,042.1,-1.0,*47
$IIGLL,4614.166,N,00610.597,E,095524,A,A*55
$IIHDG,289,,,01,E*10
$IIMTW,+14.5,C*38
$IIMWV,296,R,09.4,N,A*13
$IIMWV,261,T,08.1,N,A*19
$IIRMC,095526,A,4614.167,N,00610.593,E,05.3,295,290614,01,E,A*0F
$IIVHW,,,288,M,05.3,N,,*60
$IIVLW,01581,N,000.6,N*58
$IIVWR,063,L,09.1,N,,,,*72
$IIDPT,034.7,-1.0,*40
$IIGLL,4614.167,N,00610.593,E,095526,A,A*52
$IIHDG,288,,,01,E*11
$IIMTW,+14.5,C*38
$IIMWV,299,R,09.1,N,A*19
$IIMWV,261,T,08.1,N,A*19
$IIRMC,095527,A,4614.168,N,00610.592,E,05.3,293,290614,01,E,A*06
$IIVHW,,,287,M,05.3,N,,*6F
$IIVLW,01581,N,000.6,N*58
$IIVWR,061,L,09.1,N,,,,*70
$IIDPT,034.7,-1.0,*40
$IIGLL,4614.168,N,00610.592,E,095527,A,A*5D
$IIHDG,287,,,01,E*1E
$IIMTW,+14.5,C*38
$IIMWV,301,R,09.0,N,A*18
$IIMWV,262,T,07.9,N,A*1D
$IIRMC,095528,A,4614.168,N,00610.589,E,05.3,290,290614,01,E,A*00
$IIVHW,,,286,M,05.3,N,,*6E
$IIVLW,01581,N,000.6,N*58
$IIVWR,059,L,09.0,N,,,,*7A
$IIDPT,034.7,-1.0,*40
$IIGLL,4614.168,N,00610.589,E,095528,A,A*58
$IIHDG,284,,,01,E*1D
$IIMTW,+14.5,C*38
$IIMWV,305,R,09.1,N,A*1D
$IIMWV,265,T,07.7,N,A*14
$IIRMC,095529,A,4614.168,N,00610.587,E,05.3,287,290614,01,E,A*09
$IIVHW,,,284,M,05.3,N,,*6C
$IIVLW,01581,N,000.6,N*58
$IIVWR,055,L,09.1,N,,,,*77
$IIDPT,039.5,-1.0,*4F
$IIGLL,4614.169,N,00610.585,E,095530,A,A*5C
$IIHDG,281,,,01,E*18
$IIMTW,+14.5,C*38
$IIMWV,307,R,09.0,N,A*1E
$IIMWV,269,T,07.4,N,A*1B
$IIRMC,095530,A,4614.169,N,00610.585,E,05.4,283,290614,01,E,A*01
$IIVHW,,,281,M,05.3,N,,*69
$IIVLW,01581,N,000.6,N*58
$IIVWR,053,L,09.0,N,,,,*70
$IIDPT,047.1,-1.0,*42
$IIGLL,4614.169,N,00610.583,E,095531,A,A*5B
$IIHDG,276,,,01,E*10
$IIMTW,+14.5,C*38
$IIMWV,308,R,08.9,N,A*19
$IIMWV,271,T,07.2,N,A*14
$IIRMC,095531,A,4614.169,N,00610.583,E,05.3,275,290614,01,E,A*08
$IIVHW,,,276,M,05.2,N,,*60
$IIVLW,01581,N,000.6,N*58
$IIVWR,051,L,08.9,N,,,,*7A
$IIDPT,047.1,-1.0,*42
$IIGLL,4614.169,N,00610.582,E,095532,A,A*59
$IIHDG,271,,,01,E*17
$IIMTW,+14.5,C*38
$IIMWV,309,R,08.9,N,A*18
$IIMWV,272,T,07.0,N,A*15
$IIRMC,095532,A,4614.169,N,00610.582,E,05.0,265,290614,01,E,A*08
$IIVHW,,,271,M,05.2,N,,*67
$IIVLW,01581,N,000.6,N*58
$IIVWR,050,L,09.2,N,,,,*71
$IIDPT,040.1,-1.0,*45
$IIGLL,4614.169,N,00610.580,E,095533,A,A*5A
$IIHDG,264,,,01,E*13
$IIMTW,+14.5,C*38
$IIMWV,310,R,09.2,N,A*1A
$IIMWV,273,T,06.9,N,A*1C
$IIRMC,095533,A,4614.169,N,00610.580,E,04.9,256,290614,01,E,A*03
$IIVHW,,,258,M,05.0,N,,*6E
$IIVLW,01581,N,000.6,N*58
$IIVWR,046,L,09.4,N,,,,*70
$IIDPT,040.1,-1.0,*45
$IIGLL,4614.169,N,00610.578,E,095534,A,A*5A
$IIHDG,258,,,01,E*1C
$IIMTW,+14.5,C*38
$IIMWV,314,R,09.4,N,A*18
$IIMWV,275,T,07.0,N,A*12
$IIRMC,095535,A,4614.168,N,00610.576,E,04.9,241,290614,01,E,A*0B
$IIVHW,,,252,M,05.0,N,,*64
$IIVLW,01581,N,000.6,N*58
$IIVWR,042,L,09.6,N,,,,*76
$IIDPT,036.3,-1.0,*46
$IIGLL,4614.168,N,00610.576,E,095535,A,A*54
$IIHDG,252,,,01,E*16
$IIMTW,+14.5,C*38
$IIMWV,318,R,09.6,N,A*16
$IIMWV,288,T,06.7,N,A*16
$IIRMC,095536,A,4614.168,N,00610.574,E,04.7,236,290614,01,E,A*04
$IIVHW,,,247,M,04.9,N,,*68
$IIVLW,01581,N,000.6,N*58
$IIVWR,038,L,09.8,N,,,,*75
$IIDPT,036.3,-1.0,*46
$IIGLL,4614.168,N,00610.574,E,095536,A,A*55
$IIHDG,247,,,01,E*12
$IIMTW,+14.5,C*38
$IIMWV,326,R,10.3,N,A*16
$IIMWV,295,T,06.6,N,A*1B
$IIRMC,095537,A,4614.166,N,00610.574,E,04.7,226,290614,01,E,A*0A
$IIVHW,,,241,M,04.7,N,,*60
$IIVLW,01581,N,000.6,N*58
$IIVWR,034,L,10.3,N,,,,*7A
$IIDPT,036.3,-1.0,*46
$IIGLL,4614.166,N,00610.574,E,095537,A,A*5A
$IIHDG,241,,,01,E*14
$IIMTW,+14.5,C*38
$IIMWV,329,R,10.6,N,A*1C
$IIMWV,303,T,06.7,N,A*14
$IIRMC,095538,A,4614.166,N,00610.572,E,04.3,225,290614,01,E,A*04
$IIVHW,,,235,M,04.7,N,,*63
$IIVLW,01581,N,000.6,N*58
$IIVWR,031,L,10.6,N,,,,*7A
$IIDPT,038.2,-1.0,*49
$IIGLL,4614.166,N,00610.572,E,095538,A,A*53
$IIHDG,229,,,01,E*1A
$IIMTW,+14.5,C*38
$IIMWV,333,R,10.9,N,A*18
$IIMWV,309,T,07.0,N,A*18
$IIRMC,095539,A,4614.165,N,00610.571,E,03.9,223,290614,01,E,A*0E
$IIVHW,,,229,M,04.5,N,,*6C
$IIVLW,01581,N,000.6,N*58
$IIVWR,027,L,10.9,N,,,,*72
$IIDPT,038.2,-1.0,*49
$IIGLL,4614.164,N,00610.571,E,095540,A,A*5D
$IIHDG,223,,,01,E*10
$IIMTW,+14.5,C*38
$IIMWV,335,R,11.1,N,A*17
$IIMWV,316,T,07.0,N,A*16
$IIRMC,095540,A,4614.164,N,00610.571,E,03.9,213,290614,01,E,A*02
$IIVHW,,,223,M,04.4,N,,*67
$IIVLW,01581,N,000.6,N*58
$IIVWR,025,L,11.1,N,,,,*79
$IIDPT,038.2,-1.0,*49
$IIGLL,4614.163,N,00610.570,E,095541,A,A*5A
$IIHDG,218,,,01,E*18
$IIMTW,+14.5,C*38
$IIMWV,339,R,11.1,N,A*1B
$IIMWV,321,T,07.2,N,A*10
$IIRMC,095541,A,4614.163,N,00610.570,E,03.8,206,290614,01,E,A*00
$IIVHW,,,218,M,04.3,N,,*68
$IIVLW,01581,N,000.6,N*58
$IIVWR,018,L,11.1,N,,,,*77
$IIDPT,038.2,-1.0,*49
$IIGLL,4614.162,N,00610.569,E,095542,A,A*50
$IIHDG,214,,,01,E*14
$IIMTW,+14.5,C*38
$IIMWV,342,R,11.1,N,A*17
$IIMWV,327,T,07.1,N,A*15
$IIRMC,095542,A,4614.162,N,00610.569,E,03.7,200,290614,01,E,A*03
$IIVHW,,,214,M,04.1,N,,*66
$IIVLW,01581,N,000.6,N*58
$IIVWR,014,L,11.1,N,,,,*7B
$IIDPT,038.3,-1.0,*48
$IIGLL,4614.161,N,00610.569,E,095543,A,A*52
$IIHDG,211,,,01,E*11
$IIMTW,+14.5,C*38
$IIMWV,346,R,11.1,N,A*13
$IIMWV,331,T,07.1,N,A*12
$IIRMC,095543,A,4614.161,N,00610.569,E,03.4,200,290614,01,E,A*02
$IIVHW,,,208,M,03.9,N,,*64
$IIVLW,01581,N,000.6,N*58
$IIVWR,012,L,11.1,N,,,,*7D
$IIDPT,038.7,-1.0,*4C
$IIGLL,4614.160,N,00610.568,E,095544,A,A*55
$IIHDG,208,,,01,E*19
$IIMTW,+14.5,C*38
$IIMWV,348,R,11.1,N,A*1D
$IIMWV,339,T,07.0,N,A*1B
$IIRMC,095545,A,4614.160,N,00610.568,E,03.0,191,290614,01,E,A*0B
$IIVHW,,,206,M,03.8,N,,*6B
$IIVLW,01581,N,000.6,N*58
$IIVWR,010,L,11.0,N,,,,*7E
$IIDPT,038.7,-1.0,*4C
$IIGLL,4614.160,N,00610.568,E,095545,A,A*54
$IIHDG,206,,,01,E*17
$IIMTW,+14.5,C*38
$IIMWV,350,R,11.0,N,A*15
$IIMWV,345,T,07.1,N,A*11
$IIRMC,095546,A,4614.159,N,00610.568,E,02.8,196,290614,01,E,A*0C
$IIVHW,,,203,M,03.7,N,,*61
$IIVLW,01581,N,000.6,N*58
$IIVWR,009,L,10.8,N,,,,*7F
$IIDPT,038.7,-1.0,*4C
$IIGLL,4614.159,N,00610.568,E,095546,A,A*5D
$IIHDG,203,,,01,E*12
$IIMTW,+14.5,C*38
$IIMWV,354,R,10.7,N,A*17
$IIMWV,346,T,07.1,N,A*12
$IIRMC,095547,A,4614.158,N,00610.567,E,03.3,202,290614,01,E,A*07
$IIVHW,,,202,M,03.6,N,,*61
$IIVLW,01581,N,000.6,N*58
$IIVWR,006,L,10.7,N,,,,*7F
$IIDPT,038.7,-1.0,*4C
$IIGLL,4614.158,N,00610.567,E,095547,A,A*52
$IIHDG,202,,,01,E*13
$IIMTW,+14.0,C*3D
$IIMWV,354,R,10.7,N,A*17
$IIMWV,352,T,06.9,N,A*1E
$IIRMC,095548,A,4614.157,N,00610.567,E,03.3,196,290614,01,E,A*09
$IIVHW,,,201,M,03.4,N,,*60
$IIVLW,01581,N,000.6,N*58
$IIVWR,006,L,10.7,N,,,,*7F
$IIDPT,035.2,-1.0,*44
$IIGLL,4614.157,N,00610.567,E,095548,A,A*52
$IIHDG,201,,,01,E*10
$IIMTW,+14.0,C*3D
$IIMWV,354,R,10.6,N,A*16
$IIMWV,352,T,07.0,N,A*16
$IIRMC,095549,A,4614.156,N,00610.566,E,02.8,193,290614,01,E,A*07
$IIVHW,,,201,M,03.3,N,,*67
$IIVLW,01581,N,000.6,N*58
$IIVWR,006,L,10.6,N,,,,*7E
$IIDPT,034.1,-1.0,*46
$IIGLL,4614.155,N,00610.566,E,095550,A,A*58
$IIHDG,200,,,01,E*11
$IIMTW,+14.0,C*3D
$IIMWV,354,R,10.5,N,A*15
$IIMWV,352,T,07.0,N,A*16
$IIRMC,095550,A,4614.155,N,00610.566,E,02.1,182,290614,01,E,A*05
$IIVHW,,,200,M,03.2,N,,*67
$IIVLW,01581,N,000.6,N*58
$IIVWR,006,L,10.5,N,,,,*7D
$IIDPT,032.7,-1.0,*46
$IIGLL,4614.155,N,00610.567,E,095551,A,A*58
$IIHDG,199,,,01,E*12
$IIMTW,+14.0,C*3D
$IIMWV,354,R,10.4,N,A*14
$IIMWV,352,T,07.0,N,A*16
$IIRMC,095551,A,4614.155,N,00610.567,E,02.5,192,290614,01,E,A*00
$IIVHW,,,199,M,03.2,N,,*64
$IIVLW,01581,N,000.6,N*58
$IIVWR,006,L,10.4,N,,,,*7C
$IIDPT,033.1,-1.0,*41
$IIGLL,4614.154,N,00610.567,E,095552,A,A*5A
$IIHDG,199,,,01,E*12
$IIMTW,+14.0,C*3D
$IIMWV,354,R,10.4,N,A*14
$IIMWV,352,T,07.0,N,A*16
$IIRMC,095552,A,4614.154,N,00610.567,E,02.2,186,290614,01,E,A*00
$IIVHW,,,199,M,03.1,N,,*67
$IIVLW,01581,N,000.6,N*58
$IIVWR,006,L,10.2,N,,,,*7A
$IIDPT,034.3,-1.0,*44
$IIGLL,4614.154,N,00610.567,E,095553,A,A*5B
$IIHDG,199,,,01,E*12
$IIMTW,+14.0,C*3D
$IIMWV,354,R,10.2,N,A*12
$IIMWV,352,T,07.1,N,A*17
$IIRMC,095553,A,4614.154,N,00610.567,E,02.5,193,290614,01,E,A*02
$IIVHW,,,199,M,02.9,N,,*6E
$IIVLW,01581,N,000.6,N*58
$IIVWR,006,L,10.3,N,,,,*7B
$IIDPT,035.6,-1.0,*40
$IIGLL,4614.153,N,00610.567,E,095554,A,A*5B
$IIHDG,199,,,01,E*12
$IIMTW,+14.0,C*3D
$IIMWV,354,R,10.3,N,A*13
$IIMWV,352,T,07.0,N,A*16
$IIRMC,095555,A,4614.152,N,00610.566,E,03.1,204,290614,01,E,A*0B
$IIVHW,,,199,M,02.8,N,,*6F
$IIVLW,01581,N,000.6,N*58
$IIVWR,007,L,10.2,N,,,,*7B
$IIDPT,038.1,-1.0,*4A
$IIGLL,4614.152,N,00610.566,E,095555,A,A*5A
$IIHDG,199,,,01,E*12
$IIMTW,+14.0,C*3D
$IIMWV,353,R,10.2,N,A*15
$IIMWV,351,T,07.3,N,A*16
$IIRMC,095557,A,4614.151,N,00610.566,E,02.0,202,290614,01,E,A*0C
$IIVHW,,,199,M,02.3,N,,*64
$IIVLW,01581,N,000.6,N*58
$IIVWR,008,L,10.1,N,,,,*77
$IIDPT,039.3,-1.0,*49
$IIGLL,4614.151,N,00610.566,E,095557,A,A*5B
$IIHDG,199,,,01,E*12
$IIMTW,+14.0,C*3D
$IIMWV,353,R,10.1,N,A*16
$IIMWV,350,T,07.7,N,A*13
$IIRMC,095558,A,4614.151,N,00610.566,E,02.0,207,290614,01,E,A*06
$IIVHW,,,198,M,02.3,N,,*65
$IIVLW,01581,N,000.6,N*58
$IIVWR,007,L,10.1,N,,,,*78
$IIDPT,039.3,-1.0,*49
$IIGLL,4614.151,N,00610.566,E,095558,A,A*54
$IIHDG,198,,,01,E*13
$IIMTW,+14.0,C*3D
$IIMWV,354,R,10.1,N,A*11
$IIMWV,351,T,07.6,N,A*13
$IIRMC,095559,A,4614.150,N,00610.566,E,01.6,175,290614,01,E,A*05
$IIVHW,,,197,M,02.3,N,,*6A
$IIVLW,01581,N,000.6,N*58
$IIVWR,006,L,10.1,N,,,,*79
$IIDPT,039.3,-1.0,*49
$IIGLL,4614.150,N,00610.566,E,095559,A,A*54
$IIHDG,196,,,01,E*1D
$IIMTW,+14.0,C*3D
$IIMWV,356,R,10.0,N,A*12
$IIMWV,352,T,07.6,N,A*10
$IIRMC,095600,A,4614.150,N,00610.565,E,01.8,193,290614,01,E,A*0F
$IIVHW,,,196,M,02.3,N,,*6B
$IIVLW,01581,N,000.6,N*58
$IIVWR,004,L,10.0,N,,,,*7A
$IIDPT,041.0,-1.0,*45
$IIGLL,4614.149,N,00610.565,E,095601,A,A*51
$IIHDG,195,,,01,E*1E
$IIMTW,+14.0,C*3D
$IIMWV,356,R,10.0,N,A*12
$IIMWV,355,T,07.7,N,A*16
$IIRMC,095601,A,4614.149,N,00610.565,E,02.5,199,290614,01,E,A*02
$IIVHW,,,195,M,02.2,N,,*69
$IIVLW,01581,N,000.6,N*58
$IIVWR,004,L,10.0,N,,,,*7A
$IIDPT,035.7,-1.0,*41
$IIGLL,4614.149,N,00610.564,E,095602,A,A*53
$IIHDG,194,,,01,E*1F
$IIMTW,+14.0,C*3D
$IIMWV,356,R,09.9,N,A*13
$IIMWV,355,T,07.7,N,A*16
$IIRMC,095602,A,4614.149,N,00610.564,E,02.0,187,290614,01,E,A*0A
$IIVHW,,,194,M,02.2,N,,*68
$IIVLW,01581,N,000.6,N*58
$IIVWR,003,L,09.9,N,,,,*7C
$IIDPT,032.2,-1.0,*43
$IIGLL,4614.148,N,00610.564,E,095603,A,A*53
$IIHDG,194,,,01,E*1F
$IIMTW,+14.0,C*3D
$IIMWV,357,R,09.9,N,A*12
$IIMWV,355,T,07.7,N,A*16
$IIRMC,095603,A,4614.148,N,00610.564,E,01.4,194,290614,01,E,A*0F
$IIVHW,,,194,M,02.1,N,,*6B
$IIVLW,01581,N,000.6,N*58
$IIVWR,003,L,09.8,N,,,,*7D
$IIDPT,036.3,-1.0,*46
$IIGLL,4614.148,N,00610.564,E,095604,A,A*54
$IIHDG,197,,,01,E*1C
$IIMTW,+14.0,C*3D
$IIMWV,357,R,09.8,N,A*13
$IIMWV,357,T,07.8,N,A*1B
$IIRMC,095604,A,4614.148,N,00610.564,E,01.4,208,290614,01,E,A*0E
$IIVHW,,,200,M,01.8,N,,*6F
$IIVLW,01581,N,000.6,N*58
$IIVWR,004,L,09.9,N,,,,*7B
$IIDPT,047.1,-1.0,*42
$IIGLL,4614.147,N,00610.564,E,095605,A,A*5A
$IIHDG,200,,,01,E*11
$IIMTW,+14.0,C*3D
$IIMWV,356,R,09.9,N,A*13
$IIMWV,357,T,08.0,N,A*1C
$IIRMC,095606,A,4614.147,N,00610.563,E,01.5,211,290614,01,E,A*0D
$IIVHW,,,203,M,01.8,N,,*6C
$IIVLW,01581,N,000.6,N*58
$IIVWR,007,L,10.0,N,,,,*79
$IIDPT,037.9,-1.0,*4D
$IIGLL,4614.147,N,00610.563,E,095606,A,A*5E
$IIHDG,203,,,01,E*12
$IIMTW,+14.0,C*3D
$IIMWV,353,R,10.0,N,A*17
$IIMWV,351,T,08.1,N,A*1B
$IIRMC,095607,A,4614.147,N,00610.563,E,01.1,216,290614,01,E,A*0F
$IIVHW,,,208,M,01.8,N,,*67
$IIVLW,01581,N,000.6,N*58
$IIVWR,008,L,10.0,N,,,,*76
$IIDPT,040.3,-1.0,*47
$IIGLL,4614.147,N,00610.563,E,095607,A,A*5F
$IIHDG,208,,,01,E*19
$IIMTW,+14.0,C*3D
$IIMWV,350,R,09.9,N,A*15
$IIMWV,350,T,08.2,N,A*19
$IIRMC,095608,A,4614.146,N,00610.563,E,01.5,228,290614,01,E,A*08
$IIVHW,,,212,M,01.7,N,,*63
$IIVLW,01581,N,000.6,N*58
$IIVWR,010,L,09.9,N,,,,*7E
$IIDPT,047.1,-1.0,*42
$IIGLL,4614.146,N,00610.563,E,095608,A,A*51
$IIHDG,212,,,01,E*12
$IIMTW,+14.0,C*3D
$IIMWV,347,R,09.7,N,A*1D
$IIMWV,348,T,08.0,N,A*12
$IIRMC,095609,A,4614.146,N,00610.562,E,01.4,238,290614,01,E,A*08
$IIVHW,,,216,M,01.5,N,,*65
$IIVLW,01581,N,000.6,N*58
$IIVWR,013,L,09.7,N,,,,*73
$IIDPT,047.1,-1.0,*42
$IIGLL,4614.146,N,00610.562,E,095609,A,A*51
$IIHDG,221,,,01,E*12
$IIMTW,+14.0,C*3D
$IIMWV,344,R,09.7,N,A*1E
$IIMWV,345,T,08.1,N,A*1E
$IIRMC,095610,A,4614.145,N,00610.562,E,01.4,238,290614,01,E,A*03
$IIVHW,,,221,M,01.5,N,,*61
$IIVLW,01581,N,000.6,N*58
$IIVWR,016,L,09.7,N,,,,*76
$IIDPT,044.8,-1.0,*48
$IIGLL,4614.145,N,00610.561,E,095611,A,A*58
$IIHDG,226,,,01,E*15
$IIMTW,+14.0,C*3D
$IIMWV,341,R,09.6,N,A*1A
$IIMWV,340,T,08.1,N,A*1B
$IIRMC,095611,A,4614.145,N,00610.561,E,01.4,245,290614,01,E,A*0B
$IIVHW,,,226,M,01.6,N,,*65
$IIVLW,01581,N,000.6,N*58
$IIVWR,019,L,09.6,N,,,,*78
$IIDPT,043.5,-1.0,*42
$IIGLL,4614.145,N,00610.560,E,095612,A,A*5A
$IIHDG,231,,,01,E*13
$IIMTW,+14.0,C*3D
$IIMWV,338,R,09.5,N,A*17
$IIMWV,337,T,08.0,N,A*1A
$IIRMC,095612,A,4614.145,N,00610.560,E,01.4,257,290614,01,E,A*0A
$IIVHW,,,231,M,01.7,N,,*62
$IIVLW,01581,N,000.6,N*58
$IIVWR,024,L,09.4,N,,,,*74
$IIDPT,041.6,-1.0,*43
$IIGLL,4614.145,N,00610.560,E,095613,A,A*5B
$IIHDG,236,,,01,E*14
$IIMTW,+14.0,C*3D
$IIMWV,336,R,09.4,N,A*18
$IIMWV,333,T,07.8,N,A*19
$IIRMC,095613,A,4614.145,N,00610.560,E,01.5,263,290614,01,E,A*0D
$IIVHW,,,236,M,01.9,N,,*6B
$IIVLW,01581,N,000.6,N*58
$IIVWR,028,L,09.3,N,,,,*7F
$IIDPT,037.9,-1.0,*4D
$IIGLL,4614.145,N,00610.559,E,095614,A,A*56
$IIHDG,241,,,01,E*14
$IIMTW,+14.0,C*3D
$IIMWV,332,R,09.3,N,A*1B
$IIMWV,330,T,07.6,N,A*14
$IIRMC,095614,A,4614.145,N,00610.559,E,01.5,272,290614,01,E,A*00
$IIVHW,,,245,M,02.2,N,,*67
$IIVLW,01581,N,000.6,N*58
$IIVWR,033,L,09.3,N,,,,*75
$IIDPT,037.9,-1.0,*4D
$IIGLL,4614.145,N,00610.558,E,095615,A,A*56
$IIHDG,245,,,01,E*10
$IIMTW,+14.0,C*3D
$IIMWV,327,R,09.3,N,A*1F
$IIMWV,324,T,07.3,N,A*14
$IIRMC,095616,A,4614.145,N,00610.557,E,01.9,277,290614,01,E,A*05
$IIVHW,,,250,M,02.4,N,,*65
$IIVLW,01581,N,000.6,N*58
$IIVWR,038,L,09.1,N,,,,*7C
$IIDPT,037.9,-1.0,*4D
$IIGLL,4614.145,N,00610.557,E,095616,A,A*5A
$IIHDG,250,,,01,E*14
$IIMTW,+14.0,C*3D
$IIMWV,322,R,09.1,N,A*18
$IIMWV,309,T,07.2,N,A*1A
$IIRMC,095617,A,4614.145,N,00610.556,E,02.1,281,290614,01,E,A*07
$IIVHW,,,255,M,02.5,N,,*61
$IIVLW,01581,N,000.6,N*58
$IIVWR,042,L,09.2,N,,,,*72
$IIDPT,039.5,-1.0,*4F
$IIGLL,4614.145,N,00610.556,E,095617,A,A*5A
$IIHDG,255,,,01,E*11
$IIMTW,+14.0,C*3D
$IIMWV,314,R,09.2,N,A*1E
$IIMWV,304,T,07.4,N,A*11
$IIRMC,095618,A,4614.145,N,00610.555,E,02.3,287,290614,01,E,A*0F
$IIVHW,,,261,M,02.7,N,,*64
$IIVLW,01581,N,000.6,N*58
$IIVWR,046,L,09.2,N,,,,*76
$IIDPT,047.8,-1.0,*4B
$IIGLL,4614.145,N,00610.555,E,095618,A,A*56
$IIHDG,261,,,01,E*16
$IIMTW,+15.0,C*3C
$IIMWV,310,R,09.1,N,A*19
$IIMWV,298,T,07.4,N,A*15
$IIRMC,095619,A,4614.145,N,00610.554,E,02.4,291,290614,01,E,A*0F
$IIVHW,,,265,M,02.8,N,,*6F
$IIVLW,01581,N,000.6,N*58
$IIVWR,050,L,09.1,N,,,,*72
$IIDPT,047.8,-1.0,*4B
$IIGLL,4614.145,N,00610.554,E,095619,A,A*56
$IIHDG,269,,,01,E*1E
$IIMTW,+14.5,C*38
$IIMWV,306,R,09.1,N,A*1E
$IIMWV,293,T,07.6,N,A*1C
$IIRMC,095620,A,4614.145,N,00610.553,E,02.4,291,290614,01,E,A*02
$IIVHW,,,269,M,02.8,N,,*63
$IIVLW,01581,N,000.6,N*58
$IIVWR,054,L,09.1,N,,,,*76
$IIDPT,047.8,-1.0,*4B
$IIGLL,4614.146,N,00610.553,E,095621,A,A*59
$IIHDG,273,,,01,E*15
$IIMTW,+14.5,C*38
$IIMWV,303,R,09.2,N,A*18
$IIMWV,288,T,07.6,N,A*16
$IIRMC,095621,A,4614.146,N,00610.553,E,02.8,289,290614,01,E,A*05
$IIVHW,,,273,M,02.8,N,,*68
$IIVLW,01581,N,000.6,N*58
$IIVWR,057,L,09.2,N,,,,*76
$IIDPT,038.4,-1.0,*4F
$IIGLL,4614.146,N,00610.551,E,095622,A,A*58
$IIHDG,275,,,01,E*13
$IIMTW,+14.5,C*38
$IIMWV,301,R,09.2,N,A*1A
$IIMWV,285,T,07.9,N,A*14
$IIRMC,095622,A,4614.146,N,00610.551,E,03.6,295,290614,01,E,A*06
$IIVHW,,,275,M,02.9,N,,*6F
$IIVLW,01581,N,000.6,N*58
$IIVWR,061,L,09.2,N,,,,*73
$IIDPT,038.4,-1.0,*4F
$IIGLL,4614.146,N,00610.550,E,095623,A,A*58
$IIHDG,278,,,01,E*1E
$IIMTW,+15.0,C*3C
$IIMWV,299,R,09.2,N,A*1A
$IIMWV,283,T,08.1,N,A*15
$IIRMC,095623,A,4614.146,N,00610.550,E,03.2,294,290614,01,E,A*03
$IIVHW,,,278,M,03.0,N,,*6A
$IIVLW,01581,N,000.6,N*58
$IIVWR,064,L,09.1,N,,,,*75
$IIDPT,038.4,-1.0,*4F
$IIGLL,4614.147,N,00610.549,E,095624,A,A*56
$IIHDG,280,,,01,E*19
$IIMTW,+14.0,C*3D
$IIMWV,296,R,09.1,N,A*16
$IIMWV,280,T,08.1,N,A*16
$IIRMC,095624,A,4614.147,N,00610.549,E,03.7,297,290614,01,E,A*0B
$IIVHW,,,283,M,03.2,N,,*6C
$IIVLW,01581,N,000.6,N*58
$IIVWR,066,L,09.0,N,,,,*76
$IIDPT,036.3,-1.0,*46
$IIGLL,4614.147,N,00610.547,E,095625,A,A*59
$IIHDG,283,,,01,E*1A
$IIMTW,+14.0,C*3D
$IIMWV,294,R,09.0,N,A*15
$IIMWV,276,T,08.1,N,A*1F
$IIRMC,095626,A,4614.147,N,00610.546,E,03.6,300,290614,01,E,A*08
$IIVHW,,,285,M,03.3,N,,*6B
$IIVLW,01581,N,000.6,N*58
$IIVWR,070,L,08.9,N,,,,*79
$IIDPT,036.3,-1.0,*46
$IIGLL,4614.147,N,00610.546,E,095626,A,A*5B
$IIHDG,285,,,01,E*1C
$IIMTW,+14.0,C*3D
$IIMWV,290,R,08.9,N,A*19
$IIMWV,268,T,08.3,N,A*12
$IIRMC,095627,A,4614.148,N,00610.545,E,03.7,300,290614,01,E,A*04
$IIVHW,,,286,M,03.4,N,,*6F
$IIVLW,01581,N,000.6,N*58
$IIVWR,072,L,09.0,N,,,,*73
$IIDPT,057.6,-1.0,*44
$IIGLL,4614.148,N,00610.545,E,095627,A,A*56
$IIHDG,286,,,01,E*1F
$IIMTW,+14.0,C*3D
$IIMWV,286,R,08.9,N,A*1E
$IIMWV,265,T,08.5,N,A*19
$IIRMC,095628,A,4614.148,N,00610.543,E,04.0,301,290614,01,E,A*0C
$IIVHW,,,288,M,03.5,N,,*60
$IIVLW,01581,N,000.6,N*58
$IIVWR,074,L,08.9,N,,,,*7D
$IIDPT,057.6,-1.0,*44
$IIGLL,4614.148,N,00610.543,E,095628,A,A*5F
$IIHDG,288,,,01,E*11
$IIMTW,+14.0,C*3D
$IIMWV,285,R,09.0,N,A*15
$IIMWV,262,T,08.5,N,A*1E
$IIRMC,095629,A,4614.149,N,00610.542,E,04.1,301,290614,01,E,A*0C
$IIVHW,,,290,M,03.7,N,,*6B
$IIVLW,01581,N,000.6,N*58
$IIVWR,075,L,09.0,N,,,,*74
$IIDPT,050.8,-1.0,*4D
$IIGLL,4614.149,N,00610.542,E,095629,A,A*5E
$IIHDG,290,,,01,E*18
$IIMTW,+14.5,C*38
$IIMWV,286,R,09.1,N,A*17
$IIMWV,261,T,08.8,N,A*10
$IIRMC,095630,A,4614.149,N,00610.540,E,04.1,301,290614,01,E,A*06
$IIVHW,,,290,M,03.8,N,,*64
$IIVLW,01581,N,000.6,N*58
$IIVWR,074,L,09.1,N,,,,*74
$IIDPT,050.8,-1.0,*4D
$IIGLL,4614.150,N,00610.539,E,095631,A,A*53
$IIHDG,291,,,01,E*19
$IIMTW,+14.5,C*38
$IIMWV,286,R,09.1,N,A*17
$IIMWV,261,T,08.7,N,A*1F
$IIRMC,095631,A,4614.150,N,00610.539,E,04.4,303,290614,01,E,A*06
$IIVHW,,,291,M,03.9,N,,*64
$IIVLW,01581,N,000.6,N*58
$IIVWR,074,L,09.1,N,,,,*74
$IIDPT,050.8,-1.0,*4D
$IIGLL,4614.150,N,00610.538,E,095632,A,A*51
$IIHDG,293,,,01,E*1B
$IIMTW,+14.5,C*38
$IIMWV,286,R,09.2,N,A*14
$IIMWV,261,T,08.8,N,A*10
