$IIMWV,226,T,05.4,N,A*12
$IIVHW,,,270,M,00.0,N,,*61
$IIVWR,134,L,05.2,N,,,,*7E
$IIDPT,001.9,-1.0,*48
$IIHDG,270,,,,*52
$IIMTW,+22.5,C*3D
$IIMWV,226,R,05.2,N,A*12
$IIMWV,226,T,05.2,N,A*14
$IIVHW,,,270,M,00.0,N,,*61
$IIVWR,136,L,05.3,N,,,,*7D
$IIDPT,001.9,-1.0,*48
$IIHDG,270,,,,*52
$IIMTW,+22.5,C*3D
$IIMWV,224,R,05.3,N,A*11
$IIMWV,224,T,05.3,N,A*17
$IIVHW,,,269,M,00.0,N,,*69
$IIVWR,138,L,05.3,N,,,,*73
$IIDPT,001.9,-1.0,*48
$IIHDG,269,,,,*5A
$IIVHW,,,145,M,01.9,N,,*6C
$IIVWR,027,L,05.2,N,,,,*7D
$IIDPT,054.1,-1.0,*40
$IIGLL,4629.932,N,00640.348,E,173210,A,A*5A
$IIHDG,145,,,,*57
$IIMTW,+21.0,C*3B
$IIMWV,333,R,05.2,N,A*17
$IIMWV,320,T,03.5,N,A*12
$IIRMC,173210,A,4629.932,N,00640.348,E,02.3,142,020708,,,A*48
$IIVHW,,,145,M,01.9,N,,*6C
$IIVWR,028,L,05.7,N,,,,*77
$IIDPT,060.5,-1.0,*43
$IIGLL,4629.931,N,00640.349,E,173212,A,A*5A
$IIHDG,145,,,,*57
$IIMTW,+18.0,C*31
$IIMWV,332,R,05.7,N,A*13
$IIMWV,319,T,03.4,N,A*19
$IIRMB,A,0.16,R,,OUC ,,,,,002.09,277,-01.5,V,A*29
$IIRMC,173212,A,4629.931,N,00640.349,E,02.3,143,020708,,,A*49
$IIVHW,,,144,M,01.9,N,,*6D
$IIVWR,028,L,05.6,N,,,,*76
$IIDPT,060.5,-1.0,*43
$IIGLL,4629.931,N,00640.349,E,173212,A,A*5A
$IIHDG,144,,,,*56
$IIMTW,+20.5,C*3F
$IIMWV,332,R,05.6,N,A*12
$IIMWV,318,T,03.8,N,A*14
$IIRMB,A,0.16,R,,OUC ,,,,,002.09,277,-01.6,V,A*2A
$IIRMC,173214,A,4629.930,N,00640.350,E,02.2,141,020708,,,A*45
$IIVHW,,,145,M,01.9,N,,*6C
$IIVWR,028,L,05.5,N,,,,*75
$IIDPT,053.5,-1.0,*43
$IIGLL,4629.930,N,00640.350,E,173214,A,A*55
$IIHDG,145,,,,*57
$IIMTW,+20.5,C*3F
$IIMWV,332,R,05.5,N,A*11
$IIMWV,318,T,03.7,N,A*1B
$IIRMC,173214,A,4629.930,N,00640.350,E,02.2,141,020708,,,A*45
$IIVHW,,,145,M,01.9,N,,*6C
$IIVWR,028,L,05.5,N,,,,*75
$IIDPT,055.5,-1.0,*45
$IIGLL,4629.929,N,00640.352,E,173216,A,A*5D
$IIHDG,145,,,,*57
$IIMTW,+20.5,C*3F
$IIMWV,331,R,05.3,N,A*14
$IIMWV,318,T,03.7,N,A*1B
$IIRMB,A,0.16,R,,OUC ,,,,,002.10,277,-01.6,V,A*22
$IIRMC,173216,A,4629.929,N,00640.352,E,02.2,142,020708,,,A*4E
$IIVHW,,,145,M,01.9,N,,*6C
$IIVWR,028,L,05.4,N,,,,*74
$IIDPT,055.5,-1.0,*45
$IIGLL,4629.929,N,00640.352,E,173216,A,A*5D
$IIHDG,144,,,,*56
$IIMTW,+20.5,C*3F
$IIMWV,332,R,05.4,N,A*10
$IIMWV,316,T,03.6,N,A*14
$IIRMC,173216,A,4629.929,N,00640.352,E,02.2,142,020708,,,A*4E
$IIVHW,,,144,M,01.9,N,,*6D
$IIVWR,027,L,05.2,N,,,,*7D
$IIDPT,031.9,-1.0,*4B
$IIGLL,4629.928,N,00640.353,E,173218,A,A*53
$IIHDG,144,,,,*56
$IIMTW,+20.5,C*3F
$IIMWV,333,R,05.2,N,A*17
$IIMWV,317,T,03.6,N,A*15
$IIRMB,A,0.17,R,,OUC ,,,,,002.10,277,-01.6,V,A*23
$IIRMC,173218,A,4629.928,N,00640.353,E,02.3,143,020708,,,A*40
$IIVHW,,,144,M,01.9,N,,*6D
$IIVWR,027,L,05.3,N,,,,*7C
$IIDPT,031.9,-1.0,*4B
$IIGLL,4629.928,N,00640.353,E,173218,A,A*53
$IIHDG,144,,,,*56
$IIMTW,+20.5,C*3F
$IIMWV,333,R,05.3,N,A*16
$IIMWV,320,T,03.5,N,A*12
$IIRMB,A,0.17,R,,OUC ,,,,,002.10,277,-01.6,V,A*23
$IIRMC,173220,A,4629.927,N,00640.354,E,02.2,143,020708,,,A*42
$IIVHW,,,144,M,01.9,N,,*6D
$IIVWR,027,L,05.3,N,,,,*7C
$IIDPT,025.7,-1.0,*40
$IIGLL,4629.927,N,00640.354,E,173220,A,A*50
$IIHDG,144,,,,*56
$IIMTW,+20.5,C*3F
$IIMWV,334,R,05.4,N,A*16
$IIMWV,320,T,03.5,N,A*12
$IIRMC,173220,A,4629.927,N,00640.354,E,02.2,143,020708,,,A*42
$IIVHW,,,144,M,01.9,N,,*6D
$IIVWR,026,L,05.4,N,,,,*7A
$IIDPT,022.4,-1.0,*44
$IIGLL,4629.926,N,00640.355,E,173222,A,A*52
$IIHDG,143,,,,*51
$IIMTW,+20.5,C*3F
$IIMWV,335,R,05.2,N,A*11
$IIMWV,321,T,03.6,N,A*10
$IIRMB,A,0.17,R,,OUC ,,,,,002.10,277,-01.6,V,A*23
$IIRMC,173222,A,4629.926,N,00640.355,E,02.3,141,020708,,,A*43
$IIVHW,,,143,M,01.9,N,,*6A
$IIVWR,026,L,05.3,N,,,,*7D
$IIDPT,018.2,-1.0,*4B
$IIGLL,4629.926,N,00640.355,E,173222,A,A*52
$IIHDG,144,,,,*56
$IIMTW,+20.5,C*3F
$IIMWV,334,R,05.3,N,A*11
$IIMWV,322,T,03.4,N,A*11
$IIRMC,173222,A,4629.926,N,00640.355,E,02.3,141,020708,,,A*43
$IIVHW,,,144,M,01.9,N,,*6D
$IIVWR,026,L,05.4,N,,,,*7A
$IIDPT,018.2,-1.0,*4B
$IIGLL,4629.925,N,00640.356,E,173224,A,A*54
$IIHDG,144,,,,*56
$IIMTW,+20.5,C*3F
$IIMWV,334,R,05.4,N,A*16
$IIMWV,320,T,03.5,N,A*12
$IIRMB,A,0.17,R,,OUC ,,,,,002.10,277,-01.6,V,A*23
$IIRMC,173224,A,4629.925,N,00640.356,E,02.2,140,020708,,,A*45
$IIVHW,,,143,M,02.0,N,,*60
$IIVWR,027,L,05.4,N,,,,*7B
$IIDPT,018.2,-1.0,*4B
$IIGLL,4629.925,N,00640.356,E,173224,A,A*54
$IIHDG,143,,,,*51
$IIMTW,+20.5,C*3F
$IIMWV,333,R,05.4,N,A*11
$IIMWV,319,T,03.6,N,A*1B
$IIRMB,A,0.17,R,,OUC ,,,,,002.10,277,-01.7,V,A*22
$IIRMC,173226,A,4629.924,N,00640.357,E,02.3,142,020708,,,A*44
$IIVHW,,,144,M,01.9,N,,*6D
$IIVWR,025,L,05.4,N,,,,*79
$IIDPT,018.4,-1.0,*4D
$IIGLL,4629.924,N,00640.357,E,173226,A,A*56
$IIHDG,143,,,,*51
$IIMTW,+20.5,C*3F
$IIMWV,335,R,05.4,N,A*17
$IIMWV,320,T,03.7,N,A*10
$IIRMB,A,0.17,R,,OUC ,,,,,002.10,277,-01.6,V,A*23
$IIRMC,173228,A,4629.923,N,00640.358,E,02.4,143,020708,,,A*44
$IIVHW,,,143,M,02.0,N,,*60
$IIVWR,025,L,05.4,N,,,,*79
$IIDPT,059.8,-1.0,*44
$IIGLL,4629.923,N,00640.358,E,173228,A,A*50
$IIHDG,144,,,,*56
$IIMTW,+20.5,C*3F
$IIMWV,335,R,05.4,N,A*17
$IIMWV,323,T,03.6,N,A*12
$IIRMC,173228,A,4629.923,N,00640.358,E,02.4,143,020708,,,A*44
$IIVHW,,,144,M,01.9,N,,*6D
$IIVWR,026,L,05.4,N,,,,*7A
$IIDPT,059.8,-1.0,*44
$IIGLL,4629.922,N,00640.360,E,173230,A,A*53
$IIHDG,144,,,,*56
$IIMTW,+20.5,C*3F
$IIMWV,334,R,05.4,N,A*16
$IIMWV,323,T,03.6,N,A*12
$IIRMB,A,0.17,R,,OUC ,,,,,002.10,277,-01.5,V,A*20
$IIRMC,173230,A,4629.922,N,00640.360,E,02.3,142,020708,,,A*41
$IIVHW,,,144,M,01.9,N,,*6D
$IIVWR,026,L,05.5,N,,,,*7B
$IIDPT,022.6,-1.0,*46
$IIGLL,4629.922,N,00640.360,E,173230,A,A*53
$IIHDG,144,,,,*56
$IIMTW,+20.5,C*3F
$IIMWV,334,R,05.5,N,A*17
$IIMWV,320,T,03.7,N,A*10
$IIRMB,A,0.17,R,,OUC ,,,,,002.10,277,-01.6,V,A*23
$IIRMC,173232,A,4629.921,N,00640.361,E,02.3,143,020708,,,A*40
$IIVHW,,,144,M,02.0,N,,*67
$IIVWR,027,L,05.5,N,,,,*7A
$IIDPT,023.2,-1.0,*43
$IIGLL,4629.921,N,00640.361,E,173232,A,A*53
$IIHDG,144,,,,*56
$IIMTW,+20.5,C*3F
$IIMWV,332,R,05.5,N,A*11
$IIMWV,319,T,03.6,N,A*1B
$IIRMC,173232,A,4629.921,N,00640.361,E,02.3,143,020708,,,A*40
$IIVHW,,,144,M,02.0,N,,*67
$IIVWR,028,L,05.5,N,,,,*75
$IIDPT,023.2,-1.0,*43
$IIGLL,4629.920,N,00640.362,E,173234,A,A*57
$IIHDG,144,,,,*56
$IIMTW,+20.5,C*3F
$IIMWV,334,R,05.5,N,A*17
$IIMWV,318,T,03.7,N,A*1B
$IIRMB,A,0.17,R,,OUC ,,,,,002.10,277,-01.6,V,A*23
$IIRMC,173234,A,4629.920,N,00640.362,E,02.3,142,020708,,,A*45
$IIVHW,,,144,M,02.0,N,,*67
$IIVWR,027,L,05.5,N,,,,*7A
$IIDPT,023.2,-1.0,*43
$IIGLL,4629.920,N,00640.362,E,173234,A,A*57
$IIHDG,144,,,,*56
$IIMTW,+20.5,C*3F
$IIMWV,333,R,05.5,N,A*10
$IIMWV,320,T,03.7,N,A*10
$IIRMC,173234,A,4629.920,N,00640.362,E,02.3,142,020708,,,A*45
$IIVHW,,,144,M,02.0,N,,*67
$IIVWR,027,L,05.5,N,,,,*7A
$IIDPT,023.2,-1.0,*43
$IIGLL,4629.919,N,00640.363,E,173236,A,A*5E
$IIHDG,144,,,,*56
$IIMTW,+20.5,C*3F
$IIMWV,333,R,05.5,N,A*10
$IIMWV,319,T,03.6,N,A*1B
$IIRMB,A,0.17,R,,OUC ,,,,,002.10,277,-01.6,V,A*23
$IIRMC,173236,A,4629.919,N,00640.363,E,02.3,143,020708,,,A*4D
$IIVHW,,,144,M,02.0,N,,*67
$IIVWR,028,L,05.3,N,,,,*73
$IIDPT,054.5,-1.0,*44
$IIGLL,4629.919,N,00640.363,E,173236,A,A*5E
$IIHDG,144,,,,*56
$IIMTW,+20.5,C*3F
$IIMWV,332,R,05.3,N,A*17
$IIMWV,317,T,03.5,N,A*16
$IIRMB,A,0.18,R,,OUC ,,,,,002.11,277,-01.7,V,A*2C
$IIRMC,173238,A,4629.918,N,00640.364,E,02.4,143,020708,,,A*42
$IIVHW,,,144,M,02.0,N,,*67
$IIVWR,028,L,05.4,N,,,,*74
$IIDPT,066.5,-1.0,*45
$IIGLL,4629.918,N,00640.364,E,173238,A,A*56
$IIHDG,144,,,,*56
$IIMTW,+20.5,C*3F
$IIMWV,333,R,05.4,N,A*11
$IIMWV,317,T,03.6,N,A*15
$IIRMC,173238,A,4629.918,N,00640.364,E,02.4,143,020708,,,A*42
$IIVHW,,,144,M,02.0,N,,*67
$IIVWR,027,L,05.4,N,,,,*7B
$IIDPT,073.1,-1.0,*45
$IIGLL,4629.917,N,00640.365,E,173240,A,A*57
$IIHDG,144,,,,*56
$IIMTW,+20.5,C*3F
$IIMWV,332,R,05.3,N,A*17
$IIMWV,319,T,03.6,N,A*1B
$IIRMB,A,0.18,R,,OUC ,,,,,002.11,278,-01.6,V,A*22
$IIRMC,173240,A,4629.917,N,00640.365,E,02.3,143,020708,,,A*44
$IIVHW,,,144,M,02.0,N,,*67
$IIVWR,028,L,05.3,N,,,,*73
$IIDPT,064.4,-1.0,*46
$IIGLL,4629.917,N,00640.365,E,173240,A,A*57
$IIHDG,143,,,,*51
$IIMTW,+20.5,C*3F
$IIMWV,332,R,05.3,N,A*17
$IIMWV,317,T,03.5,N,A*16
$IIRMC,173240,A,4629.917,N,00640.365,E,02.3,143,020708,,,A*44
$IIVHW,,,143,M,02.0,N,,*60
$IIVWR,028,L,05.4,N,,,,*74
$IIDPT,064.4,-1.0,*46
$IIGLL,4629.916,N,00640.366,E,173242,A,A*57
$IIHDG,143,,,,*51
$IIMTW,+20.5,C*3F
$IIMWV,332,R,05.4,N,A*10
$IIMWV,317,T,03.5,N,A*16
$IIRMB,A,0.18,R,,OUC ,,,,,002.11,278,-01.6,V,A*22
$IIRMC,173242,A,4629.916,N,00640.366,E,02.3,140,020708,,,A*47
$IIVHW,,,142,M,02.0,N,,*61
$IIVWR,028,L,05.2,N,,,,*72
$IIDPT,064.4,-1.0,*46
$IIGLL,4629.916,N,00640.366,E,173242,A,A*57
$IIHDG,142,,,,*50
$IIMTW,+20.5,C*3F
$IIMWV,332,R,05.2,N,A*16
$IIMWV,316,T,03.4,N,A*16
$IIRMB,A,0.18,R,,OUC ,,,,,002.11,278,-01.7,V,A*23
$IIRMC,173244,A,4629.915,N,00640.368,E,02.3,140,020708,,,A*4C
$IIVHW,,,142,M,02.0,N,,*61
$IIVWR,028,L,05.2,N,,,,*72
$IIDPT,064.4,-1.0,*46
$IIGLL,4629.915,N,00640.368,E,173244,A,A*5C
$IIHDG,141,,,,*53
$IIMTW,+21.0,C*3B
$IIMWV,332,R,05.2,N,A*16
$IIMWV,316,T,03.4,N,A*16
$IIRMC,173244,A,4629.915,N,00640.368,E,02.3,140,020708,,,A*4C
$IIVHW,,,141,M,02.0,N,,*62
$IIVWR,028,L,05.2,N,,,,*72
$IIDPT,064.4,-1.0,*46
$IIGLL,4629.914,N,00640.369,E,173246,A,A*5E
$IIHDG,140,,,,*52
$IIMTW,+21.0,C*3B
$IIMWV,333,R,05.2,N,A*17
$IIMWV,316,T,03.4,N,A*16
$IIRMB,A,0.18,R,,OUC ,,,,,002.11,278,-01.7,V,A*23
$IIRMC,173246,A,4629.914,N,00640.369,E,02.2,137,020708,,,A*4F
$IIVHW,,,140,M,02.0,N,,*63
$IIVWR,028,L,05.1,N,,,,*71
$IIDPT,039.8,-1.0,*42
$IIGLL,4629.914,N,00640.369,E,173246,A,A*5E
$IIHDG,140,,,,*52
$IIMTW,+21.0,C*3B
$IIMWV,332,R,05.1,N,A*15
$IIMWV,319,T,03.4,N,A*19
$IIRMC,173246,A,4629.914,N,00640.369,E,02.2,137,020708,,,A*4F
$IIVHW,,,138,M,02.0,N,,*6C
$IIVWR,027,L,05.2,N,,,,*7D
$IIDPT,039.8,-1.0,*42
$IIGLL,4629.913,N,00640.370,E,173248,A,A*5F
$IIHDG,138,,,,*5D
$IIMTW,+21.0,C*3B
$IIMWV,333,R,05.2,N,A*17
$IIMWV,316,T,03.3,N,A*11
$IIRMB,A,0.18,R,,OUC ,,,,,002.11,278,-01.7,V,A*23
$IIRMC,173248,A,4629.913,N,00640.370,E,02.3,137,020708,,,A*4F
$IIVHW,,,138,M,02.0,N,,*6C
$IIVWR,027,L,05.7,N,,,,*78
$IIDPT,039.8,-1.0,*42
$IIGLL,4629.913,N,00640.370,E,173248,A,A*5F
$IIHDG,138,,,,*5D
$IIMTW,+21.0,C*3B
$IIMWV,333,R,05.7,N,A*12
$IIMWV,320,T,03.9,N,A*1E
$IIRMB,A,0.18,R,,OUC ,,,,,002.11,278,-01.8,V,A*2C
$IIRMC,173250,A,4629.912,N,00640.371,E,02.3,136,020708,,,A*47
$IIVHW,,,138,M,02.0,N,,*6C
$IIVWR,026,L,05.5,N,,,,*7B
$IIDPT,032.4,-1.0,*45
$IIGLL,4629.912,N,00640.371,E,173250,A,A*56
$IIHDG,138,,,,*5D
$IIMTW,+21.0,C*3B
$IIMWV,333,R,05.5,N,A*10
$IIMWV,320,T,03.7,N,A*10
$IIRMC,173250,A,4629.912,N,00640.371,E,02.3,136,020708,,,A*47
$IIVHW,,,138,M,02.0,N,,*6C
$IIVWR,027,L,05.5,N,,,,*7A
$IIDPT,032.4,-1.0,*45
$IIGLL,4629.911,N,00640.372,E,173252,A,A*54
$IIHDG,137,,,,*52
$IIMTW,+21.0,C*3B
$IIMWV,334,R,05.3,N,A*11
$IIMWV,319,T,03.6,N,A*1B
$IIRMB,A,0.18,R,,OUC ,,,,,002.11,278,-01.8,V,A*2C
$IIRMC,173252,A,4629.911,N,00640.372,E,02.3,136,020708,,,A*45
$IIVHW,,,137,M,02.0,N,,*63
$IIVWR,026,L,05.3,N,,,,*7D
$IIDPT,032.4,-1.0,*45
$IIGLL,4629.911,N,00640.372,E,173252,A,A*54
$IIHDG,137,,,,*52
$IIMTW,+21.0,C*3B
$IIMWV,334,R,05.3,N,A*11
$IIMWV,320,T,03.5,N,A*12
$IIRMC,173252,A,4629.911,N,00640.372,E,02.3,136,020708,,,A*45
$IIVHW,,,136,M,02.0,N,,*62
$IIVWR,027,L,05.2,N,,,,*7D
$IIDPT,056.5,-1.0,*46
$IIGLL,4629.910,N,00640.374,E,173254,A,A*55
$IIHDG,136,,,,*53
$IIMTW,+21.0,C*3B
$IIMWV,333,R,05.2,N,A*17
$IIMWV,320,T,03.5,N,A*12
$IIRMB,A,0.18,R,,OUC ,,,,,002.11,278,-01.8,V,A*2C
$IIRMC,173254,A,4629.910,N,00640.374,E,02.4,137,020708,,,A*42
$IIVHW,,,136,M,02.0,N,,*62
$IIVWR,026,L,05.7,N,,,,*79
$IIDPT,056.5,-1.0,*46
$IIGLL,4629.910,N,00640.374,E,173254,A,A*55
$IIHDG,136,,,,*53
$IIMTW,+21.0,C*3B
$IIMWV,334,R,05.7,N,A*15
$IIMWV,321,T,03.9,N,A*1F
$IIRMB,A,0.18,R,,OUC ,,,,,002.11,278,-01.8,V,A*2C
$IIRMC,173256,A,4629.910,N,00640.375,E,02.3,135,020708,,,A*44
$IIVHW,,,136,M,02.0,N,,*62
$IIVWR,027,L,05.5,N,,,,*7A
$IIDPT,056.5,-1.0,*46
$IIGLL,4629.910,N,00640.375,E,173256,A,A*56
$IIHDG,137,,,,*52
$IIMTW,+21.0,C*3B
$IIMWV,334,R,05.9,N,A*1B
$IIMWV,319,T,03.6,N,A*1B
$IIRMC,173256,A,4629.910,N,00640.375,E,02.3,135,020708,,,A*44
$IIVHW,,,137,M,02.0,N,,*63
$IIVWR,026,L,05.9,N,,,,*77
$IIDPT,056.5,-1.0,*46
$IIGLL,4629.909,N,00640.376,E,173258,A,A*53
$IIHDG,136,,,,*53
$IIMTW,+21.0,C*3B
$IIMWV,334,R,05.7,N,A*15
$IIMWV,323,T,04.1,N,A*12
$IIRMB,A,0.18,R,,OUC ,,,,,002.12,278,-01.8,V,A*2F
$IIRMC,173258,A,4629.909,N,00640.376,E,02.3,135,020708,,,A*41
$IIVHW,,,136,M,02.0,N,,*62
$IIVWR,027,L,05.6,N,,,,*79
$IIDPT,037.9,-1.0,*4D
$IIGLL,4629.909,N,00640.376,E,173258,A,A*53
$IIHDG,136,,,,*53
$IIMTW,+21.0,C*3B
$IIMWV,333,R,05.6,N,A*13
$IIMWV,321,T,03.9,N,A*1F
$IIRMC,173258,A,4629.909,N,00640.376,E,02.3,135,020708,,,A*41
$IIVHW,,,136,M,02.0,N,,*62
$IIVWR,026,L,05.5,N,,,,*7B
$IIDPT,032.7,-1.0,*46
$IIGLL,4629.908,N,00640.378,E,173300,A,A*50
$IIHDG,136,,,,*53
$IIMTW,+21.0,C*3B
$IIMWV,334,R,05.5,N,A*17
$IIMWV,319,T,03.8,N,A*15
$IIRMB,A,0.19,R,,OUC ,,,,,002.12,278,-01.8,V,A*2E
$IIRMC,173300,A,4629.908,N,00640.378,E,02.3,136,020708,,,A*41
$IIVHW,,,136,M,02.0,N,,*62
$IIVWR,027,L,05.5,N,,,,*7A
$IIDPT,037.7,-1.0,*43
$IIGLL,4629.908,N,00640.378,E,173300,A,A*50
$IIHDG,136,,,,*53
$IIMTW,+21.0,C*3B
$IIMWV,333,R,05.5,N,A*10
$IIMWV,319,T,03.6,N,A*1B
$IIRMB,A,0.19,R,,OUC ,,,,,002.12,278,-01.8,V,A*2E
$IIRMC,173302,A,4629.907,N,00640.379,E,02.3,136,020708,,,A*4D
$IIVHW,,,136,M,02.0,N,,*62
$IIVWR,026,L,05.3,N,,,,*7D
$IIDPT,037.7,-1.0,*43
$IIGLL,4629.907,N,00640.379,E,173302,A,A*5C
$IIHDG,136,,,,*53
$IIMTW,+21.0,C*3B
$IIMWV,333,R,05.3,N,A*16
$IIMWV,320,T,03.5,N,A*12
$IIRMC,173302,A,4629.907,N,00640.379,E,02.3,136,020708,,,A*4D
$IIVHW,,,136,M,02.0,N,,*62
$IIVWR,027,L,05.3,N,,,,*7C
$IIDPT,037.7,-1.0,*43
$IIGLL,4629.906,N,00640.380,E,173304,A,A*5D
$IIHDG,136,,,,*53
$IIMTW,+21.0,C*3B
$IIMWV,333,R,05.2,N,A*17
$IIMWV,320,T,03.5,N,A*12
$IIRMB,A,0.19,R,,OUC ,,,,,002.12,278,-01.8,V,A*2E
$IIRMC,173304,A,4629.906,N,00640.380,E,02.3,136,020708,,,A*4C
$IIVHW,,,136,M,02.0,N,,*62
$IIVWR,027,L,05.2,N,,,,*7D
$IIDPT,037.7,-1.0,*43
$IIGLL,4629.906,N,00640.380,E,173304,A,A*5D
$IIHDG,135,,,,*50
$IIMTW,+21.0,C*3B
$IIMWV,333,R,05.2,N,A*17
$IIMWV,319,T,03.4,N,A*19
$IIRMC,173304,A,4629.906,N,00640.380,E,02.3,136,020708,,,A*4C
$IIVHW,,,135,M,02.0,N,,*61
$IIVWR,028,L,05.1,N,,,,*71
$IIDPT,065.6,-1.0,*45
$IIGLL,4629.905,N,00640.381,E,173306,A,A*5D
$IIHDG,135,,,,*50
$IIMTW,+21.0,C*3B
$IIMWV,332,R,05.1,N,A*15
$IIMWV,319,T,03.4,N,A*19
$IIRMB,A,0.19,R,,OUC ,,,,,002.12,278,-01.8,V,A*2E
$IIRMC,173306,A,4629.905,N,00640.381,E,02.4,134,020708,,,A*49
$IIVHW,,,136,M,02.0,N,,*62
$IIVWR,027,L,05.0,N,,,,*7F
$IIDPT,065.6,-1.0,*45
$IIGLL,4629.905,N,00640.381,E,173306,A,A*5D
$IIHDG,136,,,,*53
$IIMTW,+21.0,C*3B
$IIMWV,333,R,05.0,N,A*15
$IIMWV,318,T,03.2,N,A*1E
$IIRMB,A,0.19,R,,OUC ,,,,,002.12,278,-01.8,V,A*2E
$IIRMC,173308,A,4629.904,N,00640.383,E,02.3,135,020708,,,A*42
$IIVHW,,,134,M,02.0,N,,*60
$IIVWR,028,L,04.9,N,,,,*78
$IIDPT,059.9,-1.0,*45
$IIGLL,4629.904,N,00640.383,E,173308,A,A*50
$IIHDG,136,,,,*53
$IIMTW,+21.0,C*3B
$IIMWV,333,R,05.0,N,A*15
$IIMWV,315,T,03.2,N,A*13
$IIRMC,173308,A,4629.904,N,00640.383,E,02.3,135,020708,,,A*42
$IIVHW,,,136,M,02.0,N,,*62
$IIVWR,027,L,05.0,N,,,,*7F
$IIDPT,059.9,-1.0,*45
$IIGLL,4629.903,N,00640.384,E,173310,A,A*59
$IIHDG,135,,,,*50
$IIMTW,+21.0,C*3B
$IIMWV,333,R,05.0,N,A*15
$IIMWV,318,T,03.2,N,A*1E
$IIRMB,A,0.19,R,,OUC ,,,,,002.12,278,-01.9,V,A*2F
$IIRMC,173310,A,4629.903,N,00640.384,E,02.3,135,020708,,,A*4B
$IIVHW,,,135,M,02.0,N,,*61
$IIVWR,027,L,05.0,N,,,,*7F
$IIDPT,051.2,-1.0,*46
$IIGLL,4629.903,N,00640.384,E,173310,A,A*59
$IIHDG,134,,,,*51
$IIMTW,+21.0,C*3B
$IIMWV,333,R,05.0,N,A*15
$IIMWV,318,T,03.2,N,A*1E
$IIRMC,173310,A,4629.903,N,00640.384,E,02.3,135,020708,,,A*4B
$IIVHW,,,134,M,02.0,N,,*60
$IIVWR,027,L,04.9,N,,,,*77
$IIDPT,044.2,-1.0,*42
$IIGLL,4629.902,N,00640.385,E,173312,A,A*5B
$IIHDG,134,,,,*51
$IIMTW,+21.0,C*3B
$IIMWV,333,R,04.9,N,A*1D
$IIMWV,318,T,03.2,N,A*1E
$IIRMB,A,0.19,R,,OUC ,,,,,002.12,278,-01.8,V,A*2E
$IIRMC,173312,A,4629.902,N,00640.385,E,02.2,134,020708,,,A*49
$IIVHW,,,135,M,02.0,N,,*61
$IIVWR,027,L,04.9,N,,,,*77
$IIDPT,044.2,-1.0,*42
$IIGLL,4629.902,N,00640.385,E,173312,A,A*5B
$IIHDG,135,,,,*50
$IIMTW,+21.0,C*3B
$IIMWV,333,R,04.9,N,A*1D
$IIMWV,316,T,03.1,N,A*13
$IIRMB,A,0.19,R,,OUC ,,,,,002.12,278,-01.9,V,A*2F
$IIRMC,173314,A,4629.901,N,00640.387,E,02.3,132,020708,,,A*49
$IIVHW,,,135,M,02.0,N,,*61
$IIVWR,027,L,04.8,N,,,,*76
$IIDPT,044.2,-1.0,*42
$IIGLL,4629.901,N,00640.387,E,173314,A,A*5C
$IIHDG,135,,,,*50
$IIMTW,+21.0,C*3B
$IIMWV,333,R,05.0,N,A*15
$IIMWV,316,T,03.0,N,A*12
$IIRMC,173314,A,4629.901,N,00640.387,E,02.3,132,020708,,,A*49
$IIVHW,,,135,M,02.0,N,,*61
$IIVWR,027,L,05.0,N,,,,*7F
$IIDPT,044.2,-1.0,*42
$IIGLL,4629.900,N,00640.388,E,173316,A,A*50
$IIHDG,134,,,,*51
$IIMTW,+21.0,C*3B
$IIMWV,332,R,04.9,N,A*1C
$IIMWV,318,T,03.2,N,A*1E
$IIRMB,A,0.19,R,,OUC ,,,,,002.12,278,-01.8,V,A*2E
$IIRMC,173316,A,4629.900,N,00640.388,E,02.3,136,020708,,,A*41
$IIVHW,,,134,M,02.0,N,,*60
$IIVWR,028,L,05.0,N,,,,*70
$IIDPT,043.6,-1.0,*41
$IIGLL,4629.900,N,00640.388,E,173316,A,A*50
$IIHDG,134,,,,*51
$IIMTW,+21.0,C*3B
$IIMWV,332,R,05.0,N,A*14
$IIMWV,315,T,03.2,N,A*13
$IIRMC,173316,A,4629.900,N,00640.388,E,02.3,136,020708,,,A*41
$IIVHW,,,134,M,02.0,N,,*60
$IIVWR,028,L,04.9,N,,,,*78
$IIDPT,046.8,-1.0,*4A
$IIGLL,4629.899,N,00640.389,E,173318,A,A*5E
$IIHDG,134,,,,*51
$IIMTW,+20.5,C*3F
$IIMWV,332,R,04.9,N,A*1C
$IIMWV,316,T,03.3,N,A*11
$IIRMB,A,0.19,R,,OUC ,,,,,002.13,278,-01.9,V,A*2E
$IIRMC,173318,A,4629.899,N,00640.389,E,02.4,135,020708,,,A*4B
$IIVHW,,,135,M,02.0,N,,*61
$IIVWR,028,L,04.8,N,,,,*79
$IIDPT,046.8,-1.0,*4A
$IIGLL,4629.899,N,00640.389,E,173318,A,A*5E
$IIHDG,135,,,,*50
$IIMTW,+20.5,C*3F
$IIMWV,332,R,04.8,N,A*1D
$IIMWV,315,T,03.1,N,A*10
$IIRMB,A,0.19,R,,OUC ,,,,,002.13,278,-01.8,V,A*2F
$IIRMC,173320,A,4629.898,N,00640.391,E,02.3,136,020708,,,A*4C
$IIVHW,,,135,M,02.0,N,,*61
$IIVWR,028,L,04.8,N,,,,*79
$IIDPT,046.8,-1.0,*4A
$IIGLL,4629.898,N,00640.391,E,173320,A,A*5D
$IIHDG,135,,,,*50
$IIMTW,+20.5,C*3F
$IIMWV,332,R,04.8,N,A*1D
$IIMWV,315,T,03.1,N,A*10
$IIRMC,173320,A,4629.898,N,00640.391,E,02.3,136,020708,,,A*4C
$IIVHW,,,135,M,02.0,N,,*61
$IIVWR,028,L,04.8,N,,,,*79
$IIDPT,046.8,-1.0,*4A
$IIGLL,4629.898,N,00640.392,E,173322,A,A*5C
$IIHDG,136,,,,*53
$IIMTW,+20.5,C*3F
$IIMWV,332,R,04.7,N,A*12
$IIMWV,315,T,03.1,N,A*10
$IIRMB,A,0.19,R,,OUC ,,,,,002.13,278,-01.8,V,A*2F
$IIRMC,173322,A,4629.898,N,00640.392,E,02.3,135,020708,,,A*4E
$IIVHW,,,136,M,02.0,N,,*62
$IIVWR,029,L,04.7,N,,,,*77
$IIDPT,061.9,-1.0,*4E
$IIGLL,4629.898,N,00640.392,E,173322,A,A*5C
$IIHDG,136,,,,*53
$IIMTW,+20.5,C*3F
$IIMWV,331,R,04.7,N,A*11
$IIMWV,314,T,03.0,N,A*10
$IIRMC,173322,A,4629.898,N,00640.392,E,02.3,135,020708,,,A*4E
$IIVHW,,,136,M,02.0,N,,*62
$IIVWR,028,L,04.7,N,,,,*76
$IIDPT,061.9,-1.0,*4E
$IIGLL,4629.897,N,00640.393,E,173324,A,A*54
$IIHDG,136,,,,*53
$IIMTW,+20.5,C*3F
$IIMWV,332,R,04.7,N,A*12
$IIMWV,312,T,02.9,N,A*1E
$IIRMB,A,0.20,R,,OUC ,,,,,002.13,278,-01.9,V,A*24
$IIRMC,173324,A,4629.897,N,00640.393,E,02.2,135,020708,,,A*47
$IIVHW,,,135,M,02.0,N,,*61
$IIVWR,030,L,04.7,N,,,,*7F
$IIDPT,061.9,-1.0,*4E
$IIGLL,4629.897,N,00640.393,E,173324,A,A*54
$IIHDG,135,,,,*50
$IIMTW,+20.5,C*3F
$IIMWV,330,R,04.7,N,A*10
$IIMWV,311,T,03.0,N,A*15
$IIRMB,A,0.20,R,,OUC ,,,,,002.13,278,-01.8,V,A*25
$IIRMC,173326,A,4629.896,N,00640.395,E,02.4,134,020708,,,A*45
$IIVHW,,,135,M,02.0,N,,*61
$IIVWR,029,L,04.6,N,,,,*76
$IIDPT,061.9,-1.0,*4E
$IIGLL,4629.896,N,00640.395,E,173326,A,A*51
$IIHDG,134,,,,*51
$IIMTW,+20.5,C*3F
$IIMWV,331,R,04.6,N,A*10
$IIMWV,312,T,02.9,N,A*1E
$IIRMC,173326,A,4629.896,N,00640.395,E,02.4,134,020708,,,A*45
$IIVHW,,,134,M,02.0,N,,*60
$IIVWR,029,L,04.6,N,,,,*76
$IIDPT,056.5,-1.0,*46
$IIGLL,4629.895,N,00640.396,E,173328,A,A*5F
$IIHDG,135,,,,*50
$IIMTW,+20.5,C*3F
$IIMWV,331,R,04.6,N,A*10
$IIMWV,312,T,02.9,N,A*1E
$IIRMB,A,0.20,R,,OUC ,,,,,002.13,278,-01.8,V,A*25
$IIRMC,173328,A,4629.895,N,00640.396,E,02.3,133,020708,,,A*4B
$IIVHW,,,135,M,02.0,N,,*61
$IIVWR,030,L,04.6,N,,,,*7E
$IIDPT,056.5,-1.0,*46
$IIGLL,4629.895,N,00640.396,E,173328,A,A*5F
$IIHDG,134,,,,*51
$IIMTW,+20.5,C*3F
$IIMWV,330,R,04.6,N,A*11
$IIMWV,312,T,02.9,N,A*1E
$IIRMC,173328,A,4629.895,N,00640.396,E,02.3,133,020708,,,A*4B
$IIVHW,,,134,M,02.0,N,,*60
$IIVWR,030,L,04.6,N,,,,*7E
$IIDPT,056.5,-1.0,*46
$IIGLL,4629.894,N,00640.397,E,173330,A,A*56
$IIHDG,134,,,,*51
$IIMTW,+20.5,C*3F
$IIMWV,330,R,04.6,N,A*11
$IIMWV,311,T,03.0,N,A*15
$IIRMB,A,0.20,R,,OUC ,,,,,002.13,278,-01.8,V,A*25
$IIRMC,173330,A,4629.894,N,00640.397,E,02.3,133,020708,,,A*42
$IIVHW,,,134,M,02.0,N,,*60
$IIVWR,030,L,04.6,N,,,,*7E
$IIDPT,056.5,-1.0,*46
$IIGLL,4629.894,N,00640.397,E,173330,A,A*56
$IIHDG,134,,,,*51
$IIMTW,+20.5,C*3F
$IIMWV,330,R,04.6,N,A*11
$IIMWV,311,T,03.0,N,A*15
$IIRMB,A,0.20,R,,OUC ,,,,,002.13,278,-01.9,V,A*24
$IIRMC,173332,A,4629.893,N,00640.399,E,02.3,133,020708,,,A*49
$IIVHW,,,134,M,02.0,N,,*60
$IIVWR,029,L,04.6,N,,,,*76
$IIDPT,056.5,-1.0,*46
$IIGLL,4629.893,N,00640.399,E,173332,A,A*5D
$IIHDG,134,,,,*51
$IIMTW,+20.5,C*3F
$IIMWV,328,R,04.6,N,A*18
$IIMWV,312,T,02.9,N,A*1E
$IIRMC,173332,A,4629.893,N,00640.399,E,02.3,133,020708,,,A*49
$IIVHW,,,134,M,02.0,N,,*60
$IIVWR,032,L,04.6,N,,,,*7C
$IIDPT,066.2,-1.0,*42
$IIGLL,4629.892,N,00640.400,E,173334,A,A*5D
$IIHDG,133,,,,*56
$IIMTW,+20.5,C*3F
$IIMWV,330,R,04.6,N,A*11
$IIMWV,308,T,03.0,N,A*1D
$IIRMB,A,0.20,R,,OUC ,,,,,002.13,278,-01.9,V,A*24
$IIRMC,173334,A,4629.892,N,00640.400,E,02.3,134,020708,,,A*4E
$IIVHW,,,133,M,02.0,N,,*67
$IIVWR,032,L,04.6,N,,,,*7C
$IIDPT,066.2,-1.0,*42
$IIGLL,4629.892,N,00640.400,E,173334,A,A*5D
$IIHDG,133,,,,*56
$IIMTW,+20.5,C*3F
$IIMWV,328,R,04.6,N,A*18
$IIMWV,311,T,03.0,N,A*15
$IIRMC,173334,A,4629.892,N,00640.400,E,02.3,134,020708,,,A*4E
$IIVHW,,,133,M,02.0,N,,*67
$IIVWR,030,L,04.6,N,,,,*7E
$IIDPT,075.1,-1.0,*43
$IIGLL,4629.891,N,00640.401,E,173336,A,A*5D
$IIHDG,133,,,,*56
$IIMTW,+20.5,C*3F
$IIMWV,330,R,04.6,N,A*11
$IIMWV,308,T,03.0,N,A*1D
$IIRMB,A,0.20,R,,OUC ,,,,,002.14,278,-01.9,V,A*23
$IIRMC,173336,A,4629.891,N,00640.401,E,02.3,132,020708,,,A*48
$IIVHW,,,132,M,02.0,N,,*66
$IIVWR,032,L,04.8,N,,,,*72
$IIDPT,075.1,-1.0,*43
$IIGLL,4629.891,N,00640.401,E,173336,A,A*5D
$IIHDG,132,,,,*57
$IIMTW,+20.5,C*3F
$IIMWV,328,R,04.8,N,A*16
$IIMWV,309,T,03.2,N,A*1E
$IIRMB,A,0.20,R,,OUC ,,,,,002.14,278,-01.9,V,A*23
$IIRMC,173338,A,4629.890,N,00640.403,E,02.4,133,020708,,,A*43
$IIVHW,,,132,M,02.0,N,,*66
$IIVWR,030,L,04.8,N,,,,*70
$IIDPT,038.7,-1.0,*4C
$IIGLL,4629.890,N,00640.403,E,173338,A,A*50
$IIHDG,132,,,,*57
$IIMTW,+21.0,C*3B
$IIMWV,329,R,04.8,N,A*17
$IIMWV,311,T,03.1,N,A*14
$IIRMC,173338,A,4629.890,N,00640.403,E,02.4,133,020708,,,A*43
$IIVHW,,,132,M,02.0,N,,*66
$IIVWR,031,L,04.8,N,,,,*71
$IIDPT,038.7,-1.0,*4C
$IIGLL,4629.890,N,00640.404,E,173340,A,A*58
$IIHDG,132,,,,*57
$IIMTW,+21.0,C*3B
$IIMWV,330,R,04.7,N,A*10
$IIMWV,311,T,03.1,N,A*14
$IIRMB,A,0.20,R,,OUC ,,,,,002.14,278,-01.8,V,A*22
$IIRMC,173340,A,4629.890,N,00640.404,E,02.3,131,020708,,,A*4E
$IIVHW,,,132,M,02.0,N,,*66
$IIVWR,030,L,04.7,N,,,,*7F
$IIDPT,011.7,-1.0,*47
$IIGLL,4629.890,N,00640.404,E,173340,A,A*58
$IIHDG,132,,,,*57
$IIMTW,+21.0,C*3B
$IIMWV,330,R,04.7,N,A*10
$IIMWV,311,T,03.0,N,A*15
$IIRMC,173340,A,4629.890,N,00640.404,E,02.3,131,020708,,,A*4E
$IIVHW,,,132,M,02.0,N,,*66
$IIVWR,030,L,04.7,N,,,,*7F
$IIDPT,011.4,-1.0,*44
$IIGLL,4629.889,N,00640.405,E,173342,A,A*53
$IIHDG,132,,,,*57
$IIMTW,+21.0,C*3B
$IIMWV,330,R,04.7,N,A*10
$IIMWV,311,T,03.0,N,A*15
$IIRMB,A,0.20,R,,OUC ,,,,,002.14,278,-01.9,V,A*23
$IIRMC,173342,A,4629.889,N,00640.405,E,02.4,135,020708,,,A*46
$IIVHW,,,133,M,02.0,N,,*67
$IIVWR,030,L,04.7,N,,,,*7F
$IIDPT,011.1,-1.0,*41
$IIGLL,4629.889,N,00640.405,E,173342,A,A*53
$IIHDG,133,,,,*56
$IIMTW,+21.0,C*3B
$IIMWV,330,R,04.7,N,A*10
$IIMWV,311,T,03.0,N,A*15
$IIRMB,A,0.20,R,,OUC ,,,,,002.14,278,-01.9,V,A*23
$IIRMC,173344,A,4629.888,N,00640.407,E,02.2,137,020708,,,A*47
$IIVHW,,,133,M,02.0,N,,*67
$IIVWR,030,L,04.6,N,,,,*7E
$IIDPT,011.5,-1.0,*45
$IIGLL,4629.888,N,00640.407,E,173344,A,A*56
$IIHDG,132,,,,*57
$IIMTW,+21.0,C*3B
$IIMWV,331,R,05.2,N,A*15
$IIMWV,311,T,03.0,N,A*15
$IIRMC,173344,A,4629.888,N,00640.407,E,02.2,137,020708,,,A*47
$IIVHW,,,132,M,02.0,N,,*66
$IIVWR,029,L,05.2,N,,,,*73
$IIDPT,011.5,-1.0,*45
$IIGLL,4629.887,N,00640.408,E,173346,A,A*54
$IIHDG,132,,,,*57
$IIMTW,+21.0,C*3B
$IIMWV,331,R,05.1,N,A*16
$IIMWV,316,T,03.4,N,A*16
$IIRMB,A,0.20,R,,OUC ,,,,,002.14,278,-01.7,V,A*2D
$IIRMC,173346,A,4629.887,N,00640.408,E,02.3,132,020708,,,A*41
$IIVHW,,,132,M,02.0,N,,*66
$IIVWR,029,L,05.0,N,,,,*71
$IIDPT,011.5,-1.0,*45
$IIGLL,4629.887,N,00640.408,E,173346,A,A*54
$IIHDG,132,,,,*57
$IIMTW,+21.0,C*3B
$IIMWV,331,R,05.0,N,A*17
$IIMWV,315,T,03.3,N,A*12
$IIRMC,173346,A,4629.887,N,00640.408,E,02.3,132,020708,,,A*41
$IIVHW,,,132,M,02.0,N,,*66
$IIVWR,029,L,04.9,N,,,,*79
$IIDPT,011.5,-1.0,*45
$IIGLL,4629.886,N,00640.409,E,173348,A,A*5A
$IIHDG,132,,,,*57
$IIMTW,+21.0,C*3B
$IIMWV,331,R,04.9,N,A*1F
$IIMWV,314,T,03.3,N,A*13
$IIRMB,A,0.21,R,,OUC ,,,,,002.14,278,-01.9,V,A*22
$IIRMC,173348,A,4629.886,N,00640.409,E,02.3,134,020708,,,A*49
$IIVHW,,,132,M,02.0,N,,*66
$IIVWR,028,L,05.2,N,,,,*72
$IIDPT,011.5,-1.0,*45
$IIGLL,4629.886,N,00640.409,E,173348,A,A*5A
$IIHDG,132,,,,*57
$IIMTW,+21.0,C*3B
$IIMWV,332,R,05.2,N,A*16
$IIMWV,316,T,03.4,N,A*16
$IIRMB,A,0.21,R,,OUC ,,,,,002.14,278,-01.9,V,A*22
$IIRMC,173350,A,4629.885,N,00640.411,E,02.3,132,020708,,,A*4C
$IIVHW,,,132,M,02.0,N,,*66
$IIVWR,029,L,05.5,N,,,,*74
$IIDPT,011.5,-1.0,*45
$IIGLL,4629.885,N,00640.411,E,173350,A,A*59
$IIHDG,132,,,,*57
$IIMTW,+21.0,C*3B
$IIMWV,331,R,06.1,N,A*15
$IIMWV,316,T,03.7,N,A*15
$IIRMC,173350,A,4629.885,N,00640.411,E,02.3,132,020708,,,A*4C
$IIVHW,,,132,M,02.0,N,,*66
$IIVWR,029,L,06.1,N,,,,*73
$IIDPT,011.5,-1.0,*45
$IIGLL,4629.884,N,00640.412,E,173352,A,A*59
$IIHDG,132,,,,*57
$IIMTW,+21.0,C*3B
$IIMWV,331,R,05.9,N,A*1E
$IIMWV,319,T,04.3,N,A*19
$IIRMB,A,0.21,R,,OUC ,,,,,002.14,278,-01.9,V,A*22
$IIRMC,173352,A,4629.884,N,00640.412,E,02.3,130,020708,,,A*4E
$IIVHW,,,132,M,02.0,N,,*66
$IIVWR,029,L,05.8,N,,,,*79
$IIDPT,011.5,-1.0,*45
$IIGLL,4629.884,N,00640.412,E,173352,A,A*59
$IIHDG,134,,,,*51
$IIMTW,+21.0,C*3B
$IIMWV,331,R,05.8,N,A*1F
$IIMWV,318,T,04.1,N,A*1A
$IIRMC,173352,A,4629.884,N,00640.412,E,02.3,130,020708,,,A*4E
$IIVHW,,,134,M,02.0,N,,*60
$IIVWR,030,L,05.5,N,,,,*7C
$IIDPT,011.5,-1.0,*45
$IIGLL,4629.884,N,00640.413,E,173354,A,A*5E
$IIHDG,134,,,,*51
$IIMTW,+21.0,C*3B
$IIMWV,330,R,05.5,N,A*13
$IIMWV,318,T,04.0,N,A*1B
$IIRMB,A,0.21,R,,OUC ,,,,,002.14,278,-01.8,V,A*23
$IIRMC,173354,A,4629.884,N,00640.413,E,02.3,135,020708,,,A*4C
$IIVHW,,,134,M,02.0,N,,*60
$IIVWR,029,L,05.3,N,,,,*72
$IIDPT,011.5,-1.0,*45
$IIGLL,4629.884,N,00640.413,E,173354,A,A*5E
$IIHDG,134,,,,*51
$IIMTW,+21.0,C*3B
$IIMWV,331,R,05.3,N,A*14
$IIMWV,316,T,03.6,N,A*14
$IIRMB,A,0.21,R,,OUC ,,,,,002.15,278,-01.9,V,A*23
$IIRMC,173356,A,4629.883,N,00640.415,E,02.3,134,020708,,,A*4E
$IIVHW,,,134,M,02.0,N,,*60
$IIVWR,029,L,04.9,N,,,,*79
$IIDPT,060.9,-1.0,*4F
$IIGLL,4629.883,N,00640.415,E,173356,A,A*5D
$IIHDG,134,,,,*51
$IIMTW,+21.0,C*3B
$IIMWV,329,R,04.8,N,A*17
$IIMWV,314,T,03.1,N,A*11
$IIRMC,173356,A,4629.883,N,00640.415,E,02.3,134,020708,,,A*4E
$IIVHW,,,134,M,02.0,N,,*60
$IIVWR,031,L,04.8,N,,,,*71
$IIDPT,060.9,-1.0,*4F
$IIGLL,4629.882,N,00640.416,E,173358,A,A*51
$IIHDG,135,,,,*50
$IIMTW,+21.0,C*3B
$IIMWV,328,R,04.7,N,A*19
$IIMWV,311,T,03.1,N,A*14
$IIRMB,A,0.21,R,,OUC ,,,,,002.15,278,-01.8,V,A*22
$IIRMC,173358,A,4629.882,N,00640.416,E,02.3,135,020708,,,A*43
$IIVHW,,,135,M,02.0,N,,*61
$IIVWR,033,L,04.6,N,,,,*7D
$IIDPT,062.5,-1.0,*41
$IIGLL,4629.882,N,00640.416,E,173358,A,A*51
$IIHDG,135,,,,*50
$IIMTW,+21.0,C*3B
$IIMWV,327,R,04.6,N,A*17
$IIMWV,308,T,03.0,N,A*1D
$IIRMC,173358,A,4629.882,N,00640.416,E,02.3,135,020708,,,A*43
$IIVHW,,,136,M,02.0,N,,*62
$IIVWR,032,L,04.8,N,,,,*72
$IIDPT,059.8,-1.0,*44
$IIGLL,4629.881,N,00640.417,E,173400,A,A*59
$IIHDG,136,,,,*53
$IIMTW,+21.0,C*3B
$IIMWV,328,R,04.8,N,A*16
$IIMWV,307,T,03.0,N,A*12
$IIRMB,A,0.21,R,,OUC ,,,,,002.15,278,-01.8,V,A*22
$IIRMC,173400,A,4629.881,N,00640.417,E,02.3,136,020708,,,A*48
$IIVHW,,,136,M,02.0,N,,*62
$IIVWR,032,L,04.8,N,,,,*72
$IIDPT,059.8,-1.0,*44
$IIGLL,4629.881,N,00640.417,E,173400,A,A*59
$IIHDG,136,,,,*53
$IIMTW,+21.0,C*3B
$IIMWV,328,R,04.8,N,A*16
$IIMWV,309,T,03.2,N,A*1E
$IIRMB,A,0.21,R,,OUC ,,,,,002.15,278,-01.8,V,A*22
$IIRMC,173402,A,4629.880,N,00640.419,E,02.4,135,020708,,,A*41
$IIVHW,,,136,M,02.0,N,,*62
$IIVWR,031,L,04.5,N,,,,*7C
$IIDPT,026.4,-1.0,*40
$IIGLL,4629.880,N,00640.419,E,173402,A,A*54
$IIHDG,135,,,,*50
$IIMTW,+21.0,C*3B
$IIMWV,328,R,04.5,N,A*1B
$IIMWV,308,T,02.9,N,A*15
$IIRMC,173402,A,4629.880,N,00640.419,E,02.4,135,020708,,,A*41
$IIVHW,,,135,M,02.0,N,,*61
$IIVWR,032,L,04.5,N,,,,*7F
$IIDPT,026.4,-1.0,*40
$IIGLL,4629.879,N,00640.420,E,173404,A,A*5E
$IIHDG,135,,,,*50
$IIMTW,+21.0,C*3B
$IIMWV,329,R,04.5,N,A*1A
$IIMWV,308,T,02.9,N,A*15
$IIRMB,A,0.21,R,,OUC ,,,,,002.15,278,-01.8,V,A*22
$IIRMC,173404,A,4629.879,N,00640.420,E,02.3,137,020708,,,A*4E
$IIVHW,,,135,M,02.0,N,,*61
$IIVWR,032,L,04.4,N,,,,*7E
$IIDPT,021.6,-1.0,*45
$IIGLL,4629.879,N,00640.420,E,173404,A,A*5E
$IIHDG,136,,,,*53
$IIMTW,+21.0,C*3B
$IIMWV,328,R,04.4,N,A*1A
$IIMWV,308,T,02.9,N,A*15
$IIRMC,173404,A,4629.879,N,00640.420,E,02.3,137,020708,,,A*4E
$IIVHW,,,136,M,02.0,N,,*62
$IIVWR,032,L,04.2,N,,,,*78
$IIDPT,021.4,-1.0,*47
$IIGLL,4629.878,N,00640.421,E,173406,A,A*5C
$IIHDG,136,,,,*53
$IIMTW,+21.0,C*3B
$IIMWV,328,R,04.2,N,A*1C
$IIMWV,307,T,02.8,N,A*1B
$IIRMB,A,0.21,R,,OUC ,,,,,002.15,278,-01.8,V,A*22
$IIRMC,173406,A,4629.878,N,00640.421,E,02.4,138,020708,,,A*44
$IIVHW,,,136,M,02.0,N,,*62
$IIVWR,032,L,04.1,N,,,,*7B
$IIDPT,021.4,-1.0,*47
$IIGLL,4629.878,N,00640.421,E,173406,A,A*5C
$IIHDG,136,,,,*53
$IIMTW,+21.0,C*3B
$IIMWV,328,R,04.1,N,A*1F
$IIMWV,304,T,02.5,N,A*15
$IIRMB,A,0.21,R,,OUC ,,,,,002.15,278,-01.9,V,A*23
$IIRMC,173408,A,4629.877,N,00640.422,E,02.3,137,020708,,,A*4E
$IIVHW,,,136,M,02.0,N,,*62
$IIVWR,032,L,04.1,N,,,,*7B
$IIDPT,021.4,-1.0,*47
$IIGLL,4629.877,N,00640.422,E,173408,A,A*5E
$IIHDG,136,,,,*53
$IIMTW,+21.0,C*3B
$IIMWV,328,R,04.2,N,A*1C
$IIMWV,304,T,02.5,N,A*15
$IIRMC,173408,A,4629.877,N,00640.422,E,02.3,137,020708,,,A*4E
$IIVHW,,,136,M,02.0,N,,*62
$IIVWR,032,L,04.2,N,,,,*78
$IIDPT,021.4,-1.0,*47
$IIGLL,4629.876,N,00640.424,E,173410,A,A*50
$IIHDG,137,,,,*52
$IIMTW,+21.0,C*3B
$IIMWV,329,R,04.3,N,A*1C
$IIMWV,304,T,02.6,N,A*16
$IIRMB,A,0.22,R,,OUC ,,,,,002.15,278,-01.8,V,A*21
$IIRMC,173410,A,4629.876,N,00640.424,E,02.3,135,020708,,,A*42
$IIVHW,,,137,M,02.0,N,,*63
$IIVWR,031,L,04.3,N,,,,*7A
$IIDPT,021.4,-1.0,*47
$IIGLL,4629.876,N,00640.424,E,173410,A,A*50
$IIHDG,137,,,,*52
$IIMTW,+21.0,C*3B
$IIMWV,329,R,04.3,N,A*1C
$IIMWV,306,T,02.7,N,A*15
$IIRMC,173410,A,4629.876,N,00640.424,E,02.3,135,020708,,,A*42
$IIVHW,,,137,M,02.0,N,,*63
$IIVWR,030,L,04.4,N,,,,*7C
$IIDPT,021.4,-1.0,*47
$IIGLL,4629.875,N,00640.425,E,173412,A,A*50
$IIHDG,137,,,,*52
$IIMTW,+21.0,C*3B
$IIMWV,330,R,04.4,N,A*13
$IIMWV,306,T,02.7,N,A*15
$IIRMB,A,0.22,R,,OUC ,,,,,002.15,278,-01.8,V,A*21
$IIRMC,173412,A,4629.875,N,00640.425,E,02.3,136,020708,,,A*41
$IIVHW,,,136,M,02.0,N,,*62
$IIVWR,030,L,04.4,N,,,,*7C
$IIDPT,021.4,-1.0,*47
$IIGLL,4629.875,N,00640.425,E,173412,A,A*50
$IIHDG,136,,,,*53
$IIMTW,+21.0,C*3B
$IIMWV,330,R,04.4,N,A*13
$IIMWV,309,T,02.8,N,A*15
$IIRMB,A,0.22,R,,OUC ,,,,,002.15,278,-01.8,V,A*21
$IIRMC,173414,A,4629.874,N,00640.426,E,02.4,136,020708,,,A*42
$IIVHW,,,137,M,02.0,N,,*63
$IIVWR,031,L,04.2,N,,,,*7B
$IIDPT,021.4,-1.0,*47
$IIGLL,4629.874,N,00640.426,E,173414,A,A*54
$IIHDG,138,,,,*5D
$IIMTW,+21.0,C*3B
$IIMWV,331,R,04.2,N,A*14
$IIMWV,307,T,02.6,N,A*15
$IIRMC,173414,A,4629.874,N,00640.426,E,02.4,136,020708,,,A*42
$IIVHW,,,138,M,02.0,N,,*6C
$IIVWR,029,L,04.2,N,,,,*72
$IIDPT,048.2,-1.0,*4E
$IIGLL,4629.873,N,00640.428,E,173416,A,A*5F
$IIHDG,137,,,,*52
$IIMTW,+21.0,C*3B
$IIMWV,331,R,04.3,N,A*15
$IIMWV,309,T,02.5,N,A*18
$IIRMB,A,0.22,R,,OUC ,,,,,002.16,279,-01.8,V,A*23
$IIRMC,173416,A,4629.873,N,00640.428,E,02.3,137,020708,,,A*4F
$IIVHW,,,137,M,02.0,N,,*63
$IIVWR,029,L,04.4,N,,,,*74
$IIDPT,048.2,-1.0,*4E
$IIGLL,4629.873,N,00640.428,E,173416,A,A*5F
$IIHDG,138,,,,*5D
$IIMTW,+21.0,C*3B
$IIMWV,331,R,04.4,N,A*12
$IIMWV,310,T,02.6,N,A*13
$IIRMC,173416,A,4629.873,N,00640.428,E,02.3,137,020708,,,A*4F
$IIVHW,,,138,M,02.0,N,,*6C
$IIVWR,029,L,04.4,N,,,,*74
$IIDPT,051.9,-1.0,*4D
$IIGLL,4629.872,N,00640.429,E,173418,A,A*51
$IIHDG,138,,,,*5D
$IIMTW,+21.0,C*3B
$IIMWV,331,R,04.4,N,A*12
$IIMWV,311,T,02.7,N,A*13
$IIRMB,A,0.22,R,,OUC ,,,,,002.16,279,-01.8,V,A*23
$IIRMC,173418,A,4629.872,N,00640.429,E,02.3,138,020708,,,A*4E
$IIVHW,,,138,M,02.0,N,,*6C
$IIVWR,029,L,04.5,N,,,,*75
$IIDPT,051.9,-1.0,*4D
$IIGLL,4629.872,N,00640.429,E,173418,A,A*51
$IIHDG,138,,,,*5D
$IIMTW,+21.0,C*3B
$IIMWV,331,R,04.5,N,A*13
$IIMWV,312,T,02.8,N,A*1F
$IIRMB,A,0.22,R,,OUC ,,,,,002.16,279,-01.8,V,A*23
$IIRMC,173420,A,4629.871,N,00640.430,E,02.3,137,020708,,,A*41
$IIVHW,,,137,M,02.0,N,,*63
$IIVWR,029,L,04.5,N,,,,*75
$IIDPT,051.9,-1.0,*4D
$IIGLL,4629.871,N,00640.430,E,173420,A,A*51
$IIHDG,137,,,,*52
$IIMTW,+21.0,C*3B
$IIMWV,330,R,04.5,N,A*12
$IIMWV,312,T,02.8,N,A*1F
$IIRMC,173420,A,4629.871,N,00640.430,E,02.3,137,020708,,,A*41
$IIVHW,,,137,M,02.0,N,,*63
$IIVWR,030,L,04.5,N,,,,*7D
$IIDPT,051.9,-1.0,*4D
$IIGLL,4629.871,N,00640.430,E,173420,A,A*51
$IIHDG,137,,,,*52
$IIMTW,+21.0,C*3B
$IIMWV,330,R,04.5,N,A*12
$IIMWV,311,T,02.9,N,A*1D
$IIRMB,A,0.22,R,,OUC ,,,,,002.16,279,-01.8,V,A*23
$IIRMC,173420,A,4629.871,N,00640.430,E,02.3,137,020708,,,A*41
$IIVHW,,,137,M,02.0,N,,*63
$IIVWR,031,L,04.6,N,,,,*7F
$IIDPT,034.1,-1.0,*46
$IIGLL,4629.870,N,00640.431,E,173422,A,A*53
$IIHDG,137,,,,*52
$IIMTW,+21.0,C*3B
$IIMWV,329,R,04.6,N,A*19
$IIMWV,311,T,02.9,N,A*1D
$IIRMC,173422,A,4629.870,N,00640.431,E,02.3,137,020708,,,A*43
$IIVHW,,,137,M,02.0,N,,*63
$IIVWR,032,L,04.6,N,,,,*7C
$IIDPT,034.1,-1.0,*46
$IIGLL,4629.869,N,00640.433,E,173424,A,A*5F
$IIHDG,137,,,,*52
$IIMTW,+21.0,C*3B
$IIMWV,328,R,04.6,N,A*18
$IIMWV,310,T,02.9,N,A*1C
$IIRMB,A,0.22,R,,OUC ,,,,,002.16,279,-01.8,V,A*23
$IIRMC,173424,A,4629.869,N,00640.433,E,02.4,136,020708,,,A*49
$IIVHW,,,137,M,02.0,N,,*63
$IIVWR,031,L,04.6,N,,,,*7F
$IIDPT,034.1,-1.0,*46
$IIGLL,4629.869,N,00640.433,E,173424,A,A*5F
$IIHDG,137,,,,*52
$IIMTW,+21.0,C*3B
$IIMWV,329,R,04.6,N,A*19
$IIMWV,310,T,02.9,N,A*1C
$IIRMB,A,0.22,R,,OUC ,,,,,002.16,279,-01.8,V,A*23
$IIRMC,173426,A,4629.868,N,00640.434,E,02.3,137,020708,,,A*4B
$IIVHW,,,138,M,02.0,N,,*6C
$IIVWR,031,L,05.1,N,,,,*79
$IIDPT,037.0,-1.0,*44
$IIGLL,4629.868,N,00640.434,E,173426,A,A*5B
$IIHDG,138,,,,*5D
$IIMTW,+21.0,C*3B
$IIMWV,328,R,05.4,N,A*1B
$IIMWV,311,T,03.4,N,A*11
$IIRMC,173426,A,4629.868,N,00640.434,E,02.3,137,020708,,,A*4B
$IIVHW,,,138,M,02.0,N,,*6C
$IIVWR,032,L,05.4,N,,,,*7F
$IIDPT,038.2,-1.0,*49
$IIGLL,4629.867,N,00640.435,E,173428,A,A*5B
$IIHDG,138,,,,*5D
$IIMTW,+21.0,C*3B
$IIMWV,328,R,05.1,N,A*1E
$IIMWV,310,T,03.5,N,A*11
$IIRMB,A,0.22,R,,OUC ,,,,,002.16,279,-01.8,V,A*23
$IIRMC,173428,A,4629.867,N,00640.435,E,02.3,135,020708,,,A*49
$IIVHW,,,138,M,02.0,N,,*6C
$IIVWR,032,L,04.9,N,,,,*73
$IIDPT,043.8,-1.0,*4F
$IIGLL,4629.866,N,00640.436,E,173430,A,A*50
$IIHDG,138,,,,*5D
$IIMTW,+21.0,C*3B
$IIMWV,328,R,04.9,N,A*17
$IIMWV,309,T,03.4,N,A*18
$IIRMB,A,0.22,R,,OUC ,,,,,002.16,279,-01.8,V,A*23
$IIRMC,173430,A,4629.866,N,00640.436,E,02.3,138,020708,,,A*4F
$IIVHW,,,138,M,02.0,N,,*6C
$IIVWR,032,L,04.9,N,,,,*73
$IIDPT,043.8,-1.0,*4F
$IIGLL,4629.866,N,00640.436,E,173430,A,A*50
$IIHDG,138,,,,*5D
$IIMTW,+21.0,C*3B
$IIMWV,328,R,04.9,N,A*17
$IIMWV,309,T,03.2,N,A*1E
$IIRMB,A,0.23,R,,OUC ,,,,,002.16,279,-01.8,V,A*22
$IIRMC,173432,A,4629.865,N,00640.438,E,02.4,141,020708,,,A*49
$IIVHW,,,140,M,02.0,N,,*63
$IIVWR,032,L,04.5,N,,,,*7F
$IIDPT,043.8,-1.0,*4F
$IIGLL,4629.865,N,00640.438,E,173432,A,A*5F
$IIHDG,140,,,,*52
$IIMTW,+21.0,C*3B
$IIMWV,328,R,04.5,N,A*1B
$IIMWV,307,T,02.8,N,A*1B
$IIRMC,173432,A,4629.865,N,00640.438,E,02.4,141,020708,,,A*49
$IIVHW,,,140,M,02.0,N,,*63
$IIVWR,032,L,04.5,N,,,,*7F
$IIDPT,043.8,-1.0,*4F
$IIGLL,4629.864,N,00640.439,E,173434,A,A*59
$IIHDG,140,,,,*52
$IIMTW,+21.0,C*3B
$IIMWV,327,R,04.5,N,A*14
$IIMWV,307,T,02.8,N,A*1B
$IIRMB,A,0.23,R,,OUC ,,,,,002.16,279,-01.9,V,A*23
$IIRMC,173434,A,4629.864,N,00640.439,E,02.4,142,020708,,,A*4C
$IIVHW,,,140,M,02.0,N,,*63
$IIVWR,033,L,04.5,N,,,,*7E
$IIDPT,043.8,-1.0,*4F
$IIGLL,4629.864,N,00640.439,E,173434,A,A*59
$IIHDG,140,,,,*52
$IIMTW,+21.0,C*3B
$IIMWV,327,R,04.5,N,A*14
$IIMWV,304,T,02.8,N,A*18
$IIRMC,173434,A,4629.864,N,00640.439,E,02.4,142,020708,,,A*4C
$IIVHW,,,141,M,02.0,N,,*62
$IIVWR,033,L,04.3,N,,,,*78
$IIDPT,043.8,-1.0,*4F
$IIGLL,4629.863,N,00640.440,E,173436,A,A*52
$IIHDG,141,,,,*53
$IIMTW,+20.5,C*3F
$IIMWV,327,R,04.3,N,A*12
$IIMWV,304,T,02.8,N,A*18
$IIRMB,A,0.23,R,,OUC ,,,,,002.17,279,-01.7,V,A*2C
$IIRMC,173436,A,4629.863,N,00640.440,E,02.4,138,020708,,,A*4A
$IIVHW,,,140,M,02.0,N,,*63
$IIVWR,032,L,04.8,N,,,,*72
$IIDPT,035.1,-1.0,*47
$IIGLL,4629.863,N,00640.440,E,173436,A,A*52
$IIHDG,140,,,,*52
$IIMTW,+20.5,C*3F
$IIMWV,328,R,04.8,N,A*16
$IIMWV,307,T,03.1,N,A*13
$IIRMB,A,0.23,R,,OUC ,,,,,002.17,279,-01.7,V,A*2C
$IIRMC,173438,A,4629.862,N,00640.441,E,02.3,141,020708,,,A*4D
$IIVHW,,,141,M,02.0,N,,*62
$IIVWR,033,L,04.8,N,,,,*73
$IIDPT,044.1,-1.0,*41
$IIGLL,4629.862,N,00640.441,E,173438,A,A*5C
$IIHDG,141,,,,*53
$IIMTW,+20.5,C*3F
$IIMWV,330,R,04.8,N,A*1F
$IIMWV,307,T,03.1,N,A*13
$IIRMC,173438,A,4629.862,N,00640.441,E,02.3,141,020708,,,A*4D
$IIVHW,,,141,M,02.0,N,,*62
$IIVWR,030,L,04.8,N,,,,*70
$IIDPT,044.1,-1.0,*41
$IIGLL,4629.861,N,00640.442,E,173440,A,A*53
$IIHDG,141,,,,*53
$IIMTW,+20.5,C*3F
$IIMWV,329,R,04.8,N,A*17
$IIMWV,310,T,03.1,N,A*15
$IIRMB,A,0.23,R,,OUC ,,,,,002.17,279,-01.8,V,A*23
$IIRMC,173440,A,4629.861,N,00640.442,E,02.4,139,020708,,,A*4A
$IIVHW,,,141,M,02.0,N,,*62
$IIVWR,032,L,04.7,N,,,,*7D
$IIDPT,038.8,-1.0,*43
$IIGLL,4629.861,N,00640.442,E,173440,A,A*53
$IIHDG,140,,,,*52
$IIMTW,+20.5,C*3F
$IIMWV,328,R,04.7,N,A*19
$IIMWV,310,T,03.1,N,A*15
$IIRMC,173440,A,4629.861,N,00640.442,E,02.4,139,020708,,,A*4A
$IIVHW,,,140,M,02.0,N,,*63
$IIVWR,031,L,04.7,N,,,,*7E
$IIDPT,041.9,-1.0,*4C
$IIGLL,4629.860,N,00640.444,E,173442,A,A*56
$IIHDG,140,,,,*52
$IIMTW,+20.5,C*3F
$IIMWV,329,R,04.7,N,A*18
$IIMWV,307,T,03.0,N,A*12
$IIRMB,A,0.23,R,,OUC ,,,,,002.17,279,-01.8,V,A*23
$IIRMC,173442,A,4629.860,N,00640.444,E,02.3,140,020708,,,A*46
$IIVHW,,,140,M,02.1,N,,*62
$IIVWR,032,L,04.7,N,,,,*7D
$IIDPT,048.1,-1.0,*4D
$IIGLL,4629.860,N,00640.444,E,173442,A,A*56
$IIHDG,140,,,,*52
$IIMTW,+20.5,C*3F
$IIMWV,328,R,04.7,N,A*19
$IIMWV,307,T,03.0,N,A*12
$IIRMB,A,0.23,R,,OUC ,,,,,002.17,279,-01.8,V,A*23
$IIRMC,173444,A,4629.859,N,00640.445,E,02.4,138,020708,,,A*43
$IIVHW,,,140,M,02.1,N,,*62
$IIVWR,031,L,04.7,N,,,,*7E
$IIDPT,053.6,-1.0,*40
$IIGLL,4629.859,N,00640.445,E,173444,A,A*5B
$IIHDG,140,,,,*52
$IIMTW,+21.0,C*3B
$IIMWV,328,R,04.6,N,A*18
$IIMWV,308,T,03.0,N,A*1D
$IIRMC,173444,A,4629.859,N,00640.445,E,02.4,138,020708,,,A*43
$IIVHW,,,140,M,02.1,N,,*62
$IIVWR,032,L,04.6,N,,,,*7C
$IIDPT,053.6,-1.0,*40
$IIGLL,4629.858,N,00640.446,E,173446,A,A*5B
$IIHDG,140,,,,*52
$IIMTW,+21.0,C*3B
$IIMWV,328,R,04.6,N,A*18
$IIMWV,307,T,03.0,N,A*12
$IIRMB,A,0.23,R,,OUC ,,,,,002.17,279,-01.7,V,A*2C
$IIRMC,173446,A,4629.858,N,00640.446,E,02.4,138,020708,,,A*43
$IIVHW,,,140,M,02.1,N,,*62
$IIVWR,030,L,04.3,N,,,,*7B
$IIDPT,063.0,-1.0,*45
$IIGLL,4629.858,N,00640.446,E,173446,A,A*5B
$IIHDG,140,,,,*52
$IIMTW,+21.0,C*3B
$IIMWV,330,R,04.3,N,A*14
$IIMWV,307,T,03.0,N,A*12
$IIRMC,173446,A,4629.858,N,00640.446,E,02.4,138,020708,,,A*43
$IIVHW,,,140,M,02.1,N,,*62
$IIVWR,030,L,04.4,N,,,,*7C
$IIDPT,060.8,-1.0,*4E
$IIGLL,4629.857,N,00640.447,E,173448,A,A*5B
$IIHDG,140,,,,*52
$IIMTW,+21.0,C*3B
$IIMWV,330,R,04.4,N,A*13
$IIMWV,307,T,02.6,N,A*15
$IIRMB,A,0.23,R,,OUC ,,,,,002.17,279,-01.8,V,A*23
$IIRMC,173448,A,4629.857,N,00640.447,E,02.4,139,020708,,,A*42
$IIVHW,,,141,M,02.1,N,,*63
$IIVWR,030,L,04.4,N,,,,*7C
$IIDPT,065.1,-1.0,*42
$IIGLL,4629.857,N,00640.447,E,173448,A,A*5B
$IIHDG,141,,,,*53
$IIMTW,+21.0,C*3B
$IIMWV,330,R,04.4,N,A*13
$IIMWV,308,T,02.7,N,A*1B
$IIRMB,A,0.23,R,,OUC ,,,,,002.17,279,-01.8,V,A*23
$IIRMC,173450,A,4629.856,N,00640.449,E,02.4,142,020708,,,A*48
$IIVHW,,,142,M,02.1,N,,*60
$IIVWR,030,L,04.5,N,,,,*7D
$IIDPT,055.6,-1.0,*46
$IIGLL,4629.856,N,00640.449,E,173450,A,A*5D
$IIHDG,142,,,,*50
$IIMTW,+21.0,C*3B
$IIMWV,329,R,04.7,N,A*18
$IIMWV,309,T,02.8,N,A*15
$IIRMC,173450,A,4629.856,N,00640.449,E,02.4,142,020708,,,A*48
$IIVHW,,,142,M,02.1,N,,*60
$IIVWR,031,L,04.7,N,,,,*7E
$IIDPT,055.6,-1.0,*46
$IIGLL,4629.855,N,00640.450,E,173452,A,A*54
$IIHDG,142,,,,*50
$IIMTW,+21.0,C*3B
$IIMWV,330,R,04.7,N,A*10
$IIMWV,308,T,03.0,N,A*1D
$IIRMB,A,0.24,R,,OUC ,,,,,002.17,279,-01.8,V,A*24
$IIRMC,173452,A,4629.855,N,00640.450,E,02.3,140,020708,,,A*44
$IIVHW,,,142,M,02.1,N,,*60
$IIVWR,030,L,04.7,N,,,,*7F
$IIDPT,055.6,-1.0,*46
$IIGLL,4629.855,N,00640.450,E,173452,A,A*54
$IIHDG,141,,,,*53
$IIMTW,+21.0,C*3B
$IIMWV,330,R,04.7,N,A*10
$IIMWV,310,T,02.9,N,A*1C
$IIRMC,173452,A,4629.855,N,00640.450,E,02.3,140,020708,,,A*44
$IIVHW,,,140,M,02.1,N,,*62
$IIVWR,030,L,04.7,N,,,,*7F
$IIDPT,055.5,-1.0,*45
$IIGLL,4629.854,N,00640.451,E,173454,A,A*52
$IIHDG,140,,,,*52
$IIMTW,+21.0,C*3B
$IIMWV,330,R,04.7,N,A*10
$IIMWV,310,T,02.9,N,A*1C
$IIRMB,A,0.24,R,,OUC ,,,,,002.17,279,-01.7,V,A*2B
$IIRMC,173454,A,4629.854,N,00640.451,E,02.4,140,020708,,,A*45
$IIVHW,,,140,M,02.1,N,,*62
$IIVWR,030,L,05.3,N,,,,*7A
$IIDPT,053.2,-1.0,*44
$IIGLL,4629.854,N,00640.451,E,173454,A,A*52
$IIHDG,140,,,,*52
$IIMTW,+21.0,C*3B
$IIMWV,330,R,05.3,N,A*15
$IIMWV,314,T,03.6,N,A*16
$IIRMB,A,0.24,R,,OUC ,,,,,002.18,279,-01.8,V,A*2B
$IIRMC,173456,A,4629.853,N,00640.452,E,02.3,140,020708,,,A*44
$IIVHW,,,140,M,02.1,N,,*62
$IIVWR,028,L,05.2,N,,,,*72
$IIDPT,053.2,-1.0,*44
$IIGLL,4629.853,N,00640.452,E,173456,A,A*54
$IIHDG,140,,,,*52
$IIMTW,+21.0,C*3B
$IIMWV,332,R,05.1,N,A*15
$IIMWV,315,T,03.3,N,A*12
$IIRMC,173456,A,4629.853,N,00640.452,E,02.3,140,020708,,,A*44
$IIVHW,,,140,M,02.0,N,,*63
$IIVWR,028,L,05.1,N,,,,*71
$IIDPT,060.2,-1.0,*44
$IIGLL,4629.852,N,00640.454,E,173458,A,A*5D
$IIHDG,139,,,,*5C
$IIMTW,+21.0,C*3B
$IIMWV,331,R,04.9,N,A*1F
$IIMWV,315,T,03.2,N,A*13
$IIRMB,A,0.24,R,,OUC ,,,,,002.18,279,-01.7,V,A*24
$IIRMC,173458,A,4629.852,N,00640.454,E,02.5,138,020708,,,A*44
$IIVHW,,,139,M,02.1,N,,*6C
$IIVWR,028,L,04.9,N,,,,*78
$IIDPT,061.2,-1.0,*45
$IIGLL,4629.852,N,00640.454,E,173458,A,A*5D
$IIHDG,139,,,,*5C
$IIMTW,+21.0,C*3B
$IIMWV,332,R,04.9,N,A*1C
$IIMWV,312,T,03.1,N,A*17
$IIRMC,173458,A,4629.852,N,00640.454,E,02.5,138,020708,,,A*44
$IIVHW,,,138,M,02.1,N,,*6D
$IIVWR,028,L,04.8,N,,,,*79
$IIDPT,059.0,-1.0,*4C
$IIGLL,4629.851,N,00640.455,E,173500,A,A*53
$IIHDG,138,,,,*5D
$IIMTW,+21.0,C*3B
$IIMWV,332,R,04.8,N,A*1D
$IIMWV,314,T,03.1,N,A*11
$IIRMB,A,0.24,R,,OUC ,,,,,002.18,279,-01.8,V,A*2B
$IIRMC,173500,A,4629.851,N,00640.455,E,02.3,139,020708,,,A*4D
$IIVHW,,,138,M,02.1,N,,*6D
$IIVWR,029,L,04.7,N,,,,*77
$IIDPT,059.0,-1.0,*4C
$IIGLL,4629.851,N,00640.455,E,173500,A,A*53
$IIHDG,138,,,,*5D
$IIMTW,+21.0,C*3B
$IIMWV,331,R,04.7,N,A*11
$IIMWV,311,T,02.9,N,A*1D
$IIRMB,A,0.24,R,,OUC ,,,,,002.18,279,-01.9,V,A*2A
$IIRMC,173502,A,4629.850,N,00640.456,E,02.4,138,020708,,,A*4B
$IIVHW,,,138,M,02.1,N,,*6D
$IIVWR,029,L,04.9,N,,,,*79
$IIDPT,059.0,-1.0,*4C
$IIGLL,4629.850,N,00640.456,E,173502,A,A*53
$IIHDG,140,,,,*52
$IIMTW,+21.0,C*3B
$IIMWV,331,R,04.9,N,A*1F
$IIMWV,312,T,03.1,N,A*17
$IIRMC,173502,A,4629.850,N,00640.456,E,02.4,138,020708,,,A*4B
$IIVHW,,,140,M,02.1,N,,*62
$IIVWR,029,L,04.9,N,,,,*79
$IIDPT,059.0,-1.0,*4C
$IIGLL,4629.849,N,00640.457,E,173504,A,A*5C
$IIHDG,138,,,,*5D
$IIMTW,+18.0,C*31
$IIMWV,331,R,04.8,N,A*1E
$IIMWV,312,T,03.1,N,A*17
$IIRMB,A,0.24,R,,OUC ,,,,,002.18,279,-01.8,V,A*2B
$IIRMC,173504,A,4629.849,N,00640.457,E,02.4,139,020708,,,A*45
$IIVHW,,,138,M,02.1,N,,*6D
$IIVWR,030,L,04.8,N,,,,*70
$IIDPT,059.0,-1.0,*4C
$IIGLL,4629.849,N,00640.457,E,173504,A,A*5C
$IIHDG,138,,,,*5D
$IIMTW,+20.5,C*3F
$IIMWV,330,R,04.8,N,A*1F
$IIMWV,311,T,03.0,N,A*15
$IIRMC,173504,A,4629.849,N,00640.457,E,02.4,139,020708,,,A*45
$IIVHW,,,140,M,02.1,N,,*62
$IIVWR,030,L,04.9,N,,,,*71
$IIDPT,034.7,-1.0,*40
$IIGLL,4629.848,N,00640.459,E,173506,A,A*51
$IIHDG,140,,,,*52
$IIMTW,+20.5,C*3F
$IIMWV,330,R,04.9,N,A*1E
$IIMWV,310,T,03.1,N,A*15
$IIRMB,A,0.24,R,,OUC ,,,,,002.18,279,-01.9,V,A*2A
$IIRMC,173506,A,4629.848,N,00640.459,E,02.4,138,020708,,,A*49
$IIVHW,,,140,M,02.1,N,,*62
$IIVWR,030,L,04.9,N,,,,*71
$IIDPT,034.7,-1.0,*40
$IIGLL,4629.848,N,00640.459,E,173506,A,A*51
$IIHDG,140,,,,*52
$IIMTW,+20.5,C*3F
$IIMWV,330,R,04.9,N,A*1E
$IIMWV,311,T,03.1,N,A*14
$IIRMB,A,0.24,R,,OUC ,,,,,002.18,279,-01.8,V,A*2B
$IIRMC,173508,A,4629.847,N,00640.460,E,02.4,138,020708,,,A*42
$IIVHW,,,139,M,02.1,N,,*6C
$IIVWR,030,L,04.8,N,,,,*70
$IIDPT,042.2,-1.0,*44
$IIGLL,4629.847,N,00640.460,E,173508,A,A*5A
$IIHDG,139,,,,*5C
$IIMTW,+20.5,C*3F
$IIMWV,328,R,04.7,N,A*19
$IIMWV,311,T,03.0,N,A*15
$IIRMB,A,0.24,R,,OUC ,,,,,002.18,279,-01.8,V,A*2B
$IIRMC,173510,A,4629.846,N,00640.461,E,02.4,139,020708,,,A*4A
$IIVHW,,,139,M,02.1,N,,*6C
$IIVWR,032,L,04.7,N,,,,*7D
$IIDPT,048.5,-1.0,*49
$IIGLL,4629.846,N,00640.461,E,173510,A,A*53
$IIHDG,139,,,,*5C
$IIMTW,+20.5,C*3F
$IIMWV,328,R,04.7,N,A*19
$IIMWV,307,T,03.0,N,A*12
$IIRMC,173510,A,4629.846,N,00640.461,E,02.4,139,020708,,,A*4A
$IIVHW,,,139,M,02.1,N,,*6C
$IIVWR,030,L,04.7,N,,,,*7F
$IIDPT,055.5,-1.0,*45
$IIGLL,4629.845,N,00640.462,E,173512,A,A*51
$IIHDG,139,,,,*5C
$IIMTW,+20.5,C*3F
$IIMWV,330,R,04.7,N,A*10
$IIMWV,307,T,03.0,N,A*12
$IIRMB,A,0.24,R,,OUC ,,,,,002.18,279,-01.9,V,A*2A
$IIRMC,173512,A,4629.845,N,00640.462,E,02.4,139,020708,,,A*48
$IIVHW,,,140,M,02.1,N,,*62
$IIVWR,032,L,04.6,N,,,,*7C
$IIDPT,055.5,-1.0,*45
$IIGLL,4629.845,N,00640.462,E,173512,A,A*51
$IIHDG,140,,,,*52
$IIMTW,+20.5,C*3F
$IIMWV,328,R,04.6,N,A*18
$IIMWV,307,T,03.0,N,A*12
$IIRMB,A,0.25,R,,OUC ,,,,,002.19,279,-01.9,V,A*2A
$IIRMC,173514,A,4629.844,N,00640.464,E,02.4,138,020708,,,A*48
$IIVHW,,,140,M,02.1,N,,*62
$IIVWR,031,L,04.6,N,,,,*7F
$IIDPT,061.4,-1.0,*43
$IIGLL,4629.844,N,00640.464,E,173514,A,A*50
$IIHDG,140,,,,*52
$IIMTW,+20.5,C*3F
$IIMWV,328,R,05.1,N,A*1E
$IIMWV,308,T,02.9,N,A*15
$IIRMC,173514,A,4629.844,N,00640.464,E,02.4,138,020708,,,A*48
$IIVHW,,,140,M,02.1,N,,*62
$IIVWR,032,L,05.1,N,,,,*7A
$IIDPT,061.4,-1.0,*43
$IIGLL,4629.843,N,00640.465,E,173516,A,A*54
$IIHDG,140,,,,*52
$IIMTW,+20.5,C*3F
$IIMWV,328,R,05.2,N,A*1D
$IIMWV,309,T,03.4,N,A*18
$IIRMB,A,0.25,R,,OUC ,,,,,002.19,279,-01.8,V,A*2B
$IIRMC,173516,A,4629.843,N,00640.465,E,02.4,137,020708,,,A*43
$IIVHW,,,140,M,02.1,N,,*62
$IIVWR,031,L,05.1,N,,,,*79
$IIDPT,064.2,-1.0,*40
$IIGLL,4629.843,N,00640.465,E,173516,A,A*54
$IIHDG,140,,,,*52
$IIMTW,+20.5,C*3F
$IIMWV,329,R,05.1,N,A*1F
$IIMWV,310,T,03.5,N,A*11
$IIRMC,173516,A,4629.843,N,00640.465,E,02.4,137,020708,,,A*43
$IIVHW,,,140,M,02.1,N,,*62
$IIVWR,031,L,05.1,N,,,,*79
$IIDPT,071.6,-1.0,*40
$IIGLL,4629.842,N,00640.466,E,173518,A,A*58
$IIHDG,140,,,,*52
$IIMTW,+20.5,C*3F
$IIMWV,329,R,05.1,N,A*1F
$IIMWV,310,T,03.4,N,A*10
$IIRMB,A,0.25,R,,OUC ,,,,,002.19,279,-01.9,V,A*2A
$IIRMC,173518,A,4629.842,N,00640.466,E,02.4,139,020708,,,A*41
$IIVHW,,,140,M,02.1,N,,*62
$IIVWR,030,L,05.1,N,,,,*78
$IIDPT,071.6,-1.0,*40
$IIGLL,4629.842,N,00640.466,E,173518,A,A*58
$IIHDG,140,,,,*52
$IIMTW,+20.5,C*3F
$IIMWV,330,R,05.1,N,A*17
$IIMWV,313,T,03.3,N,A*14
$IIRMB,A,0.25,R,,OUC ,,,,,002.19,279,-01.9,V,A*2A
$IIRMC,173520,A,4629.841,N,00640.467,E,02.4,140,020708,,,A*46
$IIVHW,,,139,M,02.1,N,,*6C
$IIVWR,029,L,05.0,N,,,,*71
$IIDPT,071.6,-1.0,*40
$IIGLL,4629.841,N,00640.467,E,173520,A,A*51
$IIHDG,139,,,,*5C
$IIMTW,+21.0,C*3B
$IIMWV,330,R,04.9,N,A*1E
$IIMWV,312,T,03.2,N,A*14
$IIRMC,173520,A,4629.841,N,00640.467,E,02.4,140,020708,,,A*46
$IIVHW,,,139,M,02.1,N,,*6C
$IIVWR,030,L,04.9,N,,,,*71
$IIDPT,071.6,-1.0,*40
$IIGLL,4629.840,N,00640.469,E,173522,A,A*5C
$IIHDG,140,,,,*52
$IIMTW,+21.0,C*3B
$IIMWV,330,R,04.8,N,A*1F
$IIMWV,311,T,03.1,N,A*14
$IIRMB,A,0.25,R,,OUC ,,,,,002.19,279,-01.9,V,A*2A
$IIRMC,173522,A,4629.840,N,00640.469,E,02.4,139,020708,,,A*45
$IIVHW,,,140,M,02.1,N,,*62
$IIVWR,029,L,04.9,N,,,,*79
$IIDPT,071.6,-1.0,*40
$IIGLL,4629.840,N,00640.469,E,173522,A,A*5C
$IIHDG,140,,,,*52
$IIMTW,+21.0,C*3B
$IIMWV,331,R,04.9,N,A*1F
$IIMWV,310,T,03.1,N,A*15
$IIRMC,173522,A,4629.840,N,00640.469,E,02.4,139,020708,,,A*45
$IIVHW,,,140,M,02.1,N,,*62
$IIVWR,031,L,04.9,N,,,,*70
$IIDPT,033.1,-1.0,*41
$IIGLL,4629.839,N,00640.470,E,173524,A,A*5C
$IIHDG,140,,,,*52
$IIMTW,+21.0,C*3B
$IIMWV,329,R,04.9,N,A*16
$IIMWV,312,T,03.1,N,A*17
$IIRMB,A,0.25,R,,OUC ,,,,,002.19,279,-01.8,V,A*2B
$IIRMC,173524,A,4629.839,N,00640.470,E,02.4,139,020708,,,A*45
$IIVHW,,,140,M,02.1,N,,*62
$IIVWR,030,L,04.8,N,,,,*70
$IIDPT,033.1,-1.0,*41
$IIGLL,4629.839,N,00640.470,E,173524,A,A*5C
$IIHDG,140,,,,*52
$IIMTW,+21.0,C*3B
$IIMWV,330,R,04.8,N,A*1F
$IIMWV,310,T,03.1,N,A*15
$IIRMB,A,0.25,R,,OUC ,,,,,002.19,279,-01.9,V,A*2A
$IIRMC,173526,A,4629.838,N,00640.471,E,02.4,139,020708,,,A*47
$IIVHW,,,140,M,02.1,N,,*62
$IIVWR,030,L,04.8,N,,,,*70
$IIDPT,029.8,-1.0,*43
$IIGLL,4629.838,N,00640.471,E,173526,A,A*5E
$IIHDG,140,,,,*52
$IIMTW,+21.5,C*3E
$IIMWV,330,R,05.0,N,A*16
$IIMWV,308,T,03.0,N,A*1D
$IIRMC,173526,A,4629.838,N,00640.471,E,02.4,139,020708,,,A*47
$IIVHW,,,140,M,02.1,N,,*62
$IIVWR,030,L,05.0,N,,,,*79
$IIDPT,029.8,-1.0,*43
$IIGLL,4629.837,N,00640.472,E,173528,A,A*5C
$IIHDG,140,,,,*52
$IIMTW,+21.0,C*3B
$IIMWV,330,R,04.9,N,A*1E
$IIMWV,311,T,03.3,N,A*16
$IIRMB,A,0.25,R,,OUC ,,,,,002.19,279,-01.9,V,A*2A
$IIRMC,173528,A,4629.837,N,00640.472,E,02.5,139,020708,,,A*44
$IIVHW,,,140,M,02.1,N,,*62
$IIVWR,031,L,04.8,N,,,,*71
$IIDPT,045.9,-1.0,*48
$IIGLL,4629.837,N,00640.472,E,173528,A,A*5C
$IIHDG,140,,,,*52
$IIMTW,+21.0,C*3B
$IIMWV,329,R,04.8,N,A*17
$IIMWV,310,T,03.1,N,A*15
$IIRMC,173528,A,4629.837,N,00640.472,E,02.5,139,020708,,,A*44
$IIVHW,,,140,M,02.1,N,,*62
$IIVWR,031,L,05.2,N,,,,*7A
$IIDPT,045.9,-1.0,*48
$IIGLL,4629.836,N,00640.474,E,173530,A,A*52
$IIHDG,140,,,,*52
$IIMTW,+21.0,C*3B
$IIMWV,329,R,05.2,N,A*1C
$IIMWV,308,T,03.0,N,A*1D
$IIRMB,A,0.25,R,,OUC ,,,,,002.19,279,-01.9,V,A*2A
$IIRMC,173530,A,4629.836,N,00640.474,E,02.4,137,020708,,,A*45
$IIVHW,,,140,M,02.1,N,,*62
$IIVWR,030,L,05.1,N,,,,*78
$IIDPT,045.9,-1.0,*48
$IIGLL,4629.836,N,00640.474,E,173530,A,A*52
$IIHDG,140,,,,*52
$IIMTW,+21.0,C*3B
$IIMWV,330,R,05.1,N,A*17
$IIMWV,313,T,03.3,N,A*14
$IIRMB,A,0.25,R,,OUC ,,,,,002.19,279,-01.8,V,A*2B
$IIRMC,173532,A,4629.835,N,00640.475,E,02.5,140,020708,,,A*44
$IIVHW,,,140,M,02.1,N,,*62
$IIVWR,030,L,05.0,N,,,,*79
$IIDPT,058.0,-1.0,*4D
$IIGLL,4629.835,N,00640.475,E,173532,A,A*52
$IIHDG,140,,,,*52
$IIMTW,+21.0,C*3B
$IIMWV,329,R,05.1,N,A*1F
$IIMWV,310,T,03.2,N,A*16
$IIRMC,173532,A,4629.835,N,00640.475,E,02.5,140,020708,,,A*44
$IIVHW,,,140,M,02.1,N,,*62
$IIVWR,031,L,05.1,N,,,,*79
$IIDPT,061.1,-1.0,*46
$IIGLL,4629.833,N,00640.476,E,173534,A,A*51
$IIHDG,140,,,,*52
$IIMTW,+21.0,C*3B
$IIMWV,330,R,05.0,N,A*16
$IIMWV,309,T,03.3,N,A*1F
$IIRMB,A,0.26,R,,OUC ,,,,,002.20,279,-01.9,V,A*23
$IIRMC,173534,A,4629.833,N,00640.476,E,02.5,140,020708,,,A*47
$IIVHW,,,140,M,02.1,N,,*62
$IIVWR,031,L,04.9,N,,,,*70
$IIDPT,061.3,-1.0,*44
$IIGLL,4629.833,N,00640.476,E,173534,A,A*51
$IIHDG,140,,,,*52
$IIMTW,+21.0,C*3B
$IIMWV,329,R,04.9,N,A*16
$IIMWV,310,T,03.2,N,A*16
$IIRMC,173534,A,4629.833,N,00640.476,E,02.5,140,020708,,,A*47
$IIVHW,,,140,M,02.1,N,,*62
$IIVWR,032,L,04.9,N,,,,*73
$IIDPT,061.3,-1.0,*44
$IIGLL,4629.832,N,00640.478,E,173536,A,A*5C
$IIHDG,140,,,,*52
$IIMTW,+21.0,C*3B
$IIMWV,328,R,04.9,N,A*17
$IIMWV,309,T,03.2,N,A*1E
$IIRMB,A,0.26,R,,OUC ,,,,,002.20,279,-01.8,V,A*22
$IIRMC,173536,A,4629.832,N,00640.478,E,02.5,141,020708,,,A*4B
$IIVHW,,,141,M,02.1,N,,*63
$IIVWR,031,L,04.8,N,,,,*71
$IIDPT,056.2,-1.0,*41
$IIGLL,4629.832,N,00640.478,E,173536,A,A*5C
$IIHDG,141,,,,*53
$IIMTW,+21.0,C*3B
$IIMWV,329,R,04.8,N,A*17
$IIMWV,308,T,03.0,N,A*1D
$IIRMB,A,0.26,R,,OUC ,,,,,002.20,279,-01.9,V,A*23
$IIRMC,173538,A,4629.831,N,00640.479,E,02.6,137,020708,,,A*45
$IIVHW,,,140,M,02.1,N,,*62
$IIVWR,032,L,04.8,N,,,,*72
$IIDPT,043.7,-1.0,*40
$IIGLL,4629.831,N,00640.479,E,173538,A,A*50
$IIHDG,140,,,,*52
$IIMTW,+21.0,C*3B
$IIMWV,328,R,04.7,N,A*19
$IIMWV,306,T,03.0,N,A*13
$IIRMC,173538,A,4629.831,N,00640.479,E,02.6,137,020708,,,A*45
$IIVHW,,,140,M,02.1,N,,*62
$IIVWR,032,L,04.7,N,,,,*7D
$IIDPT,037.8,-1.0,*4C
$IIGLL,4629.830,N,00640.480,E,173540,A,A*58
$IIHDG,140,,,,*52
$IIMTW,+21.0,C*3B
$IIMWV,328,R,04.7,N,A*19
$IIMWV,305,T,02.9,N,A*18
$IIRMB,A,0.26,R,,OUC ,,,,,002.20,279,-01.9,V,A*23
$IIRMC,173540,A,4629.830,N,00640.480,E,02.5,140,020708,,,A*4E
$IIVHW,,,140,M,02.1,N,,*62
$IIVWR,031,L,04.7,N,,,,*7E
$IIDPT,039.2,-1.0,*48
$IIGLL,4629.830,N,00640.480,E,173540,A,A*58
$IIHDG,141,,,,*53
$IIMTW,+21.0,C*3B
$IIMWV,329,R,04.7,N,A*18
$IIMWV,305,T,02.9,N,A*18
$IIRMC,173540,A,4629.830,N,00640.480,E,02.5,140,020708,,,A*4E
$IIVHW,,,140,M,02.1,N,,*62
$IIVWR,031,L,04.7,N,,,,*7E
$IIDPT,037.4,-1.0,*40
$IIGLL,4629.829,N,00640.482,E,173542,A,A*50
$IIHDG,140,,,,*52
$IIMTW,+21.0,C*3B
$IIMWV,329,R,04.7,N,A*18
$IIMWV,307,T,03.0,N,A*12
$IIRMB,A,0.26,R,,OUC ,,,,,002.20,280,-01.9,V,A*25
$IIRMC,173542,A,4629.829,N,00640.482,E,02.5,139,020708,,,A*48
$IIVHW,,,140,M,02.1,N,,*62
$IIVWR,031,L,04.6,N,,,,*7F
$IIDPT,032.5,-1.0,*44
$IIGLL,4629.829,N,00640.482,E,173542,A,A*50
$IIHDG,140,,,,*52
$IIMTW,+21.0,C*3B
$IIMWV,329,R,04.6,N,A*19
$IIMWV,307,T,02.8,N,A*1B
$IIRMB,A,0.26,R,,OUC ,,,,,002.20,280,-01.9,V,A*25
$IIRMC,173544,A,4629.828,N,00640.483,E,02.5,140,020708,,,A*40
$IIVHW,,,140,M,02.1,N,,*62
$IIVWR,031,L,04.6,N,,,,*7F
$IIDPT,037.3,-1.0,*47
$IIGLL,4629.828,N,00640.483,E,173544,A,A*56
$IIHDG,140,,,,*52
$IIMTW,+21.0,C*3B
$IIMWV,331,R,04.6,N,A*10
$IIMWV,307,T,02.8,N,A*1B
$IIRMC,173544,A,4629.828,N,00640.483,E,02.5,140,020708,,,A*40
$IIVHW,,,140,M,02.1,N,,*62
$IIVWR,029,L,04.6,N,,,,*76
$IIDPT,034.1,-1.0,*46
$IIGLL,4629.827,N,00640.484,E,173546,A,A*5C
$IIHDG,140,,,,*52
$IIMTW,+21.0,C*3B
$IIMWV,329,R,04.6,N,A*19
$IIMWV,309,T,02.8,N,A*15
$IIRMB,A,0.26,R,,OUC ,,,,,002.20,280,-01.9,V,A*25
$IIRMC,173546,A,4629.827,N,00640.484,E,02.5,142,020708,,,A*48
$IIVHW,,,140,M,02.1,N,,*62
$IIVWR,031,L,04.6,N,,,,*7F
$IIDPT,034.1,-1.0,*46
$IIGLL,4629.827,N,00640.484,E,173546,A,A*5C
$IIHDG,140,,,,*52
$IIMTW,+21.0,C*3B
$IIMWV,329,R,04.6,N,A*19
$IIMWV,307,T,02.8,N,A*1B
$IIRMC,173546,A,4629.827,N,00640.484,E,02.5,142,020708,,,A*48
$IIVHW,,,140,M,02.1,N,,*62
$IIVWR,031,L,04.6,N,,,,*7F
$IIDPT,034.1,-1.0,*46
$IIGLL,4629.826,N,00640.485,E,173548,A,A*52
$IIHDG,140,,,,*52
$IIMTW,+21.5,C*3E
$IIMWV,329,R,04.6,N,A*19
$IIMWV,307,T,02.8,N,A*1B
$IIRMB,A,0.26,R,,OUC ,,,,,002.20,280,-01.9,V,A*25
$IIRMC,173548,A,4629.826,N,00640.485,E,02.5,139,020708,,,A*4A
$IIVHW,,,140,M,02.1,N,,*62
$IIVWR,030,L,04.6,N,,,,*7E
$IIDPT,041.2,-1.0,*47
$IIGLL,4629.826,N,00640.485,E,173548,A,A*52
$IIHDG,140,,,,*52
$IIMTW,+21.5,C*3E
$IIMWV,330,R,04.6,N,A*11
$IIMWV,308,T,02.9,N,A*15
$IIRMB,A,0.26,R,,OUC ,,,,,002.20,280,-01.9,V,A*25
$IIRMC,173550,A,4629.825,N,00640.487,E,02.4,138,020708,,,A*42
$IIVHW,,,139,M,02.1,N,,*6C
$IIVWR,031,L,04.6,N,,,,*7F
$IIDPT,041.9,-1.0,*4C
$IIGLL,4629.825,N,00640.487,E,173550,A,A*5A
$IIHDG,140,,,,*52
$IIMTW,+21.5,C*3E
$IIMWV,328,R,04.6,N,A*18
$IIMWV,307,T,02.8,N,A*1B
$IIRMB,A,0.27,R,,OUC ,,,,,002.21,280,-01.9,V,A*25
$IIRMC,173552,A,4629.824,N,00640.488,E,02.5,139,020708,,,A*4E
$IIVHW,,,140,M,02.1,N,,*62
$IIVWR,032,L,04.6,N,,,,*7C
$IIDPT,055.5,-1.0,*45
$IIGLL,4629.824,N,00640.488,E,173552,A,A*56
$IIHDG,139,,,,*5C
$IIMTW,+21.5,C*3E
$IIMWV,329,R,04.6,N,A*19
$IIMWV,305,T,02.9,N,A*18
$IIRMC,173552,A,4629.824,N,00640.488,E,02.5,139,020708,,,A*4E
$IIVHW,,,139,M,02.1,N,,*6C
$IIVWR,031,L,04.7,N,,,,*7E
$IIDPT,055.5,-1.0,*45
$IIGLL,4629.823,N,00640.489,E,173554,A,A*56
$IIHDG,139,,,,*5C
$IIMTW,+21.0,C*3B
$IIMWV,329,R,04.7,N,A*18
$IIMWV,307,T,02.8,N,A*1B
$IIRMB,A,0.27,R,,OUC ,,,,,002.21,280,-01.9,V,A*25
$IIRMC,173554,A,4629.823,N,00640.489,E,02.5,139,020708,,,A*4E
$IIVHW,,,139,M,02.1,N,,*6C
$IIVWR,031,L,04.9,N,,,,*70
$IIDPT,079.2,-1.0,*4C
$IIGLL,4629.823,N,00640.489,E,173554,A,A*56
$IIHDG,139,,,,*5C
$IIMTW,+21.0,C*3B
$IIMWV,329,R,04.9,N,A*16
$IIMWV,309,T,03.2,N,A*1E
$IIRMB,A,0.27,R,,OUC ,,,,,002.21,280,-01.9,V,A*25
$IIRMC,173556,A,4629.822,N,00640.491,E,02.5,139,020708,,,A*44
$IIVHW,,,139,M,02.1,N,,*6C
$IIVWR,030,L,04.9,N,,,,*71
$IIDPT,079.2,-1.0,*4C
$IIGLL,4629.822,N,00640.491,E,173556,A,A*5C
$IIHDG,139,,,,*5C
$IIMTW,+21.0,C*3B
$IIMWV,330,R,04.9,N,A*1E
$IIMWV,310,T,03.1,N,A*15
$IIRMC,173556,A,4629.822,N,00640.491,E,02.5,139,020708,,,A*44
$IIVHW,,,139,M,02.1,N,,*6C
$IIVWR,030,L,04.9,N,,,,*71
$IIDPT,079.0,-1.0,*4E
$IIGLL,4629.821,N,00640.492,E,173558,A,A*52
$IIHDG,140,,,,*52
$IIMTW,+21.0,C*3B
$IIMWV,329,R,04.8,N,A*17
$IIMWV,310,T,03.1,N,A*15
$IIRMB,A,0.27,R,,OUC ,,,,,002.21,280,-01.9,V,A*25
$IIRMC,173558,A,4629.821,N,00640.492,E,02.5,140,020708,,,A*44
$IIVHW,,,140,M,02.1,N,,*62
$IIVWR,029,L,04.8,N,,,,*78
$IIDPT,070.7,-1.0,*40
$IIGLL,4629.821,N,00640.492,E,173558,A,A*52
$IIHDG,140,,,,*52
$IIMTW,+21.0,C*3B
$IIMWV,331,R,04.8,N,A*1E
$IIMWV,308,T,03.0,N,A*1D
$IIRMC,173558,A,4629.821,N,00640.492,E,02.5,140,020708,,,A*44
$IIVHW,,,140,M,02.1,N,,*62
$IIVWR,030,L,04.7,N,,,,*7F
$IIDPT,070.7,-1.0,*40
$IIGLL,4629.820,N,00640.493,E,173600,A,A*5C
$IIHDG,140,,,,*52
$IIMTW,+21.0,C*3B
$IIMWV,330,R,04.7,N,A*10
$IIMWV,310,T,02.9,N,A*1C
$IIRMB,A,0.27,R,,OUC ,,,,,002.21,280,-01.9,V,A*25
$IIRMC,173600,A,4629.820,N,00640.493,E,02.4,138,020708,,,A*44
$IIVHW,,,140,M,02.1,N,,*62
$IIVWR,030,L,04.8,N,,,,*70
$IIDPT,070.7,-1.0,*40
$IIGLL,4629.820,N,00640.493,E,173600,A,A*5C
$IIHDG,140,,,,*52
$IIMTW,+21.0,C*3B
$IIMWV,330,R,04.8,N,A*1F
$IIMWV,308,T,03.0,N,A*1D
$IIRMB,A,0.27,R,,OUC ,,,,,002.21,280,-02.0,V,A*2F
$IIRMC,173602,A,4629.819,N,00640.494,E,02.4,139,020708,,,A*4A
$IIVHW,,,139,M,02.1,N,,*6C
$IIVWR,030,L,04.7,N,,,,*7F
$IIDPT,066.1,-1.0,*41
$IIGLL,4629.819,N,00640.494,E,173602,A,A*53
$IIHDG,140,,,,*52
$IIMTW,+21.0,C*3B
$IIMWV,331,R,04.7,N,A*11
$IIMWV,308,T,02.9,N,A*15
$IIRMC,173602,A,4629.819,N,00640.494,E,02.4,139,020708,,,A*4A
$IIVHW,,,140,M,02.1,N,,*62
$IIVWR,029,L,04.7,N,,,,*77
$IIDPT,065.0,-1.0,*43
$IIGLL,4629.818,N,00640.496,E,173604,A,A*56
$IIHDG,140,,,,*52
$IIMTW,+21.0,C*3B
$IIMWV,331,R,04.7,N,A*11
$IIMWV,309,T,02.8,N,A*15
$IIRMB,A,0.27,R,,OUC ,,,,,002.21,280,-01.9,V,A*25
$IIRMC,173604,A,4629.818,N,00640.496,E,02.4,139,020708,,,A*4F
$IIVHW,,,140,M,02.1,N,,*62
$IIVWR,029,L,04.7,N,,,,*77
$IIDPT,056.6,-1.0,*45
$IIGLL,4629.818,N,00640.496,E,173604,A,A*56
$IIHDG,139,,,,*5C
$IIMTW,+21.0,C*3B
$IIMWV,331,R,04.7,N,A*11
$IIMWV,309,T,02.8,N,A*15
$IIRMC,173604,A,4629.818,N,00640.496,E,02.4,139,020708,,,A*4F
$IIVHW,,,140,M,02.1,N,,*62
$IIVWR,029,L,04.7,N,,,,*77
$IIDPT,063.4,-1.0,*41
$IIGLL,4629.817,N,00640.497,E,173606,A,A*5A
$IIHDG,140,,,,*52
$IIMTW,+21.0,C*3B
$IIMWV,331,R,04.7,N,A*11
$IIMWV,309,T,02.8,N,A*15
$IIRMB,A,0.27,R,,OUC ,,,,,002.21,280,-01.9,V,A*25
$IIRMC,173606,A,4629.817,N,00640.497,E,02.5,137,020708,,,A*4C
$IIVHW,,,140,M,02.1,N,,*62
$IIVWR,027,L,04.7,N,,,,*79
$IIDPT,063.6,-1.0,*43
$IIGLL,4629.817,N,00640.497,E,173606,A,A*5A
$IIHDG,140,,,,*52
$IIMTW,+21.0,C*3B
$IIMWV,333,R,04.7,N,A*13
$IIMWV,312,T,02.8,N,A*1F
$IIRMB,A,0.27,R,,OUC ,,,,,002.21,280,-01.9,V,A*25
$IIRMC,173608,A,4629.816,N,00640.498,E,02.4,139,020708,,,A*43
$IIVHW,,,140,M,02.1,N,,*62
$IIVWR,027,L,04.7,N,,,,*79
$IIDPT,061.1,-1.0,*46
$IIGLL,4629.816,N,00640.498,E,173608,A,A*5A
$IIHDG,140,,,,*52
$IIMTW,+21.0,C*3B
$IIMWV,332,R,04.6,N,A*13
$IIMWV,312,T,02.8,N,A*1F
$IIRMC,173608,A,4629.816,N,00640.498,E,02.4,139,020708,,,A*43
$IIVHW,,,140,M,02.1,N,,*62
$IIVWR,028,L,04.6,N,,,,*77
$IIDPT,056.6,-1.0,*45
$IIGLL,4629.814,N,00640.500,E,173610,A,A*51
$IIHDG,139,,,,*5C
$IIMTW,+21.0,C*3B
$IIMWV,333,R,04.6,N,A*12
$IIMWV,311,T,02.7,N,A*13
$IIRMB,A,0.27,R,,OUC ,,,,,002.21,280,-01.9,V,A*25
$IIRMC,173610,A,4629.814,N,00640.500,E,02.4,138,020708,,,A*49
$IIVHW,,,139,M,02.1,N,,*6C
$IIVWR,027,L,05.0,N,,,,*7F
$IIDPT,056.0,-1.0,*43
$IIGLL,4629.814,N,00640.500,E,173610,A,A*51
$IIHDG,139,,,,*5C
$IIMTW,+21.0,C*3B
$IIMWV,333,R,05.0,N,A*15
$IIMWV,312,T,02.6,N,A*11
$IIRMC,173610,A,4629.814,N,00640.500,E,02.4,138,020708,,,A*49
$IIVHW,,,140,M,02.1,N,,*62
$IIVWR,027,L,05.4,N,,,,*7B
$IIDPT,046.0,-1.0,*42
$IIGLL,4629.813,N,00640.501,E,173612,A,A*55
$IIHDG,140,,,,*52
$IIMTW,+21.0,C*3B
$IIMWV,333,R,05.4,N,A*11
$IIMWV,315,T,03.1,N,A*10
$IIRMB,A,0.27,R,,OUC ,,,,,002.22,280,-01.9,V,A*26
$IIRMC,173612,A,4629.813,N,00640.501,E,02.4,139,020708,,,A*4C
$IIVHW,,,140,M,02.1,N,,*62
$IIVWR,027,L,05.3,N,,,,*7C
$IIDPT,046.0,-1.0,*42
$IIGLL,4629.813,N,00640.501,E,173612,A,A*55
$IIHDG,140,,,,*52
$IIMTW,+21.0,C*3B
$IIMWV,333,R,05.3,N,A*16
$IIMWV,317,T,03.3,N,A*10
$IIRMB,A,0.28,R,,OUC ,,,,,002.22,280,-01.9,V,A*29
$IIRMC,173614,A,4629.812,N,00640.502,E,02.5,140,020708,,,A*47
$IIVHW,,,140,M,02.1,N,,*62
$IIVWR,028,L,05.2,N,,,,*72
$IIDPT,047.4,-1.0,*47
$IIGLL,4629.812,N,00640.502,E,173614,A,A*51
