$IIRMC,164500,A,4613.165,N,00609.532,E,04.8,308,300614,01,E,A*05
$IIVHW,,,313,M,04.8,N,,*69
$IIVLW,53349,N,000.6,N*5D
$IIVWR,044,R,13.2,N,,,,*61
$IIDPT,008.1,+0.7,*49
$IIGLL,4613.165,N,00609.532,E,164500,A,A*5F
$IIHDG,313,,,01,E*12
$IIMTW,+15.0,C*3C
$IIMWV,043,R,13.3,N,A*15
$IIMWV,063,T,10.2,N,A*13
$IIRMC,164501,A,4613.165,N,00609.530,E,04.9,310,300614,01,E,A*0E
$IIVHW,,,314,M,04.8,N,,*6E
$IIVLW,53349,N,000.6,N*5D
$IIVWR,043,R,13.3,N,,,,*67
$IIDPT,008.1,+0.7,*49
$IIGLL,4613.165,N,00609.530,E,164501,A,A*5C
$IIHDG,314,,,01,E*15
$IIMTW,+15.0,C*3C
$IIMWV,042,R,13.3,N,A*14
$IIMWV,061,T,10.2,N,A*11
$IIRMC,164501,A,4613.165,N,00609.530,E,04.9,310,300614,01,E,A*0E
$IIVHW,,,314,M,04.7,N,,*61
$IIVLW,53349,N,000.6,N*5D
$IIVWR,042,R,13.3,N,,,,*66
$IIDPT,008.1,+0.7,*49
$IIGLL,4613.167,N,00609.527,E,164503,A,A*5A
$IIHDG,315,,,01,E*14
$IIMTW,+15.0,C*3C
$IIMWV,041,R,13.5,N,A*11
$IIMWV,061,T,10.2,N,A*11
$IIRMC,164503,A,4613.167,N,00609.527,E,04.9,312,300614,01,E,A*0A
$IIVHW,,,315,M,04.7,N,,*60
$IIVLW,53349,N,000.6,N*5D
$IIVWR,041,R,13.5,N,,,,*63
$IIDPT,008.1,+0.7,*49
$IIGLL,4613.169,N,00609.524,E,164505,A,A*51
$IIHDG,315,,,01,E*14
$IIMTW,+15.0,C*3C
$IIMWV,040,R,13.2,N,A*17
$IIMWV,060,T,10.3,N,A*11
$IIRMC,164505,A,4613.169,N,00609.524,E,04.9,313,300614,01,E,A*00
$IIVHW,,,315,M,04.7,N,,*60
$IIVLW,53349,N,000.6,N*5D
$IIVWR,039,R,12.8,N,,,,*60
$IIDPT,008.1,+0.7,*49
$IIGLL,4613.170,N,00609.523,E,164506,A,A*5D
$IIHDG,315,,,01,E*14
$IIMTW,+15.0,C*3C
$IIMWV,039,R,12.8,N,A*12
$IIMWV,057,T,09.9,N,A*17
$IIRMC,164506,A,4613.170,N,00609.523,E,04.9,311,300614,01,E,A*0E
$IIVHW,,,315,M,04.7,N,,*60
$IIVLW,53349,N,000.6,N*5D
$IIVWR,039,R,13.0,N,,,,*69
$IIDPT,008.1,+0.7,*49
$IIGLL,4613.171,N,00609.521,E,164507,A,A*5F
$IIHDG,316,,,01,E*17
$IIMTW,+15.0,C*3C
$IIMWV,039,R,13.0,N,A*1B
$IIMWV,057,T,09.4,N,A*1A
$IIRMC,164507,A,4613.171,N,00609.521,E,04.9,315,300614,01,E,A*08
$IIVHW,,,316,M,04.8,N,,*6C
$IIVLW,53349,N,000.6,N*5D
$IIVWR,039,R,13.2,N,,,,*6B
$IIDPT,008.1,+0.7,*49
$IIGLL,4613.172,N,00609.520,E,164508,A,A*52
$IIHDG,316,,,01,E*17
$IIMTW,+15.0,C*3C
$IIMWV,039,R,13.2,N,A*19
$IIMWV,057,T,09.6,N,A*18
$IIRMC,164509,A,4613.174,N,00609.519,E,05.0,315,300614,01,E,A*00
$IIVHW,,,318,M,04.8,N,,*62
$IIVLW,53349,N,000.6,N*5D
$IIVWR,038,R,13.7,N,,,,*6F
$IIDPT,008.1,+0.7,*49
$IIGLL,4613.174,N,00609.519,E,164509,A,A*5F
$IIHDG,318,,,01,E*19
$IIMTW,+15.0,C*3C
$IIMWV,038,R,13.7,N,A*1D
$IIMWV,054,T,10.3,N,A*16
$IIRMC,164510,A,4613.175,N,00609.517,E,05.2,322,300614,01,E,A*01
$IIVHW,,,324,M,04.8,N,,*6D
$IIVLW,53349,N,000.6,N*5D
$IIVWR,038,R,14.1,N,,,,*6E
$IIDPT,008.1,+0.7,*49
$IIGLL,4613.175,N,00609.517,E,164510,A,A*58
$IIHDG,324,,,01,E*16
$IIMTW,+15.0,C*3C
$IIMWV,035,R,14.3,N,A*13
$IIMWV,054,T,10.7,N,A*12
$IIRMC,164511,A,4613.176,N,00609.516,E,05.0,327,300614,01,E,A*05
$IIVHW,,,330,M,04.7,N,,*67
$IIVLW,53349,N,000.6,N*5D
$IIVWR,035,R,14.3,N,,,,*61
$IIDPT,008.1,+0.7,*49
$IIGLL,4613.176,N,00609.516,E,164511,A,A*5B
$IIHDG,330,,,01,E*13
$IIMTW,+15.0,C*3C
$IIMWV,032,R,14.4,N,A*13
$IIMWV,050,T,10.6,N,A*17
$IIRMC,164512,A,4613.177,N,00609.515,E,05.1,329,300614,01,E,A*0B
$IIVHW,,,335,M,04.6,N,,*63
$IIVLW,53349,N,000.6,N*5D
$IIVWR,032,R,14.4,N,,,,*61
$IIDPT,008.1,+0.7,*49
$IIGLL,4613.177,N,00609.515,E,164512,A,A*5A
$IIHDG,343,,,01,E*17
$IIMTW,+15.0,C*3C
$IIMWV,027,R,14.4,N,A*17
$IIMWV,045,T,10.6,N,A*13
$IIRMC,164513,A,4613.178,N,00609.514,E,04.7,339,300614,01,E,A*02
$IIVHW,,,343,M,04.5,N,,*61
$IIVLW,53349,N,000.6,N*5D
$IIVWR,027,R,14.4,N,,,,*65
$IIDPT,008.1,+0.7,*49
$IIGLL,4613.180,N,00609.513,E,164514,A,A*52
$IIHDG,349,,,01,E*1D
$IIMTW,+15.0,C*3C
$IIMWV,022,R,14.5,N,A*13
$IIMWV,038,T,10.4,N,A*1B
$IIRMC,164514,A,4613.180,N,00609.513,E,04.4,348,300614,01,E,A*00
$IIVHW,,,349,M,04.4,N,,*6A
$IIVLW,53349,N,000.6,N*5D
$IIVWR,022,R,14.5,N,,,,*61
$IIDPT,008.1,+0.7,*49
$IIGLL,4613.181,N,00609.513,E,164515,A,A*52
$IIHDG,356,,,01,E*13
$IIMTW,+15.0,C*3C
$IIMWV,017,R,14.5,N,A*15
$IIMWV,031,T,10.4,N,A*12
$IIRMC,164515,A,4613.181,N,00609.513,E,03.7,356,300614,01,E,A*0B
$IIVHW,,,356,M,04.2,N,,*62
$IIVLW,53349,N,000.6,N*5D
$IIVWR,016,R,14.4,N,,,,*67
$IIDPT,008.1,+0.7,*49
$IIGLL,4613.182,N,00609.513,E,164516,A,A*52
$IIHDG,004,,,01,E*17
$IIMTW,+15.0,C*3C
$IIMWV,016,R,14.4,N,A*15
$IIMWV,024,T,10.4,N,A*16
$IIRMC,164516,A,4613.182,N,00609.513,E,04.2,002,300614,01,E,A*0B
$IIVHW,,,004,M,04.1,N,,*65
$IIVLW,53349,N,000.6,N*5D
$IIVWR,011,R,14.1,N,,,,*65
$IIDPT,008.1,+0.7,*49
$IIGLL,4613.183,N,00609.513,E,164517,A,A*52
$IIHDG,009,,,01,E*1A
$IIMTW,+15.0,C*3C
$IIMWV,011,R,14.1,N,A*17
$IIMWV,022,T,10.4,N,A*10
$IIRMC,164517,A,4613.183,N,00609.513,E,03.8,014,300614,01,E,A*01
$IIVHW,,,015,M,03.6,N,,*65
$IIVLW,53349,N,000.6,N*5D
$IIVWR,007,R,13.9,N,,,,*6D
$IIDPT,008.1,+0.7,*49
$IIGLL,4613.184,N,00609.514,E,164518,A,A*5D
$IIHDG,015,,,01,E*17
$IIMTW,+15.0,C*3C
$IIMWV,007,R,13.9,N,A*1F
$IIMWV,015,T,10.2,N,A*12
$IIRMC,164519,A,4613.185,N,00609.514,E,03.3,020,300614,01,E,A*02
$IIVHW,,,021,M,03.5,N,,*61
$IIVLW,53349,N,000.6,N*5D
$IIVWR,004,R,14.1,N,,,,*61
$IIDPT,008.1,+0.7,*49
$IIGLL,4613.185,N,00609.514,E,164519,A,A*5D
$IIHDG,021,,,01,E*10
$IIMTW,+15.0,C*3C
$IIMWV,004,R,14.1,N,A*13
$IIMWV,005,T,10.6,N,A*17
$IIRMC,164520,A,4613.186,N,00609.515,E,03.0,026,300614,01,E,A*0F
$IIVHW,,,025,M,03.3,N,,*63
$IIVLW,53349,N,000.6,N*5D
$IIVWR,002,R,13.9,N,,,,*68
$IIDPT,008.1,+0.7,*49
$IIGLL,4613.186,N,00609.515,E,164520,A,A*55
$IIHDG,025,,,01,E*14
$IIMTW,+15.0,C*3C
$IIMWV,000,R,14.1,N,A*17
$IIMWV,002,T,10.6,N,A*10
$IIRMC,164521,A,4613.187,N,00609.515,E,03.0,025,300614,01,E,A*0C
$IIVHW,,,023,M,03.1,N,,*67
$IIVLW,53349,N,000.6,N*5D
$IIVWR,000,R,14.1,N,,,,*65
$IIDPT,008.1,+0.7,*49
$IIGLL,4613.187,N,00609.515,E,164521,A,A*55
$IIHDG,023,,,01,E*12
$IIMTW,+15.0,C*3C
$IIMWV,358,R,13.3,N,A*1C
$IIMWV,000,T,11.0,N,A*15
$IIRMC,164522,A,4613.187,N,00609.516,E,02.2,035,300614,01,E,A*0E
$IIVHW,,,026,M,02.9,N,,*6B
$IIVLW,53349,N,000.6,N*5D
$IIVWR,002,L,13.3,N,,,,*7C
$IIDPT,008.1,+0.7,*49
$IIGLL,4613.187,N,00609.516,E,164522,A,A*55
$IIHDG,026,,,01,E*17
$IIMTW,+15.0,C*3C
$IIMWV,356,R,13.3,N,A*12
$IIMWV,358,T,10.3,N,A*19
$IIRMC,164522,A,4613.187,N,00609.516,E,02.2,035,300614,01,E,A*0E
$IIVHW,,,026,M,02.9,N,,*6B
$IIVLW,53349,N,000.6,N*5D
$IIVWR,004,L,13.3,N,,,,*7A
$IIDPT,008.1,+0.7,*49
$IIGLL,4613.189,N,00609.517,E,164524,A,A*5C
$IIHDG,026,,,01,E*17
$IIMTW,+15.0,C*3C
$IIMWV,357,R,13.0,N,A*10
$IIMWV,355,T,10.3,N,A*14
$IIRMC,164524,A,4613.189,N,00609.517,E,03.0,030,300614,01,E,A*01
$IIVHW,,,026,M,02.9,N,,*6B
$IIVLW,53349,N,000.6,N*5D
$IIVWR,003,L,13.0,N,,,,*7E
$IIDPT,008.1,+0.7,*49
$IIGLL,4613.189,N,00609.517,E,164525,A,A*5D
$IIHDG,026,,,01,E*17
$IIMTW,+15.0,C*3C
$IIMWV,353,R,12.7,N,A*12
$IIMWV,356,T,10.0,N,A*14
$IIRMC,164525,A,4613.189,N,00609.517,E,02.5,029,300614,01,E,A*0C
$IIVHW,,,026,M,02.9,N,,*6B
$IIVLW,53349,N,000.6,N*5D
$IIVWR,004,L,12.4,N,,,,*7C
$IIDPT,008.1,+0.7,*49
$IIGLL,4613.190,N,00609.518,E,164526,A,A*59
$IIHDG,026,,,01,E*17
$IIMTW,+15.0,C*3C
$IIMWV,356,R,12.4,N,A*14
$IIMWV,351,T,09.6,N,A*1D
$IIRMC,164526,A,4613.190,N,00609.518,E,02.0,027,300614,01,E,A*03
$IIVHW,,,026,M,02.9,N,,*6B
$IIVLW,53349,N,000.6,N*5D
$IIVWR,006,L,12.2,N,,,,*78
$IIDPT,008.1,+0.7,*49
$IIGLL,4613.190,N,00609.517,E,164527,A,A*57
$IIHDG,026,,,01,E*17
$IIMTW,+15.0,C*3C
$IIMWV,354,R,12.2,N,A*10
$IIMWV,355,T,09.4,N,A*1B
$IIRMC,164527,A,4613.190,N,00609.517,E,01.3,027,300614,01,E,A*0D
$IIVHW,,,026,M,02.9,N,,*6B
$IIVLW,53349,N,000.6,N*5D
$IIVWR,007,L,12.3,N,,,,*78
$IIDPT,008.1,+0.7,*49
$IIGLL,4613.191,N,00609.518,E,164528,A,A*56
$IIHDG,026,,,01,E*17
$IIMTW,+15.0,C*3C
$IIMWV,353,R,12.3,N,A*16
$IIMWV,352,T,09.0,N,A*18
$IIRMC,164529,A,4613.191,N,00609.518,E,01.9,027,300614,01,E,A*07
$IIVHW,,,026,M,02.9,N,,*6B
$IIVLW,53349,N,000.6,N*5D
$IIVWR,008,L,11.8,N,,,,*7F
$IIDPT,008.1,+0.7,*49
$IIGLL,4613.191,N,00609.518,E,164529,A,A*57
$IIHDG,026,,,01,E*17
$IIMTW,+15.0,C*3C
$IIMWV,352,R,11.8,N,A*1F
$IIMWV,349,T,08.7,N,A*14
$IIRMC,164530,A,4613.191,N,00609.518,E,00.0,027,300614,01,E,A*07
$IIVLW,53349,N,000.6,N*5D
$IIVWR,013,L,11.0,N,,,,*7D
$IIGLL,4613.191,N,00609.518,E,164530,A,A*5F
$IIMWV,347,R,11.0,N,A*13
$IIMWV,343,T,07.9,N,A*1F
$IIRMC,164531,A,4613.191,N,00609.519,E,00.0,027,300614,01,E,A*07
$IIVHW,,,048,M,01.8,N,,*61
$IIVLW,53349,N,000.6,N*5D
$IIVWR,023,L,11.0,N,,,,*7E
$IIDPT,008.1,+0.7,*49
$IIGLL,4613.191,N,00609.519,E,164531,A,A*5F
$IIHDG,048,,,01,E*1F
$IIMTW,+15.0,C*3C
$IIMWV,333,R,11.7,N,A*17
$IIMWV,333,T,09.2,N,A*1D
$IIRMC,164532,A,4613.191,N,00609.519,E,01.3,027,300614,01,E,A*06
$IIVHW,,,054,M,01.7,N,,*63
$IIVLW,53349,N,000.6,N*5D
$IIVWR,027,L,11.7,N,,,,*7D
$IIDPT,008.1,+0.7,*49
$IIGLL,4613.191,N,00609.519,E,164532,A,A*5C
$IIHDG,054,,,01,E*12
$IIMTW,+15.0,C*3C
$IIMWV,335,R,11.4,N,A*12
$IIMWV,329,T,10.0,N,A*1C
$IIRMC,164532,A,4613.191,N,00609.519,E,01.3,027,300614,01,E,A*06
$IIVHW,,,064,M,01.6,N,,*61
$IIVLW,53349,N,000.6,N*5D
$IIVWR,025,L,11.4,N,,,,*7C
$IIDPT,008.1,+0.7,*49
$IIGLL,4613.191,N,00609.519,E,164532,A,A*5C
$IIHDG,073,,,01,E*17
$IIMTW,+15.0,C*3C
$IIMWV,329,R,10.6,N,A*1C
$IIMWV,331,T,09.8,N,A*15
$IIRMC,164534,A,4613.191,N,00609.520,E,01.5,027,300614,01,E,A*0C
$IIVHW,,,073,M,01.5,N,,*64
$IIVLW,53349,N,000.6,N*5D
$IIVWR,031,L,10.6,N,,,,*7A
$IIDPT,008.1,+0.7,*49
$IIGLL,4613.191,N,00609.521,E,164535,A,A*50
$IIHDG,082,,,01,E*19
$IIMTW,+15.0,C*3C
$IIMWV,326,R,10.4,N,A*11
$IIMWV,324,T,09.3,N,A*1A
$IIRMC,164535,A,4613.191,N,00609.521,E,01.6,027,300614,01,E,A*0F
$IIVHW,,,082,M,01.4,N,,*6B
$IIVLW,53349,N,000.6,N*5D
$IIVWR,034,L,10.4,N,,,,*7D
$IIDPT,008.1,+0.7,*49
$IIGLL,4613.191,N,00609.521,E,164536,A,A*53
$IIHDG,089,,,01,E*12
$IIMTW,+15.0,C*3C
$IIMWV,309,R,09.6,N,A*16
$IIMWV,321,T,09.1,N,A*1D
$IIRMC,164536,A,4613.191,N,00609.521,E,01.6,027,300614,01,E,A*0C
$IIVHW,,,089,M,01.4,N,,*60
$IIVLW,53349,N,000.6,N*5D
$IIVWR,058,L,09.1,N,,,,*7A
$IIDPT,008.1,+0.7,*49
$IIGLL,4613.191,N,00609.522,E,164537,A,A*51
$IIHDG,098,,,01,E*12
$IIMTW,+15.0,C*3C
$IIMWV,302,R,09.1,N,A*1A
$IIMWV,301,T,08.6,N,A*19
$IIRMC,164537,A,4613.191,N,00609.522,E,01.3,027,300614,01,E,A*0B
$IIVHW,,,098,M,01.4,N,,*60
$IIVLW,53349,N,000.6,N*5D
$IIVWR,077,L,09.3,N,,,,*75
$IIDPT,008.1,+0.7,*49
$IIGLL,4613.191,N,00609.522,E,164538,A,A*5E
$IIHDG,103,,,01,E*11
$IIMTW,+15.0,C*3C
$IIMWV,283,R,09.3,N,A*10
$IIMWV,293,T,08.3,N,A*16
$IIRMC,164538,A,4613.191,N,00609.522,E,02.1,027,300614,01,E,A*05
$IIVHW,,,111,M,01.6,N,,*62
$IIVLW,53349,N,000.6,N*5D
$IIVWR,085,L,09.4,N,,,,*7F
$IIDPT,008.1,+0.7,*49
$IIGLL,4613.191,N,00609.524,E,164539,A,A*59
$IIHDG,111,,,01,E*12
$IIMTW,+15.0,C*3C
$IIMWV,275,R,09.4,N,A*1E
$IIMWV,273,T,09.0,N,A*1A
$IIRMC,164540,A,4613.191,N,00609.525,E,02.8,136,300614,01,E,A*05
$IIVHW,,,116,M,01.8,N,,*6B
$IIVLW,53349,N,000.6,N*5D
$IIVWR,093,L,08.9,N,,,,*74
$IIDPT,008.1,+0.7,*49
$IIGLL,4613.191,N,00609.525,E,164540,A,A*56
$IIHDG,116,,,01,E*15
$IIMTW,+15.0,C*3C
$IIMWV,267,R,08.9,N,A*11
$IIMWV,256,T,09.1,N,A*1C
$IIRMC,164541,A,4613.190,N,00609.525,E,02.5,135,300614,01,E,A*0B
$IIVHW,,,120,M,01.9,N,,*6F
$IIVLW,53349,N,000.6,N*5D
$IIVWR,098,L,09.3,N,,,,*74
$IIDPT,008.1,+0.7,*49
$IIGLL,4613.190,N,00609.525,E,164541,A,A*56
$IIHDG,120,,,01,E*10
$IIMTW,+15.0,C*3C
$IIMWV,263,R,09.4,N,A*19
$IIMWV,250,T,09.7,N,A*1C
$IIRMC,164542,A,4613.190,N,00609.526,E,02.5,135,300614,01,E,A*0B
$IIVHW,,,123,M,02.1,N,,*67
$IIVLW,53349,N,000.6,N*5D
$IIVWR,097,L,09.4,N,,,,*7C
$IIDPT,008.1,+0.7,*49
$IIGLL,4613.190,N,00609.526,E,164542,A,A*56
$IIHDG,123,,,01,E*13
$IIMTW,+15.0,C*3C
$IIMWV,266,R,09.6,N,A*1E
$IIMWV,250,T,09.8,N,A*13
$IIRMC,164543,A,4613.189,N,00609.527,E,03.1,134,300614,01,E,A*07
$IIVHW,,,124,M,02.4,N,,*65
$IIVLW,53349,N,000.6,N*5D
$IIVWR,094,L,09.6,N,,,,*7D
$IIDPT,008.1,+0.7,*49
$IIGLL,4613.189,N,00609.527,E,164543,A,A*5E
$IIHDG,125,,,01,E*15
$IIMTW,+15.0,C*3C
$IIMWV,275,R,09.6,N,A*1C
$IIMWV,252,T,10.0,N,A*11
$IIRMC,164544,A,4613.189,N,00609.528,E,03.2,133,300614,01,E,A*0B
$IIVHW,,,125,M,02.7,N,,*67
$IIVLW,53349,N,000.6,N*5D
$IIVWR,085,L,09.6,N,,,,*7D
$IIDPT,008.1,+0.7,*49
$IIGLL,4613.188,N,00609.531,E,164546,A,A*5D
$IIHDG,124,,,01,E*14
$IIMTW,+15.0,C*3C
$IIMWV,287,R,09.2,N,A*15
$IIMWV,264,T,09.6,N,A*1A
$IIRMC,164546,A,4613.188,N,00609.531,E,03.7,132,300614,01,E,A*04
$IIVHW,,,124,M,03.1,N,,*61
$IIVLW,53349,N,000.6,N*5D
$IIVWR,073,L,09.2,N,,,,*70
$IIDPT,008.1,+0.7,*49
$IIGLL,4613.187,N,00609.532,E,164547,A,A*50
$IIHDG,125,,,01,E*15
$IIMTW,+15.0,C*3C
$IIMWV,288,R,09.6,N,A*1E
$IIMWV,266,T,08.8,N,A*17
$IIRMC,164547,A,4613.187,N,00609.532,E,03.8,130,300614,01,E,A*04
$IIVHW,,,125,M,03.4,N,,*65
$IIVLW,53349,N,000.6,N*5D
$IIVWR,076,L,09.1,N,,,,*76
$IIDPT,008.1,+0.7,*49
$IIGLL,4613.186,N,00609.533,E,164548,A,A*5F
$IIHDG,126,,,01,E*16
$IIMTW,+15.0,C*3C
$IIMWV,284,R,09.1,N,A*15
$IIMWV,267,T,09.1,N,A*1E
$IIRMC,164548,A,4613.186,N,00609.533,E,04.0,131,300614,01,E,A*05
$IIVHW,,,126,M,03.5,N,,*67
$IIVLW,53349,N,000.6,N*5D
$IIVWR,084,L,09.3,N,,,,*79
$IIDPT,008.1,+0.7,*49
$IIGLL,4613.186,N,00609.535,E,164549,A,A*58
$IIHDG,127,,,01,E*17
$IIMTW,+15.0,C*3C
$IIMWV,276,R,09.3,N,A*1A
$IIMWV,260,T,08.9,N,A*10
$IIRMC,164549,A,4613.186,N,00609.535,E,04.1,131,300614,01,E,A*03
$IIVHW,,,127,M,03.8,N,,*6B
$IIVLW,53349,N,000.6,N*5D
$IIVWR,079,L,09.4,N,,,,*7C
$IIDPT,008.1,+0.7,*49
$IIGLL,4613.185,N,00609.536,E,164550,A,A*50
$IIHDG,127,,,01,E*17
$IIMTW,+15.0,C*3C
$IIMWV,281,R,09.4,N,A*15
$IIMWV,253,T,09.6,N,A*1E
$IIRMC,164551,A,4613.184,N,00609.537,E,04.3,133,300614,01,E,A*0A
$IIVHW,,,129,M,03.9,N,,*64
$IIVWR,080,L,08.9,N,,,,*76
$IIDPT,008.1,+0.7,*49
$IIGLL,4613.184,N,00609.537,E,164551,A,A*51
$IIHDG,129,,,01,E*19
$IIMTW,+15.0,C*3C
$IIMWV,280,R,08.9,N,A*18
$IIMWV,257,T,09.4,N,A*18
$IIRMC,164552,A,4613.183,N,00609.539,E,04.4,133,300614,01,E,A*07
$IIVHW,,,131,M,04.0,N,,*63
$IIVLW,53349,N,000.6,N*5D
$IIVWR,080,L,08.7,N,,,,*78
$IIDPT,008.1,+0.7,*49
$IIGLL,4613.183,N,00609.539,E,164552,A,A*5B
$IIHDG,131,,,01,E*10
$IIMTW,+15.0,C*3C
$IIMWV,280,R,08.7,N,A*16
$IIMWV,253,T,08.8,N,A*11
$IIRMC,164553,A,4613.182,N,00609.540,E,04.7,136,300614,01,E,A*0F
$IIVHW,,,133,M,04.1,N,,*60
$IIVLW,53349,N,000.6,N*5D
$IIVWR,079,L,09.2,N,,,,*7A
$IIDPT,008.1,+0.7,*49
$IIGLL,4613.182,N,00609.540,E,164553,A,A*55
$IIHDG,133,,,01,E*12
$IIMTW,+15.0,C*3C
$IIMWV,279,R,08.9,N,A*1E
$IIMWV,255,T,09.3,N,A*1D
$IIRMC,164554,A,4613.181,N,00609.541,E,04.5,137,300614,01,E,A*09
$IIVHW,,,134,M,04.2,N,,*64
$IIVLW,53349,N,000.6,N*5D
$IIVWR,081,L,08.9,N,,,,*77
$IIDPT,008.1,+0.7,*49
$IIGLL,4613.181,N,00609.541,E,164554,A,A*50
$IIHDG,134,,,01,E*15
$IIMTW,+15.0,C*3C
$IIMWV,282,R,08.8,N,A*1B
$IIMWV,252,T,09.2,N,A*1B
$IIRMC,164554,A,4613.181,N,00609.541,E,04.5,137,300614,01,E,A*09
$IIVHW,,,133,M,04.3,N,,*62
$IIVLW,53349,N,000.6,N*5D
$IIVWR,078,L,08.8,N,,,,*70
$IIDPT,008.1,+0.7,*49
$IIGLL,4613.181,N,00609.541,E,164554,A,A*50
$IIHDG,133,,,01,E*12
$IIMTW,+15.0,C*3C
$IIMWV,284,R,08.5,N,A*10
$IIMWV,254,T,08.9,N,A*17
$IIRMC,164556,A,4613.180,N,00609.544,E,04.2,127,300614,01,E,A*09
$IIVHW,,,133,M,04.4,N,,*65
$IIVLW,53349,N,000.6,N*5D
$IIVWR,076,L,08.5,N,,,,*73
$IIDPT,008.1,+0.7,*49
$IIGLL,4613.179,N,00609.546,E,164557,A,A*53
$IIHDG,133,,,01,E*12
$IIMTW,+15.0,C*3C
$IIMWV,286,R,09.2,N,A*14
$IIMWV,254,T,08.5,N,A*1B
$IIRMC,164557,A,4613.179,N,00609.546,E,04.6,134,300614,01,E,A*0A
$IIVHW,,,133,M,04.4,N,,*65
$IIVLW,53349,N,000.6,N*5D
$IIVWR,074,L,09.2,N,,,,*77
$IIDPT,008.1,+0.7,*49
$IIGLL,4613.178,N,00609.547,E,164558,A,A*5C
$IIHDG,131,,,01,E*10
$IIMTW,+15.0,C*3C
$IIMWV,288,R,09.4,N,A*1C
$IIMWV,258,T,09.0,N,A*13
$IIRMC,164558,A,4613.178,N,00609.547,E,04.7,133,300614,01,E,A*03
$IIVHW,,,131,M,04.4,N,,*67
$IIVLW,53349,N,000.6,N*5D
$IIVWR,070,L,09.7,N,,,,*76
$IIDPT,008.1,+0.7,*49
$IIGLL,4613.177,N,00609.549,E,164559,A,A*5C
$IIHDG,133,,,01,E*12
$IIMTW,+15.0,C*3C
$IIMWV,290,R,09.7,N,A*16
$IIMWV,260,T,09.0,N,A*18
$IIRMC,164559,A,4613.177,N,00609.549,E,04.7,135,300614,01,E,A*05
$IIVHW,,,133,M,04.5,N,,*64
$IIVLW,53349,N,000.6,N*5D
$IIVWR,070,L,09.1,N,,,,*70
$IIDPT,008.1,+0.7,*49
$IIGLL,4613.176,N,00609.550,E,164600,A,A*5A
$IIHDG,133,,,01,E*12
$IIMTW,+15.0,C*3C
$IIMWV,290,R,09.1,N,A*10
$IIMWV,262,T,09.1,N,A*1B
$IIRMC,164600,A,4613.176,N,00609.550,E,05.0,135,300614,01,E,A*05
$IIVHW,,,131,M,04.6,N,,*65
$IIVLW,53349,N,000.6,N*5D
$IIVWR,064,L,09.1,N,,,,*75
$IIDPT,008.1,+0.7,*49
$IIGLL,4613.175,N,00609.551,E,164601,A,A*59
$IIHDG,131,,,01,E*10
$IIMTW,+15.0,C*3C
$IIMWV,296,R,09.1,N,A*16
$IIMWV,259,T,08.6,N,A*15
$IIRMC,164601,A,4613.175,N,00609.551,E,05.1,138,300614,01,E,A*0A
$IIVHW,,,130,M,04.6,N,,*64
$IIVLW,53349,N,000.6,N*5D
$IIVWR,062,L,09.2,N,,,,*70
$IIDPT,008.2,+0.7,*4A
$IIGLL,4613.175,N,00609.551,E,164601,A,A*59
$IIHDG,130,,,01,E*11
$IIMTW,+15.0,C*3C
$IIMWV,298,R,09.2,N,A*1B
$IIMWV,268,T,08.0,N,A*11
$IIRMC,164603,A,4613.173,N,00609.554,E,05.1,133,300614,01,E,A*00
$IIVHW,,,129,M,04.6,N,,*6C
$IIVLW,53349,N,000.6,N*5D
$IIVWR,060,L,09.6,N,,,,*76
$IIDPT,008.2,+0.7,*4A
$IIGLL,4613.173,N,00609.554,E,164603,A,A*58
$IIHDG,129,,,01,E*19
$IIMTW,+15.0,C*3C
$IIMWV,300,R,09.4,N,A*1D
$IIMWV,271,T,08.3,N,A*1A
$IIRMC,164604,A,4613.172,N,00609.556,E,05.1,132,300614,01,E,A*05
$IIVHW,,,128,M,04.7,N,,*6C
$IIVLW,53349,N,000.6,N*5D
$IIVWR,060,L,09.4,N,,,,*74
$IIDPT,008.2,+0.7,*4A
$IIGLL,4613.172,N,00609.556,E,164604,A,A*5C
$IIHDG,128,,,01,E*18
$IIMTW,+15.0,C*3C
$IIMWV,299,R,10.5,N,A*15
$IIMWV,270,T,08.1,N,A*19
$IIRMC,164605,A,4613.171,N,00609.557,E,05.1,132,300614,01,E,A*06
$IIVHW,,,127,M,04.8,N,,*6C
$IIVLW,53349,N,000.6,N*5D
$IIVWR,061,L,10.5,N,,,,*7C
$IIDPT,008.3,+0.7,*4B
$IIGLL,4613.171,N,00609.557,E,164605,A,A*5F
$IIHDG,125,,,01,E*15
$IIMTW,+15.0,C*3C
$IIMWV,301,R,11.1,N,A*10
$IIMWV,272,T,09.5,N,A*1E
$IIRMC,164607,A,4613.169,N,00609.561,E,05.4,131,300614,01,E,A*0E
$IIVHW,,,125,M,04.9,N,,*6F
$IIVLW,53349,N,000.6,N*5D
$IIVWR,059,L,11.1,N,,,,*72
$IIDPT,008.3,+0.7,*4B
$IIGLL,4613.168,N,00609.562,E,164608,A,A*5C
$IIHDG,123,,,01,E*13
$IIMTW,+15.0,C*3C
$IIMWV,302,R,11.1,N,A*13
$IIMWV,275,T,09.5,N,A*19
$IIRMC,164608,A,4613.168,N,00609.562,E,05.1,128,300614,01,E,A*0E
$IIVHW,,,123,M,04.9,N,,*69
$IIVLW,53349,N,000.6,N*5D
$IIVWR,058,L,11.1,N,,,,*73
$IIDPT,008.3,+0.7,*4B
$IIGLL,4613.167,N,00609.564,E,164609,A,A*54
$IIHDG,122,,,01,E*12
$IIMTW,+15.0,C*3C
$IIMWV,305,R,11.1,N,A*14
$IIMWV,275,T,09.4,N,A*18
$IIRMC,164609,A,4613.167,N,00609.564,E,05.4,126,300614,01,E,A*0D
$IIVHW,,,122,M,05.0,N,,*60
$IIVLW,53349,N,000.6,N*5D
$IIVWR,054,L,11.1,N,,,,*7F
$IIDPT,008.3,+0.7,*4B
$IIGLL,4613.166,N,00609.566,E,164610,A,A*5F
$IIHDG,120,,,01,E*10
$IIMTW,+15.0,C*3C
$IIMWV,306,R,11.1,N,A*17
$IIMWV,278,T,09.1,N,A*10
$IIRMC,164610,A,4613.166,N,00609.566,E,05.4,126,300614,01,E,A*06
$IIVHW,,,120,M,05.0,N,,*62
$IIVLW,53349,N,000.6,N*5D
$IIVWR,055,L,11.7,N,,,,*78
$IIDPT,008.3,+0.7,*4B
$IIGLL,4613.165,N,00609.567,E,164611,A,A*5C
$IIHDG,120,,,01,E*10
$IIMTW,+15.0,C*3C
$IIMWV,305,R,11.7,N,A*12
$IIMWV,279,T,09.0,N,A*10
$IIRMC,164611,A,4613.165,N,00609.567,E,05.4,124,300614,01,E,A*07
$IIVHW,,,120,M,05.1,N,,*63
$IIVLW,53349,N,000.6,N*5D
$IIVWR,055,L,11.3,N,,,,*7C
$IIDPT,008.3,+0.7,*4B
$IIGLL,4613.164,N,00609.570,E,164612,A,A*58
$IIHDG,120,,,01,E*10
$IIMTW,+15.0,C*3C
$IIMWV,305,R,11.3,N,A*16
$IIMWV,279,T,09.6,N,A*16
$IIRMC,164612,A,4613.164,N,00609.570,E,05.4,124,300614,01,E,A*03
$IIVHW,,,119,M,05.1,N,,*69
$IIVLW,53349,N,000.6,N*5D
$IIVWR,053,L,11.7,N,,,,*7E
$IIDPT,008.3,+0.7,*4B
$IIGLL,4613.164,N,00609.570,E,164612,A,A*58
$IIHDG,119,,,01,E*1A
$IIMTW,+15.0,C*3C
$IIMWV,307,R,11.7,N,A*10
$IIMWV,282,T,09.4,N,A*10
$IIRMC,164614,A,4613.162,N,00609.573,E,05.4,122,300614,01,E,A*06
$IIVHW,,,117,M,05.1,N,,*67
$IIVLW,53349,N,000.6,N*5D
$IIVWR,050,L,12.0,N,,,,*79
$IIDPT,008.3,+0.7,*4B
$IIGLL,4613.162,N,00609.573,E,164614,A,A*5B
$IIHDG,117,,,01,E*14
$IIMTW,+15.0,C*3C
$IIMWV,314,R,12.4,N,A*12
$IIMWV,285,T,09.5,N,A*16
$IIRMC,164615,A,4613.161,N,00609.575,E,05.4,121,300614,01,E,A*01
$IIVHW,,,116,M,05.1,N,,*66
$IIVLW,53349,N,000.6,N*5D
$IIVWR,046,L,12.4,N,,,,*7A
$IIDPT,008.3,+0.7,*4B
$IIGLL,4613.161,N,00609.575,E,164615,A,A*5F
$IIHDG,116,,,01,E*15
$IIMTW,+15.0,C*3C
$IIMWV,313,R,11.7,N,A*15
$IIMWV,291,T,09.5,N,A*13
$IIRMC,164616,A,4613.161,N,00609.577,E,05.4,120,300614,01,E,A*01
$IIVHW,,,115,M,05.1,N,,*65
$IIVLW,53349,N,000.6,N*5D
$IIVWR,047,L,11.7,N,,,,*7B
$IIDPT,008.3,+0.7,*4B
$IIGLL,4613.161,N,00609.577,E,164616,A,A*5E
$IIHDG,113,,,01,E*10
$IIMTW,+15.0,C*3C
$IIMWV,311,R,12.3,N,A*10
$IIMWV,288,T,08.9,N,A*16
$IIRMC,164617,A,4613.160,N,00609.579,E,05.4,119,300614,01,E,A*05
$IIVHW,,,113,M,05.1,N,,*63
$IIVLW,53349,N,000.6,N*5D
$IIVWR,049,L,12.3,N,,,,*72
$IIDPT,008.3,+0.7,*4B
$IIGLL,4613.159,N,00609.580,E,164618,A,A*53
$IIHDG,115,,,01,E*16
$IIMTW,+15.0,C*3C
$IIMWV,310,R,11.5,N,A*14
$IIMWV,287,T,09.6,N,A*17
$IIRMC,164618,A,4613.159,N,00609.580,E,05.4,117,300614,01,E,A*08
$IIVHW,,,115,M,05.1,N,,*65
$IIVLW,53349,N,000.6,N*5D
$IIVWR,050,L,11.5,N,,,,*7F
$IIDPT,008.3,+0.7,*4B
$IIGLL,4613.159,N,00609.582,E,164619,A,A*50
$IIHDG,118,,,01,E*1B
$IIMTW,+15.0,C*3C
$IIMWV,309,R,12.2,N,A*18
$IIMWV,284,T,09.0,N,A*12
$IIRMC,164619,A,4613.159,N,00609.582,E,05.4,117,300614,01,E,A*0B
$IIVHW,,,118,M,05.1,N,,*68
$IIVLW,53349,N,000.6,N*5D
$IIVWR,051,L,11.5,N,,,,*7E
$IIDPT,008.3,+0.7,*4B
$IIGLL,4613.158,N,00609.584,E,164620,A,A*5D
$IIHDG,121,,,01,E*11
$IIMTW,+15.0,C*3C
$IIMWV,309,R,11.5,N,A*1C
$IIMWV,285,T,09.8,N,A*1B
$IIRMC,164620,A,4613.158,N,00609.584,E,05.3,121,300614,01,E,A*04
$IIVHW,,,121,M,05.1,N,,*62
$IIVLW,53349,N,000.6,N*5D
$IIVWR,050,L,11.0,N,,,,*7A
$IIDPT,008.3,+0.7,*4B
$IIGLL,4613.157,N,00609.586,E,164621,A,A*51
$IIHDG,123,,,01,E*13
$IIMTW,+15.0,C*3C
$IIMWV,310,R,11.0,N,A*11
$IIMWV,283,T,09.1,N,A*14
$IIRMC,164621,A,4613.157,N,00609.586,E,05.3,122,300614,01,E,A*0B
$IIVHW,,,125,M,05.0,N,,*67
$IIVLW,53349,N,000.6,N*5D
$IIVWR,046,L,11.0,N,,,,*7D
$IIDPT,008.3,+0.7,*4B
$IIGLL,4613.156,N,00609.588,E,164622,A,A*5D
$IIHDG,125,,,01,E*15
$IIMTW,+15.0,C*3C
$IIMWV,314,R,11.0,N,A*15
$IIMWV,283,T,08.6,N,A*12
$IIRMC,164623,A,4613.155,N,00609.590,E,05.4,129,300614,01,E,A*00
$IIVHW,,,124,M,05.0,N,,*66
$IIVLW,53349,N,000.6,N*5D
$IIVWR,048,L,10.5,N,,,,*77
$IIDPT,008.3,+0.7,*4B
$IIGLL,4613.155,N,00609.590,E,164623,A,A*56
$IIHDG,124,,,01,E*14
$IIMTW,+15.0,C*3C
$IIMWV,312,R,10.5,N,A*17
$IIMWV,285,T,07.9,N,A*14
$IIRMC,164624,A,4613.154,N,00609.591,E,05.4,128,300614,01,E,A*06
$IIVHW,,,124,M,05.0,N,,*66
$IIVLW,53349,N,000.6,N*5D
$IIVWR,049,L,10.9,N,,,,*7A
$IIDPT,008.3,+0.7,*4B
$IIGLL,4613.154,N,00609.591,E,164624,A,A*51
$IIHDG,124,,,01,E*14
$IIMTW,+15.0,C*3C
$IIMWV,310,R,10.5,N,A*15
$IIMWV,284,T,08.3,N,A*10
$IIRMC,164625,A,4613.153,N,00609.593,E,05.6,129,300614,01,E,A*01
$IIVHW,,,125,M,05.1,N,,*66
$IIVLW,53349,N,000.6,N*5D
$IIVWR,050,L,10.5,N,,,,*7E
$IIDPT,008.3,+0.7,*4B
$IIGLL,4613.153,N,00609.593,E,164625,A,A*55
$IIHDG,125,,,01,E*15
$IIMTW,+15.0,C*3C
$IIMWV,309,R,10.9,N,A*11
$IIMWV,281,T,08.1,N,A*17
$IIRMC,164626,A,4613.152,N,00609.595,E,05.7,128,300614,01,E,A*05
$IIVHW,,,125,M,05.2,N,,*65
$IIVLW,53349,N,000.6,N*5D
$IIVWR,051,L,10.9,N,,,,*73
$IIDPT,008.3,+0.7,*4B
$IIGLL,4613.152,N,00609.595,E,164626,A,A*51
$IIHDG,123,,,01,E*13
$IIMTW,+15.0,C*3C
$IIMWV,308,R,12.2,N,A*19
$IIMWV,282,T,09.3,N,A*17
$IIRMC,164628,A,4613.150,N,00609.599,E,05.8,126,300614,01,E,A*04
$IIVHW,,,123,M,05.4,N,,*65
$IIVLW,53349,N,000.6,N*5D
$IIVWR,052,L,12.2,N,,,,*79
$IIDPT,008.4,+0.7,*4C
$IIGLL,4613.149,N,00609.601,E,164629,A,A*5A
$IIHDG,123,,,01,E*13
$IIMTW,+15.0,C*3C
$IIMWV,309,R,12.4,N,A*1E
$IIMWV,282,T,09.8,N,A*1C
$IIRMC,164629,A,4613.149,N,00609.601,E,05.8,125,300614,01,E,A*0C
$IIVHW,,,123,M,05.4,N,,*65
$IIVLW,53349,N,000.6,N*5D
$IIVWR,051,L,12.4,N,,,,*7C
$IIDPT,008.5,+0.7,*4D
$IIGLL,4613.148,N,00609.603,E,164630,A,A*51
$IIHDG,123,,,01,E*13
$IIMTW,+15.0,C*3C
$IIMWV,308,R,12.6,N,A*1D
$IIMWV,283,T,09.8,N,A*1D
$IIRMC,164630,A,4613.148,N,00609.603,E,06.1,124,300614,01,E,A*0C
$IIVHW,,,123,M,05.5,N,,*64
$IIVLW,53349,N,000.6,N*5D
$IIVWR,053,L,13.1,N,,,,*7A
$IIDPT,008.5,+0.7,*4D
$IIGLL,4613.147,N,00609.605,E,164631,A,A*59
$IIHDG,123,,,01,E*13
$IIMTW,+15.0,C*3C
$IIMWV,307,R,13.1,N,A*14
$IIMWV,282,T,10.1,N,A*1D
$IIRMC,164631,A,4613.147,N,00609.605,E,06.1,126,300614,01,E,A*06
$IIVHW,,,123,M,05.5,N,,*64
$IIVLW,53349,N,000.6,N*5D
$IIVWR,053,L,12.8,N,,,,*72
$IIDPT,008.5,+0.7,*4D
$IIGLL,4613.146,N,00609.607,E,164632,A,A*59
$IIHDG,123,,,01,E*13
$IIMTW,+15.0,C*3C
$IIMWV,307,R,12.8,N,A*1C
$IIMWV,282,T,10.6,N,A*1A
$IIRMC,164632,A,4613.146,N,00609.607,E,06.1,127,300614,01,E,A*07
$IIVHW,,,123,M,05.6,N,,*67
$IIVLW,53349,N,000.6,N*5D
$IIVWR,051,L,12.6,N,,,,*7E
$IIDPT,008.5,+0.7,*4D
$IIGLL,4613.145,N,00609.609,E,164633,A,A*55
$IIHDG,123,,,01,E*13
$IIMTW,+15.0,C*3C
$IIMWV,309,R,12.6,N,A*1C
$IIMWV,281,T,10.3,N,A*1C
$IIRMC,164634,A,4613.144,N,00609.611,E,06.1,127,300614,01,E,A*04
$IIVHW,,,124,M,05.6,N,,*60
$IIVLW,53349,N,000.6,N*5D
$IIVWR,049,L,11.8,N,,,,*7A
$IIDPT,008.5,+0.7,*4D
$IIGLL,4613.144,N,00609.611,E,164634,A,A*5A
$IIHDG,124,,,01,E*14
$IIMTW,+15.0,C*3C
$IIMWV,311,R,11.8,N,A*18
$IIMWV,283,T,09.0,N,A*15
$IIRMC,164635,A,4613.143,N,00609.613,E,06.1,127,300614,01,E,A*00
$IIVHW,,,124,M,05.6,N,,*60
$IIVLW,53349,N,000.6,N*5D
$IIVWR,048,L,11.4,N,,,,*77
$IIDPT,008.5,+0.7,*4D
$IIGLL,4613.143,N,00609.613,E,164635,A,A*5E
$IIHDG,124,,,01,E*14
$IIMTW,+15.0,C*3C
$IIMWV,310,R,11.3,N,A*12
$IIMWV,283,T,08.6,N,A*12
$IIRMC,164636,A,4613.141,N,00609.615,E,06.1,129,300614,01,E,A*09
$IIVHW,,,124,M,05.6,N,,*60
$IIVLW,53349,N,000.6,N*5D
$IIVWR,050,L,11.3,N,,,,*79
$IIDPT,008.5,+0.7,*4D
$IIGLL,4613.141,N,00609.615,E,164636,A,A*59
$IIHDG,124,,,01,E*14
$IIMTW,+15.0,C*3C
$IIMWV,312,R,11.8,N,A*1B
$IIMWV,280,T,08.8,N,A*1F
$IIRMC,164637,A,4613.140,N,00609.617,E,06.1,128,300614,01,E,A*0A
$IIVHW,,,124,M,05.6,N,,*60
$IIVLW,53349,N,000.6,N*5D
$IIVWR,048,L,11.8,N,,,,*7B
$IIDPT,008.5,+0.7,*4D
$IIGLL,4613.140,N,00609.617,E,164637,A,A*5B
$IIHDG,124,,,01,E*14
$IIMTW,+15.0,C*3C
$IIMWV,313,R,12.0,N,A*11
$IIMWV,284,T,08.9,N,A*1A
$IIRMC,164638,A,4613.139,N,00609.619,E,06.3,130,300614,01,E,A*0E
$IIVHW,,,124,M,05.7,N,,*61
$IIVLW,53349,N,000.6,N*5D
$IIVWR,047,L,12.0,N,,,,*7F
$IIDPT,008.5,+0.7,*4D
$IIGLL,4613.138,N,00609.621,E,164639,A,A*5F
$IIHDG,123,,,01,E*13
$IIMTW,+15.0,C*3C
$IIMWV,314,R,11.7,N,A*12
$IIMWV,285,T,09.0,N,A*13
$IIRMC,164639,A,4613.138,N,00609.621,E,06.1,126,300614,01,E,A*00
$IIVHW,,,123,M,05.7,N,,*66
$IIVLW,53349,N,000.6,N*5D
$IIVWR,046,L,11.7,N,,,,*7A
$IIDPT,008.5,+0.7,*4D
$IIGLL,4613.137,N,00609.623,E,164640,A,A*5C
$IIHDG,123,,,01,E*13
$IIMTW,+15.0,C*3C
$IIMWV,314,R,12.0,N,A*16
$IIMWV,285,T,08.6,N,A*14
$IIRMC,164640,A,4613.137,N,00609.623,E,06.1,127,300614,01,E,A*02
$IIVHW,,,123,M,05.7,N,,*66
$IIVLW,53349,N,000.6,N*5D
$IIVWR,045,L,11.5,N,,,,*7B
$IIDPT,008.5,+0.7,*4D
$IIGLL,4613.136,N,00609.625,E,164641,A,A*5A
$IIHDG,123,,,01,E*13
$IIMTW,+15.0,C*3C
$IIMWV,315,R,11.5,N,A*11
$IIMWV,285,T,08.9,N,A*1B
$IIRMC,164641,A,4613.136,N,00609.625,E,06.1,126,300614,01,E,A*05
$IIVHW,,,123,M,05.7,N,,*66
$IIVLW,53349,N,000.6,N*5D
$IIVWR,044,L,11.8,N,,,,*77
$IIDPT,008.5,+0.7,*4D
$IIGLL,4613.135,N,00609.627,E,164642,A,A*58
$IIHDG,123,,,01,E*13
$IIMTW,+15.0,C*3C
$IIMWV,316,R,11.8,N,A*1F
$IIMWV,286,T,08.4,N,A*15
$IIRMC,164642,A,4613.135,N,00609.627,E,06.1,126,300614,01,E,A*07
$IIVHW,,,123,M,05.7,N,,*66
$IIVLW,53349,N,000.6,N*5D
$IIVWR,045,L,12.0,N,,,,*7D
$IIDPT,008.5,+0.7,*4D
$IIGLL,4613.134,N,00609.629,E,164643,A,A*56
$IIHDG,123,,,01,E*13
$IIMTW,+15.0,C*3C
$IIMWV,315,R,12.0,N,A*17
$IIMWV,288,T,08.5,N,A*1A
$IIRMC,164644,A,4613.133,N,00609.631,E,05.8,126,300614,01,E,A*0A
$IIVHW,,,123,M,05.7,N,,*66
$IIVLW,53349,N,000.6,N*5D
$IIVWR,043,L,12.2,N,,,,*79
$IIDPT,008.5,+0.7,*4D
$IIGLL,4613.133,N,00609.631,E,164644,A,A*5F
$IIHDG,123,,,01,E*13
$IIMTW,+15.0,C*3C
$IIMWV,317,R,12.2,N,A*17
$IIMWV,291,T,08.7,N,A*10
$IIRMC,164645,A,4613.132,N,00609.633,E,06.0,125,300614,01,E,A*00
$IIVHW,,,123,M,05.7,N,,*66
$IIVLW,53349,N,000.6,N*5D
$IIVWR,045,L,12.3,N,,,,*7E
$IIDPT,008.5,+0.7,*4D
$IIGLL,4613.132,N,00609.633,E,164645,A,A*5D
$IIHDG,123,,,01,E*13
$IIMTW,+15.0,C*3C
$IIMWV,315,R,12.3,N,A*14
$IIMWV,289,T,09.2,N,A*1D
$IIRMC,164646,A,4613.131,N,00609.635,E,06.0,126,300614,01,E,A*05
$IIVHW,,,122,M,05.7,N,,*67
$IIVLW,53349,N,000.6,N*5D
$IIVWR,045,L,12.3,N,,,,*7E
$IIDPT,008.5,+0.7,*4D
$IIGLL,4613.131,N,00609.635,E,164646,A,A*5B
$IIHDG,122,,,01,E*12
$IIMTW,+15.0,C*3C
$IIMWV,315,R,12.3,N,A*14
$IIMWV,289,T,09.2,N,A*1D
$IIRMC,164647,A,4613.130,N,00609.637,E,05.8,125,300614,01,E,A*0F
$IIVHW,,,122,M,05.7,N,,*67
$IIVLW,53349,N,000.6,N*5D
$IIVWR,045,L,12.3,N,,,,*7E
$IIDPT,008.5,+0.7,*4D
$IIGLL,4613.130,N,00609.637,E,164647,A,A*59
$IIHDG,123,,,01,E*13
$IIMTW,+15.0,C*3C
$IIMWV,314,R,12.3,N,A*15
$IIMWV,289,T,09.2,N,A*1D
$IIRMC,164647,A,4613.130,N,00609.637,E,05.8,125,300614,01,E,A*0F
$IIVHW,,,123,M,05.7,N,,*66
$IIVLW,53349,N,000.6,N*5D
$IIVWR,046,L,12.3,N,,,,*7D
$IIDPT,008.5,+0.7,*4D
$IIGLL,4613.128,N,00609.640,E,164649,A,A*5E
$IIHDG,123,,,01,E*13
$IIMTW,+15.0,C*3C
$IIMWV,314,R,12.3,N,A*15
$IIMWV,287,T,09.2,N,A*13
$IIRMC,164649,A,4613.128,N,00609.640,E,06.0,126,300614,01,E,A*00
$IIVHW,,,123,M,05.7,N,,*66
$IIVLW,53349,N,000.6,N*5D
$IIVWR,046,L,12.3,N,,,,*7D
$IIDPT,008.6,+0.7,*4E
$IIGLL,4613.127,N,00609.642,E,164650,A,A*5B
$IIHDG,123,,,01,E*13
$IIMTW,+15.0,C*3C
$IIMWV,314,R,12.3,N,A*15
$IIMWV,287,T,09.2,N,A*13
$IIRMC,164650,A,4613.127,N,00609.642,E,06.0,125,300614,01,E,A*06
$IIVHW,,,123,M,05.6,N,,*67
$IIVLW,53349,N,000.6,N*5D
$IIVWR,046,L,13.0,N,,,,*7F
$IIDPT,008.8,+0.7,*40
$IIGLL,4613.126,N,00609.644,E,164651,A,A*5D
$IIHDG,123,,,01,E*13
$IIMTW,+15.0,C*3C
$IIMWV,314,R,13.0,N,A*17
$IIMWV,287,T,09.2,N,A*13
$IIRMC,164651,A,4613.126,N,00609.644,E,06.0,126,300614,01,E,A*03
$IIVHW,,,123,M,05.7,N,,*66
$IIVLW,53349,N,000.6,N*5D
$IIVWR,046,L,12.7,N,,,,*79
$IIDPT,008.8,+0.7,*40
$IIGLL,4613.125,N,00609.646,E,164652,A,A*5F
$IIHDG,123,,,01,E*13
$IIMTW,+15.0,C*3C
$IIMWV,314,R,12.7,N,A*11
$IIMWV,289,T,09.8,N,A*17
$IIRMC,164652,A,4613.125,N,00609.646,E,06.0,126,300614,01,E,A*01
$IIVHW,,,123,M,05.7,N,,*66
$IIVLW,53349,N,000.6,N*5D
$IIVWR,045,L,12.6,N,,,,*7B
$IIDPT,008.9,+0.7,*41
$IIGLL,4613.124,N,00609.648,E,164653,A,A*51
$IIHDG,123,,,01,E*13
$IIMTW,+15.0,C*3C
$IIMWV,315,R,12.6,N,A*11
$IIMWV,288,T,09.5,N,A*1B
$IIRMC,164654,A,4613.123,N,00609.651,E,06.2,126,300614,01,E,A*05
$IIVHW,,,123,M,05.7,N,,*66
$IIVLW,53349,N,000.6,N*5D
$IIVWR,047,L,12.6,N,,,,*79
$IIDPT,009.0,+0.7,*49
$IIGLL,4613.123,N,00609.651,E,164654,A,A*59
$IIHDG,123,,,01,E*13
$IIMTW,+15.0,C*3C
$IIMWV,313,R,12.6,N,A*17
$IIMWV,287,T,09.4,N,A*15
$IIRMC,164655,A,4613.121,N,00609.652,E,06.2,126,300614,01,E,A*05
$IIVHW,,,123,M,05.8,N,,*69
$IIVLW,53349,N,000.6,N*5D
$IIVWR,048,L,12.6,N,,,,*76
$IIDPT,009.0,+0.7,*49
$IIGLL,4613.121,N,00609.652,E,164655,A,A*59
$IIHDG,123,,,01,E*13
$IIMTW,+15.0,C*3C
$IIMWV,312,R,13.1,N,A*10
$IIMWV,286,T,09.6,N,A*16
$IIRMC,164656,A,4613.120,N,00609.655,E,06.1,126,300614,01,E,A*03
$IIVHW,,,123,M,05.8,N,,*69
$IIVLW,53349,N,000.6,N*5D
$IIVWR,048,L,13.1,N,,,,*70
$IIDPT,009.0,+0.7,*49
$IIGLL,4613.120,N,00609.655,E,164656,A,A*5C
$IIHDG,123,,,01,E*13
$IIMTW,+15.0,C*3C
$IIMWV,311,R,12.8,N,A*1B
$IIMWV,287,T,10.0,N,A*19
$IIRMC,164657,A,4613.119,N,00609.657,E,06.2,126,300614,01,E,A*09
$IIVHW,,,122,M,05.8,N,,*68
$IIVLW,53349,N,000.6,N*5D
$IIVWR,049,L,12.8,N,,,,*79
$IIDPT,009.0,+0.7,*49
$IIGLL,4613.119,N,00609.657,E,164657,A,A*55
$IIHDG,123,,,01,E*13
$IIMTW,+15.0,C*3C
$IIMWV,311,R,13.1,N,A*13
$IIMWV,285,T,09.9,N,A*1A
$IIRMC,164658,A,4613.118,N,00609.658,E,06.4,125,300614,01,E,A*0D
$IIVHW,,,123,M,05.9,N,,*68
$IIVLW,53349,N,000.6,N*5D
$IIVWR,049,L,13.1,N,,,,*71
$IIDPT,009.0,+0.7,*49
$IIGLL,4613.117,N,00609.661,E,164659,A,A*50
$IIHDG,122,,,01,E*12
$IIMTW,+15.0,C*3C
$IIMWV,312,R,13.9,N,A*18
$IIMWV,285,T,10.1,N,A*1A
$IIRMC,164659,A,4613.117,N,00609.661,E,06.1,123,300614,01,E,A*0A
$IIVHW,,,122,M,06.0,N,,*63
$IIVLW,53349,N,000.6,N*5D
$IIVWR,048,L,13.9,N,,,,*78
$IIDPT,009.0,+0.7,*49
$IIGLL,4613.116,N,00609.663,E,164700,A,A*5E
$IIHDG,122,,,01,E*12
$IIMTW,+15.0,C*3C
$IIMWV,312,R,13.7,N,A*16
$IIMWV,288,T,10.7,N,A*11
$IIRMC,164700,A,4613.116,N,00609.663,E,06.6,124,300614,01,E,A*04
$IIVHW,,,122,M,06.1,N,,*62
$IIVLW,53349,N,000.6,N*5D
$IIVWR,047,L,13.5,N,,,,*7B
$IIDPT,009.0,+0.7,*49
$IIGLL,4613.115,N,00609.665,E,164701,A,A*5A
$IIHDG,121,,,01,E*11
$IIMTW,+15.0,C*3C
$IIMWV,313,R,13.5,N,A*15
$IIMWV,287,T,10.5,N,A*1C
$IIRMC,164701,A,4613.115,N,00609.665,E,06.7,124,300614,01,E,A*01
$IIVHW,,,121,M,06.2,N,,*62
$IIVLW,53349,N,000.6,N*5D
$IIVWR,047,L,14.0,N,,,,*79
$IIDPT,009.0,+0.7,*49
$IIGLL,4613.114,N,00609.668,E,164702,A,A*55
$IIHDG,122,,,01,E*12
$IIMTW,+15.0,C*3C
$IIMWV,313,R,14.0,N,A*17
$IIMWV,287,T,10.2,N,A*1B
$IIRMC,164702,A,4613.114,N,00609.668,E,06.7,124,300614,01,E,A*0E
$IIVHW,,,122,M,06.3,N,,*60
$IIVLW,53349,N,000.6,N*5D
$IIVWR,045,L,13.9,N,,,,*75
$IIDPT,009.0,+0.7,*49
$IIGLL,4613.113,N,00609.670,E,164703,A,A*5A
$IIHDG,122,,,01,E*12
$IIMTW,+15.0,C*3C
$IIMWV,315,R,13.9,N,A*1F
$IIMWV,287,T,10.6,N,A*1F
$IIRMC,164704,A,4613.112,N,00609.673,E,07.0,125,300614,01,E,A*03
$IIVHW,,,122,M,06.4,N,,*67
$IIVLW,53349,N,000.6,N*5D
$IIVWR,045,L,13.7,N,,,,*7B
$IIDPT,009.0,+0.7,*49
$IIGLL,4613.112,N,00609.673,E,164704,A,A*5F
$IIHDG,122,,,01,E*12
$IIMTW,+15.0,C*3C
$IIMWV,315,R,13.7,N,A*11
$IIMWV,289,T,10.2,N,A*15
$IIRMC,164705,A,4613.110,N,00609.675,E,06.7,124,300614,01,E,A*01
$IIVHW,,,123,M,06.4,N,,*66
$IIVLW,53349,N,000.6,N*5D
$IIVWR,045,L,13.3,N,,,,*7F
$IIDPT,009.0,+0.7,*49
$IIGLL,4613.110,N,00609.675,E,164705,A,A*5A
$IIHDG,123,,,01,E*13
$IIMTW,+15.0,C*3C
$IIMWV,313,R,14.4,N,A*13
$IIMWV,288,T,09.8,N,A*16
$IIRMC,164706,A,4613.109,N,00609.677,E,06.7,124,300614,01,E,A*08
$IIVHW,,,123,M,06.3,N,,*61
$IIVLW,53349,N,000.6,N*5D
$IIVWR,047,L,14.4,N,,,,*7D
$IIDPT,009.0,+0.7,*49
$IIGLL,4613.109,N,00609.677,E,164706,A,A*53
$IIHDG,123,,,01,E*13
$IIMTW,+15.0,C*3C
$IIMWV,314,R,13.9,N,A*1E
$IIMWV,287,T,11.0,N,A*18
$IIRMC,164707,A,4613.108,N,00609.680,E,06.7,124,300614,01,E,A*00
$IIVHW,,,122,M,06.3,N,,*60
$IIVLW,53349,N,000.6,N*5D
$IIVWR,046,L,13.9,N,,,,*76
$IIDPT,009.0,+0.7,*49
$IIGLL,4613.108,N,00609.680,E,164707,A,A*5B
$IIHDG,122,,,01,E*12
$IIMTW,+15.0,C*3C
$IIMWV,313,R,14.5,N,A*12
$IIMWV,287,T,10.4,N,A*1D
$IIRMC,164708,A,4613.107,N,00609.682,E,06.4,123,300614,01,E,A*06
$IIVHW,,,122,M,06.3,N,,*60
$IIVLW,53349,N,000.6,N*5D
$IIVWR,047,L,14.5,N,,,,*7C
$IIDPT,009.0,+0.7,*49
$IIGLL,4613.106,N,00609.685,E,164709,A,A*5E
$IIHDG,122,,,01,E*12
$IIMTW,+15.0,C*3C
$IIMWV,312,R,14.0,N,A*16
$IIMWV,288,T,11.0,N,A*17
$IIRMC,164709,A,4613.106,N,00609.685,E,06.4,123,300614,01,E,A*01
$IIVHW,,,122,M,06.3,N,,*60
$IIVLW,53349,N,000.6,N*5D
$IIVWR,048,L,14.0,N,,,,*76
$IIDPT,009.0,+0.7,*49
$IIGLL,4613.105,N,00609.687,E,164710,A,A*57
$IIHDG,123,,,01,E*13
$IIMTW,+15.0,C*3C
$IIMWV,312,R,13.5,N,A*14
$IIMWV,286,T,10.7,N,A*1F
$IIRMC,164710,A,4613.105,N,00609.687,E,06.4,123,300614,01,E,A*08
$IIVHW,,,123,M,06.4,N,,*66
$IIVLW,53349,N,000.6,N*5D
$IIVWR,049,L,14.0,N,,,,*77
$IIDPT,009.0,+0.7,*49
$IIGLL,4613.104,N,00609.690,E,164711,A,A*51
$IIHDG,123,,,01,E*13
$IIMTW,+15.0,C*3C
$IIMWV,311,R,14.0,N,A*15
$IIMWV,285,T,10.2,N,A*19
$IIRMC,164711,A,4613.104,N,00609.690,E,06.2,123,300614,01,E,A*08
$IIVHW,,,123,M,06.4,N,,*66
$IIVLW,53349,N,000.6,N*5D
$IIVWR,049,L,13.7,N,,,,*77
$IIDPT,009.0,+0.7,*49
$IIGLL,4613.103,N,00609.692,E,164712,A,A*57
$IIHDG,123,,,01,E*13
$IIMTW,+15.0,C*3C
$IIMWV,311,R,13.7,N,A*15
$IIMWV,285,T,10.8,N,A*13
$IIRMC,164712,A,4613.103,N,00609.692,E,06.0,121,300614,01,E,A*0E
$IIVHW,,,123,M,06.4,N,,*66
$IIVLW,53349,N,000.6,N*5D
$IIVWR,047,L,14.0,N,,,,*79
$IIDPT,009.0,+0.7,*49
$IIGLL,4613.102,N,00609.694,E,164713,A,A*51
$IIHDG,123,,,01,E*13
$IIMTW,+15.0,C*3C
$IIMWV,313,R,14.0,N,A*17
$IIMWV,284,T,10.5,N,A*1F
$IIRMC,164714,A,4613.101,N,00609.696,E,06.1,126,300614,01,E,A*08
$IIVHW,,,123,M,06.5,N,,*67
$IIVLW,53349,N,000.6,N*5D
$IIVWR,048,L,13.5,N,,,,*74
$IIDPT,009.0,+0.7,*49
$IIGLL,4613.101,N,00609.696,E,164714,A,A*57
$IIHDG,123,,,01,E*13
$IIMTW,+15.0,C*3C
$IIMWV,312,R,13.5,N,A*14
$IIMWV,284,T,10.2,N,A*18
$IIRMC,164715,A,4613.100,N,00609.698,E,06.6,125,300614,01,E,A*02
$IIVHW,,,123,M,06.5,N,,*67
$IIVLW,53349,N,000.6,N*5D
$IIVWR,049,L,14.4,N,,,,*73
$IIDPT,008.9,+0.7,*41
$IIGLL,4613.100,N,00609.698,E,164715,A,A*59
$IIHDG,123,,,01,E*13
$IIMTW,+15.0,C*3C
$IIMWV,310,R,13.9,N,A*1A
$IIMWV,285,T,11.1,N,A*1B
$IIRMC,164716,A,4613.098,N,00609.700,E,06.9,126,300614,01,E,A*0D
$IIVHW,,,123,M,06.6,N,,*64
$IIVLW,53349,N,000.6,N*5D
$IIVWR,050,L,13.9,N,,,,*71
$IIDPT,008.8,+0.7,*40
$IIGLL,4613.098,N,00609.700,E,164716,A,A*5A
$IIHDG,123,,,01,E*13
$IIMTW,+15.0,C*3C
$IIMWV,310,R,14.3,N,A*17
$IIMWV,282,T,10.9,N,A*15
$IIRMC,164717,A,4613.097,N,00609.703,E,07.0,126,300614,01,E,A*08
$IIVHW,,,123,M,06.7,N,,*65
$IIVLW,53349,N,000.6,N*5D
$IIVWR,050,L,14.3,N,,,,*7C
$IIDPT,008.8,+0.7,*40
$IIGLL,4613.097,N,00609.703,E,164717,A,A*57
$IIHDG,123,,,01,E*13
$IIMTW,+15.0,C*3C
$IIMWV,318,R,13.5,N,A*1E
$IIMWV,282,T,11.2,N,A*1F
$IIRMC,164718,A,4613.096,N,00609.705,E,07.2,125,300614,01,E,A*01
$IIVHW,,,123,M,06.8,N,,*6A
$IIVLW,53349,N,000.6,N*5D
$IIVWR,042,L,13.5,N,,,,*7E
$IIDPT,008.8,+0.7,*40
$IIGLL,4613.095,N,00609.708,E,164719,A,A*50
$IIHDG,123,,,01,E*13
$IIMTW,+15.0,C*3C
$IIMWV,319,R,15.7,N,A*1B
$IIMWV,289,T,09.5,N,A*1A
$IIRMC,164719,A,4613.095,N,00609.708,E,07.4,125,300614,01,E,A*08
$IIVHW,,,123,M,06.8,N,,*6A
$IIVLW,53349,N,000.6,N*5D
$IIVWR,041,L,15.7,N,,,,*79
$IIDPT,008.8,+0.7,*40
$IIGLL,4613.094,N,00609.710,E,164720,A,A*52
$IIHDG,121,,,01,E*11
$IIMTW,+15.0,C*3C
$IIMWV,318,R,15.0,N,A*1D
$IIMWV,295,T,11.3,N,A*18
$IIRMC,164720,A,4613.094,N,00609.710,E,07.4,124,300614,01,E,A*0B
$IIVHW,,,121,M,06.8,N,,*68
$IIVLW,53349,N,000.6,N*5D
$IIVWR,044,L,14.5,N,,,,*7F
$IIDPT,008.8,+0.7,*40
$IIGLL,4613.092,N,00609.712,E,164721,A,A*57
$IIHDG,122,,,01,E*12
$IIMTW,+15.0,C*3C
$IIMWV,316,R,14.5,N,A*17
$IIMWV,293,T,10.8,N,A*14
$IIRMC,164721,A,4613.092,N,00609.712,E,07.0,123,300614,01,E,A*0D
$IIVHW,,,122,M,06.8,N,,*6B
$IIVLW,53349,N,000.6,N*5D
$IIVWR,046,L,15.3,N,,,,*7A
$IIDPT,008.8,+0.7,*40
$IIGLL,4613.091,N,00609.715,E,164722,A,A*50
$IIHDG,123,,,01,E*13
$IIMTW,+15.0,C*3C
$IIMWV,314,R,15.3,N,A*12
$IIMWV,290,T,10.6,N,A*19
$IIRMC,164722,A,4613.091,N,00609.715,E,06.9,123,300614,01,E,A*02
$IIVHW,,,125,M,06.6,N,,*62
$IIVLW,53349,N,000.6,N*5D
$IIVWR,053,L,14.1,N,,,,*7D
$IIDPT,008.8,+0.7,*40
$IIGLL,4613.090,N,00609.716,E,164723,A,A*53
$IIHDG,125,,,01,E*15
$IIMTW,+15.0,C*3C
$IIMWV,307,R,14.1,N,A*13
$IIMWV,289,T,11.6,N,A*10
$IIRMC,164724,A,4613.089,N,00609.719,E,07.1,127,300614,01,E,A*0C
$IIVHW,,,126,M,06.6,N,,*61
$IIVLW,53349,N,000.6,N*5D
$IIVWR,053,L,14.1,N,,,,*7D
$IIDPT,008.8,+0.7,*40
$IIGLL,4613.089,N,00609.719,E,164724,A,A*53
$IIHDG,126,,,01,E*16
$IIMTW,+15.0,C*3C
$IIMWV,307,R,14.1,N,A*13
$IIMWV,279,T,11.3,N,A*1A
$IIRMC,164725,A,4613.088,N,00609.721,E,07.1,127,300614,01,E,A*07
$IIVHW,,,126,M,06.5,N,,*62
$IIVLW,53349,N,000.6,N*5D
$IIVWR,052,L,13.5,N,,,,*7F
$IIDPT,008.7,+0.7,*4F
$IIGLL,4613.088,N,00609.721,E,164725,A,A*58
$IIHDG,126,,,01,E*16
$IIMTW,+15.0,C*3C
$IIMWV,307,R,13.3,N,A*16
$IIMWV,279,T,10.7,N,A*1F
$IIRMC,164726,A,4613.087,N,00609.723,E,07.0,130,300614,01,E,A*0E
$IIVHW,,,126,M,06.5,N,,*62
$IIVLW,53349,N,000.6,N*5D
$IIVWR,053,L,13.3,N,,,,*78
$IIDPT,008.6,+0.7,*4E
$IIGLL,4613.087,N,00609.723,E,164726,A,A*56
$IIHDG,126,,,01,E*16
$IIMTW,+15.0,C*3C
$IIMWV,306,R,13.6,N,A*12
$IIMWV,278,T,10.6,N,A*1F
$IIRMC,164727,A,4613.086,N,00609.725,E,07.0,131,300614,01,E,A*09
$IIVHW,,,126,M,06.5,N,,*62
$IIVLW,53349,N,000.6,N*5D
$IIVWR,054,L,13.6,N,,,,*7A
$IIDPT,008.6,+0.7,*4E
$IIGLL,4613.086,N,00609.725,E,164727,A,A*50
$IIHDG,126,,,01,E*16
$IIMTW,+15.0,C*3C
$IIMWV,307,R,14.3,N,A*11
$IIMWV,277,T,10.9,N,A*1F
$IIRMC,164729,A,4613.083,N,00609.729,E,07.1,129,300614,01,E,A*06
$IIVHW,,,126,M,06.5,N,,*62
$IIVLW,53349,N,000.6,N*5D
$IIVWR,053,L,14.3,N,,,,*7F
$IIDPT,008.6,+0.7,*4E
$IIGLL,4613.082,N,00609.731,E,164730,A,A*57
$IIHDG,124,,,01,E*14
$IIMTW,+15.0,C*3C
$IIMWV,309,R,14.0,N,A*1C
$IIMWV,279,T,11.5,N,A*1C
$IIRMC,164730,A,4613.082,N,00609.731,E,06.8,125,300614,01,E,A*02
$IIVHW,,,124,M,06.5,N,,*60
$IIVLW,53349,N,000.6,N*5D
$IIVWR,051,L,14.0,N,,,,*7E
$IIDPT,008.5,+0.7,*4D
$IIGLL,4613.081,N,00609.733,E,164731,A,A*57
$IIHDG,124,,,01,E*14
$IIMTW,+15.0,C*3C
$IIMWV,309,R,14.3,N,A*1F
$IIMWV,282,T,11.1,N,A*1C
$IIRMC,164731,A,4613.081,N,00609.733,E,06.9,126,300614,01,E,A*00
$IIVHW,,,124,M,06.5,N,,*60
$IIVLW,53349,N,000.6,N*5D
$IIVWR,051,L,14.3,N,,,,*7D
$IIDPT,008.5,+0.7,*4D
$IIGLL,4613.080,N,00609.736,E,164732,A,A*50
$IIHDG,124,,,01,E*14
$IIMTW,+15.0,C*3C
$IIMWV,309,R,14.3,N,A*1F
$IIMWV,283,T,11.3,N,A*1F
$IIRMC,164732,A,4613.080,N,00609.736,E,06.9,125,300614,01,E,A*04
$IIVHW,,,124,M,06.5,N,,*60
$IIVLW,53349,N,000.6,N*5D
$IIVWR,053,L,14.8,N,,,,*74
$IIDPT,008.4,+0.7,*4C
$IIGLL,4613.079,N,00609.738,E,164733,A,A*59
$IIHDG,125,,,01,E*15
$IIMTW,+15.0,C*3C
$IIMWV,307,R,14.8,N,A*1A
$IIMWV,282,T,11.3,N,A*1E
$IIRMC,164733,A,4613.079,N,00609.738,E,06.7,125,300614,01,E,A*03
$IIVHW,,,125,M,06.4,N,,*60
$IIVLW,53349,N,000.6,N*5D
$IIVWR,052,L,14.3,N,,,,*7E
$IIDPT,008.3,+0.7,*4B
$IIGLL,4613.078,N,00609.740,E,164734,A,A*50
$IIHDG,125,,,01,E*15
$IIMTW,+15.0,C*3C
$IIMWV,308,R,14.3,N,A*1E
$IIMWV,281,T,12.0,N,A*1D
$IIRMC,164735,A,4613.077,N,00609.743,E,06.7,128,300614,01,E,A*0A
$IIVHW,,,125,M,06.3,N,,*67
$IIVLW,53349,N,000.6,N*5D
$IIVWR,053,L,13.5,N,,,,*7E
$IIDPT,008.3,+0.7,*4B
$IIGLL,4613.077,N,00609.743,E,164735,A,A*5D
$IIHDG,125,,,01,E*15
$IIMTW,+15.0,C*3C
$IIMWV,307,R,13.5,N,A*10
$IIMWV,279,T,10.9,N,A*11
$IIRMC,164736,A,4613.076,N,00609.744,E,07.0,131,300614,01,E,A*01
$IIVHW,,,126,M,06.3,N,,*64
$IIVLW,53349,N,000.6,N*5D
$IIVWR,053,L,13.0,N,,,,*7B
$IIDPT,008.3,+0.7,*4B
$IIGLL,4613.076,N,00609.744,E,164736,A,A*58
$IIHDG,126,,,01,E*16
$IIMTW,+15.0,C*3C
$IIMWV,306,R,12.7,N,A*12
$IIMWV,278,T,10.5,N,A*1C
$IIRMC,164737,A,4613.074,N,00609.747,E,06.7,130,300614,01,E,A*06
$IIVHW,,,127,M,06.3,N,,*65
$IIVLW,53349,N,000.6,N*5D
$IIVWR,054,L,12.7,N,,,,*7A
$IIDPT,008.2,+0.7,*4A
$IIGLL,4613.074,N,00609.747,E,164737,A,A*58
$IIHDG,127,,,01,E*17
$IIMTW,+15.0,C*3C
$IIMWV,306,R,13.0,N,A*14
$IIMWV,276,T,10.2,N,A*15
$IIRMC,164738,A,4613.073,N,00609.749,E,06.7,130,300614,01,E,A*00
$IIVHW,,,127,M,06.2,N,,*64
$IIVLW,53349,N,000.6,N*5D
$IIVWR,054,L,13.0,N,,,,*7C
$IIDPT,008.1,+0.7,*49
$IIGLL,4613.073,N,00609.749,E,164738,A,A*5E
$IIHDG,126,,,01,E*16
$IIMTW,+15.0,C*3C
$IIMWV,305,R,13.1,N,A*16
$IIMWV,275,T,10.4,N,A*10
$IIRMC,164740,A,4613.071,N,00609.753,E,06.7,129,300614,01,E,A*0E
$IIVHW,,,126,M,06.2,N,,*65
$IIVLW,53349,N,000.6,N*5D
$IIVWR,055,L,13.1,N,,,,*7C
$IIDPT,008.1,+0.7,*49
$IIGLL,4613.069,N,00609.755,E,164741,A,A*56
$IIHDG,127,,,01,E*17
$IIMTW,+15.0,C*3C
$IIMWV,306,R,13.3,N,A*17
$IIMWV,276,T,10.7,N,A*10
$IIRMC,164741,A,4613.069,N,00609.755,E,06.8,131,300614,01,E,A*06
$IIVHW,,,127,M,06.3,N,,*65
$IIVLW,53349,N,000.6,N*5D
$IIVWR,054,L,13.3,N,,,,*7F
$IIDPT,008.1,+0.7,*49
$IIGLL,4613.068,N,00609.757,E,164742,A,A*56
$IIHDG,126,,,01,E*16
$IIMTW,+15.0,C*3C
$IIMWV,306,R,12.8,N,A*1D
$IIMWV,278,T,10.8,N,A*11
$IIRMC,164742,A,4613.068,N,00609.757,E,06.8,130,300614,01,E,A*07
$IIVHW,,,126,M,06.3,N,,*64
$IIVLW,53349,N,000.6,N*5D
$IIVWR,055,L,13.1,N,,,,*7C
$IIDPT,008.1,+0.7,*49
$IIGLL,4613.067,N,00609.760,E,164743,A,A*5C
$IIHDG,126,,,01,E*16
$IIMTW,+15.0,C*3C
$IIMWV,305,R,13.1,N,A*16
$IIMWV,276,T,10.3,N,A*14
$IIRMC,164743,A,4613.067,N,00609.760,E,06.8,130,300614,01,E,A*0D
$IIVHW,,,126,M,06.3,N,,*64
$IIVLW,53349,N,000.6,N*5D
$IIVWR,057,L,13.2,N,,,,*7D
$IIDPT,008.1,+0.7,*49
$IIGLL,4613.066,N,00609.762,E,164744,A,A*58
$IIHDG,127,,,01,E*17
$IIMTW,+15.0,C*3C
$IIMWV,303,R,13.2,N,A*13
$IIMWV,275,T,10.7,N,A*13
$IIRMC,164744,A,4613.066,N,00609.762,E,06.8,130,300614,01,E,A*09
$IIVHW,,,129,M,06.3,N,,*6B
$IIVLW,53349,N,000.6,N*5D
$IIVWR,058,L,13.5,N,,,,*75
$IIDPT,008.1,+0.7,*49
$IIGLL,4613.064,N,00609.764,E,164745,A,A*5D
$IIHDG,129,,,01,E*19
$IIMTW,+15.0,C*3C
$IIMWV,302,R,13.5,N,A*15
$IIMWV,274,T,11.0,N,A*14
$IIRMC,164746,A,4613.063,N,00609.766,E,07.1,136,300614,01,E,A*04
$IIVHW,,,129,M,06.4,N,,*6C
$IIVLW,53349,N,000.6,N*5D
$IIVWR,058,L,13.0,N,,,,*70
$IIDPT,008.1,+0.7,*49
$IIGLL,4613.063,N,00609.766,E,164746,A,A*5B
$IIHDG,129,,,01,E*19
$IIMTW,+15.0,C*3C
$IIMWV,302,R,13.0,N,A*10
$IIMWV,272,T,11.0,N,A*12
$IIRMC,164747,A,4613.062,N,00609.768,E,06.9,134,300614,01,E,A*01
$IIVHW,,,128,M,06.4,N,,*6D
$IIVLW,53349,N,000.6,N*5D
$IIVWR,056,L,13.1,N,,,,*7F
$IIDPT,008.1,+0.7,*49
$IIGLL,4613.062,N,00609.768,E,164747,A,A*55
$IIHDG,128,,,01,E*18
$IIMTW,+15.0,C*3C
$IIMWV,304,R,13.2,N,A*14
$IIMWV,275,T,10.8,N,A*1C
$IIRMC,164748,A,4613.061,N,00609.770,E,06.6,127,300614,01,E,A*09
$IIVHW,,,126,M,06.4,N,,*63
$IIVLW,53349,N,000.6,N*5D
$IIVWR,056,L,13.2,N,,,,*7C
$IIDPT,008.1,+0.7,*49
$IIGLL,4613.061,N,00609.770,E,164748,A,A*50
$IIHDG,126,,,01,E*16
$IIMTW,+15.0,C*3C
$IIMWV,305,R,13.5,N,A*12
$IIMWV,275,T,10.9,N,A*1D
$IIRMC,164749,A,4613.060,N,00609.772,E,07.2,131,300614,01,E,A*09
$IIVHW,,,125,M,06.4,N,,*60
$IIVLW,53349,N,000.6,N*5D
$IIVWR,055,L,13.5,N,,,,*78
$IIDPT,008.1,+0.7,*49
$IIGLL,4613.060,N,00609.772,E,164749,A,A*52
$IIHDG,120,,,01,E*10
$IIMTW,+15.0,C*3C
$IIMWV,310,R,13.6,N,A*15
$IIMWV,282,T,11.3,N,A*1E
$IIRMC,164753,A,4613.055,N,00609.781,E,06.8,123,300614,01,E,A*00
$IIVHW,,,120,M,06.4,N,,*65
$IIVLW,53349,N,000.6,N*5D
$IIVWR,050,L,13.6,N,,,,*7E
$IIDPT,008.1,+0.7,*49
$IIGLL,4613.054,N,00609.783,E,164754,A,A*57
$IIHDG,119,,,01,E*1A
$IIMTW,+15.0,C*3C
$IIMWV,312,R,14.3,N,A*15
$IIMWV,282,T,10.6,N,A*1A
$IIRMC,164754,A,4613.054,N,00609.783,E,06.8,122,300614,01,E,A*05
$IIVHW,,,119,M,06.5,N,,*6E
$IIVLW,53349,N,000.6,N*5D
$IIVWR,048,L,14.3,N,,,,*75
$IIDPT,008.2,+0.7,*4A
$IIGLL,4613.053,N,00609.785,E,164755,A,A*57
$IIHDG,119,,,01,E*1A
$IIMTW,+15.0,C*3C
$IIMWV,317,R,14.6,N,A*15
$IIMWV,286,T,10.9,N,A*11
$IIRMC,164755,A,4613.053,N,00609.785,E,06.6,120,300614,01,E,A*09
$IIVHW,,,119,M,06.5,N,,*6E
$IIVLW,53349,N,000.6,N*5D
$IIVWR,042,L,14.8,N,,,,*74
$IIDPT,008.3,+0.7,*4B
$IIGLL,4613.051,N,00609.787,E,164756,A,A*54
$IIHDG,117,,,01,E*14
$IIMTW,+15.0,C*3C
$IIMWV,318,R,14.8,N,A*14
$IIMWV,292,T,10.6,N,A*1B
$IIRMC,164756,A,4613.051,N,00609.787,E,07.4,123,300614,01,E,A*0A
$IIVHW,,,117,M,06.5,N,,*60
$IIVLW,53349,N,000.6,N*5D
$IIVWR,046,L,15.0,N,,,,*79
$IIDPT,008.3,+0.7,*4B
$IIGLL,4613.050,N,00609.790,E,164757,A,A*52
$IIHDG,117,,,01,E*14
$IIMTW,+15.0,C*3C
$IIMWV,314,R,15.0,N,A*11
$IIMWV,293,T,10.7,N,A*1B
$IIRMC,164757,A,4613.050,N,00609.790,E,07.2,120,300614,01,E,A*09
$IIVHW,,,119,M,06.6,N,,*6D
$IIVLW,53349,N,000.6,N*5D
$IIVWR,048,L,10.2,N,,,,*70
$IIDPT,008.3,+0.7,*4B
$IIGLL,4613.050,N,00609.792,E,164758,A,A*5F
$IIHDG,119,,,01,E*1A
$IIMTW,+15.0,C*3C
$IIMWV,312,R,10.2,N,A*10
$IIMWV,289,T,11.4,N,A*12
$IIRMC,164759,A,4613.049,N,00609.795,E,07.1,120,300614,01,E,A*09
$IIVHW,,,120,M,06.6,N,,*67
$IIVLW,53349,N,000.6,N*5D
$IIVWR,047,L,14.1,N,,,,*78
$IIDPT,008.3,+0.7,*4B
$IIGLL,4613.049,N,00609.795,E,164759,A,A*51
$IIHDG,120,,,01,E*10
$IIMTW,+15.0,C*3C
$IIMWV,313,R,14.1,N,A*16
$IIMWV,286,T,10.6,N,A*1E
$IIRMC,164800,A,4613.048,N,00609.797,E,06.9,122,300614,01,E,A*02
$IIVHW,,,120,M,06.5,N,,*64
$IIVLW,53349,N,000.6,N*5D
$IIVWR,045,L,13.9,N,,,,*75
$IIDPT,008.3,+0.7,*4B
$IIGLL,4613.048,N,00609.797,E,164800,A,A*51
$IIHDG,120,,,01,E*10
$IIMTW,+15.0,C*3C
$IIMWV,315,R,13.1,N,A*17
$IIMWV,288,T,10.3,N,A*15
$IIRMC,164801,A,4613.047,N,00609.799,E,06.7,122,300614,01,E,A*0C
$IIVHW,,,119,M,06.4,N,,*6F
$IIVLW,53349,N,000.6,N*5D
$IIVWR,045,L,13.1,N,,,,*7D
$IIDPT,008.3,+0.7,*4B
$IIGLL,4613.047,N,00609.799,E,164801,A,A*51
$IIHDG,119,,,01,E*1A
$IIMTW,+15.0,C*3C
$IIMWV,316,R,13.3,N,A*16
$IIMWV,287,T,09.7,N,A*16
$IIRMC,164802,A,4613.046,N,00609.801,E,06.7,123,300614,01,E,A*01
$IIVHW,,,118,M,06.4,N,,*6E
$IIVLW,53349,N,000.6,N*5D
$IIVWR,044,L,13.3,N,,,,*7E
$IIDPT,008.3,+0.7,*4B
$IIGLL,4613.046,N,00609.801,E,164802,A,A*5D
$IIHDG,117,,,01,E*14
$IIMTW,+15.0,C*3C
$IIMWV,313,R,13.9,N,A*19
$IIMWV,290,T,10.7,N,A*18
$IIRMC,164804,A,4613.044,N,00609.806,E,06.5,119,300614,01,E,A*09
$IIVHW,,,117,M,06.3,N,,*66
$IIVLW,53349,N,000.6,N*5D
$IIVWR,047,L,13.9,N,,,,*77
$IIDPT,008.3,+0.7,*4B
$IIGLL,4613.043,N,00609.808,E,164805,A,A*56
$IIHDG,116,,,01,E*15
$IIMTW,+15.0,C*3C
$IIMWV,313,R,14.4,N,A*13
$IIMWV,287,T,10.5,N,A*1C
$IIRMC,164805,A,4613.043,N,00609.808,E,06.6,121,300614,01,E,A*09
$IIVHW,,,116,M,06.2,N,,*66
$IIVLW,53349,N,000.6,N*5D
$IIVWR,047,L,14.4,N,,,,*7D
$IIDPT,008.3,+0.7,*4B
$IIGLL,4613.042,N,00609.810,E,164806,A,A*5D
$IIHDG,115,,,01,E*16
$IIMTW,+15.0,C*3C
$IIMWV,314,R,14.0,N,A*10
$IIMWV,288,T,11.0,N,A*17
$IIRMC,164806,A,4613.042,N,00609.810,E,06.6,119,300614,01,E,A*09
$IIVHW,,,115,M,06.2,N,,*65
$IIVLW,53349,N,000.6,N*5D
$IIVWR,046,L,14.3,N,,,,*7B
$IIDPT,008.3,+0.7,*4B
$IIGLL,4613.041,N,00609.813,E,164807,A,A*5C
$IIHDG,115,,,01,E*16
$IIMTW,+15.0,C*3C
$IIMWV,314,R,14.3,N,A*13
$IIMWV,289,T,10.5,N,A*12
$IIRMC,164807,A,4613.041,N,00609.813,E,06.5,117,300614,01,E,A*05
$IIVHW,,,115,M,06.1,N,,*66
$IIVLW,53349,N,000.6,N*5D
$IIVWR,049,L,13.7,N,,,,*77
$IIDPT,008.3,+0.7,*4B
$IIGLL,4613.040,N,00609.815,E,164808,A,A*54
$IIHDG,117,,,01,E*14
$IIMTW,+15.0,C*3C
$IIMWV,311,R,13.7,N,A*15
$IIMWV,290,T,10.8,N,A*17
$IIRMC,164808,A,4613.040,N,00609.815,E,06.2,116,300614,01,E,A*0B
$IIVHW,,,121,M,05.9,N,,*6A
$IIVLW,53349,N,000.6,N*5D
$IIVWR,053,L,13.3,N,,,,*78
$IIDPT,008.3,+0.7,*4B
$IIGLL,4613.040,N,00609.817,E,164809,A,A*57
$IIHDG,121,,,01,E*11
$IIMTW,+15.0,C*3C
$IIMWV,307,R,13.3,N,A*16
$IIMWV,286,T,10.6,N,A*1E
$IIRMC,164810,A,4613.039,N,00609.819,E,06.7,123,300614,01,E,A*03
$IIVHW,,,124,M,05.9,N,,*6F
$IIVLW,53349,N,000.6,N*5D
$IIVWR,056,L,13.2,N,,,,*7C
$IIDPT,008.3,+0.7,*4B
$IIGLL,4613.039,N,00609.819,E,164810,A,A*5F
$IIHDG,124,,,01,E*14
$IIMTW,+15.0,C*3C
$IIMWV,304,R,13.2,N,A*14
$IIMWV,277,T,10.9,N,A*1F
$IIRMC,164811,A,4613.037,N,00609.821,E,06.4,127,300614,01,E,A*00
$IIVHW,,,126,M,05.8,N,,*6C
$IIVLW,53349,N,000.6,N*5D
$IIVWR,059,L,13.3,N,,,,*72
$IIDPT,008.3,+0.7,*4B
$IIGLL,4613.037,N,00609.821,E,164811,A,A*5B
$IIHDG,126,,,01,E*16
$IIMTW,+15.0,C*3C
$IIMWV,303,R,13.3,N,A*12
$IIMWV,275,T,11.4,N,A*11
$IIRMC,164812,A,4613.036,N,00609.823,E,06.4,129,300614,01,E,A*0E
$IIVHW,,,126,M,05.8,N,,*6C
$IIVLW,53349,N,000.6,N*5D
$IIVWR,057,L,13.3,N,,,,*7C
$IIDPT,008.3,+0.7,*4B
$IIGLL,4613.036,N,00609.823,E,164812,A,A*5B
$IIHDG,126,,,01,E*16
$IIMTW,+15.0,C*3C
$IIMWV,304,R,13.2,N,A*14
$IIMWV,276,T,11.1,N,A*17
$IIRMC,164813,A,4613.035,N,00609.825,E,06.5,128,300614,01,E,A*0A
$IIVHW,,,124,M,05.9,N,,*6F
$IIVLW,53349,N,000.6,N*5D
$IIVWR,056,L,13.2,N,,,,*7C
$IIDPT,008.3,+0.7,*4B
$IIGLL,4613.035,N,00609.825,E,164813,A,A*5F
$IIHDG,122,,,01,E*12
$IIMTW,+15.0,C*3C
$IIMWV,305,R,13.2,N,A*15
$IIMWV,277,T,10.9,N,A*1F
$IIRMC,164814,A,4613.034,N,00609.828,E,06.5,128,300614,01,E,A*01
$IIVHW,,,122,M,06.0,N,,*63
$IIVLW,53349,N,000.6,N*5D
$IIVWR,055,L,13.2,N,,,,*7F
$IIDPT,008.3,+0.7,*4B
$IIGLL,4613.033,N,00609.830,E,164815,A,A*5B
$IIHDG,120,,,01,E*10
$IIMTW,+15.0,C*3C
$IIMWV,307,R,14.3,N,A*11
$IIMWV,278,T,10.9,N,A*10
$IIRMC,164815,A,4613.033,N,00609.830,E,06.5,126,300614,01,E,A*00
$IIVHW,,,120,M,06.0,N,,*61
$IIVLW,53349,N,000.6,N*5D
$IIVWR,053,L,14.3,N,,,,*7F
$IIDPT,008.3,+0.7,*4B
$IIGLL,4613.032,N,00609.832,E,164816,A,A*5B
$IIHDG,119,,,01,E*1A
$IIMTW,+15.0,C*3C
$IIMWV,309,R,13.9,N,A*12
$IIMWV,282,T,11.6,N,A*1B
$IIRMC,164816,A,4613.032,N,00609.832,E,06.5,122,300614,01,E,A*04
$IIVHW,,,119,M,06.0,N,,*6B
$IIVLW,53349,N,000.6,N*5D
$IIVWR,049,L,13.5,N,,,,*75
$IIDPT,008.3,+0.7,*4B
$IIGLL,4613.031,N,00609.834,E,164817,A,A*5F
$IIHDG,117,,,01,E*14
$IIMTW,+15.0,C*3C
$IIMWV,311,R,13.5,N,A*17
$IIMWV,284,T,11.1,N,A*1A
$IIRMC,164817,A,4613.031,N,00609.834,E,06.5,121,300614,01,E,A*03
$IIVHW,,,117,M,06.1,N,,*64
$IIVLW,53349,N,000.6,N*5D
$IIVWR,048,L,13.2,N,,,,*73
$IIDPT,008.3,+0.7,*4B
$IIGLL,4613.030,N,00609.836,E,164818,A,A*53
$IIHDG,117,,,01,E*14
$IIMTW,+15.0,C*3C
$IIMWV,312,R,13.2,N,A*13
$IIMWV,285,T,10.4,N,A*1F
$IIRMC,164818,A,4613.030,N,00609.836,E,06.5,121,300614,01,E,A*0F
$IIVHW,,,117,M,06.1,N,,*64
$IIVLW,53349,N,000.6,N*5D
$IIVWR,049,L,14.1,N,,,,*76
$IIDPT,008.3,+0.7,*4B
$IIGLL,4613.029,N,00609.839,E,164819,A,A*55
$IIHDG,117,,,01,E*14
$IIMTW,+15.0,C*3C
$IIMWV,311,R,14.1,N,A*14
$IIMWV,285,T,10.0,N,A*1B
$IIRMC,164820,A,4613.028,N,00609.841,E,05.5,114,300614,01,E,A*08
$IIVHW,,,119,M,06.1,N,,*6A
$IIVLW,53349,N,000.6,N*5D
$IIVWR,052,L,13.9,N,,,,*73
$IIDPT,008.3,+0.7,*4B
$IIGLL,4613.028,N,00609.841,E,164820,A,A*51
$IIHDG,119,,,01,E*1A
$IIMTW,+15.0,C*3C
$IIMWV,308,R,13.9,N,A*13
$IIMWV,283,T,11.1,N,A*1D
$IIRMC,164821,A,4613.028,N,00609.843,E,06.3,122,300614,01,E,A*0B
$IIVHW,,,120,M,06.1,N,,*60
$IIVLW,53349,N,000.6,N*5D
$IIVWR,051,L,13.5,N,,,,*7C
$IIDPT,008.3,+0.7,*4B
$IIGLL,4613.028,N,00609.843,E,164821,A,A*52
$IIHDG,120,,,01,E*10
$IIMTW,+15.0,C*3C
$IIMWV,312,R,14.1,N,A*17
$IIMWV,283,T,10.7,N,A*1A
$IIRMC,164822,A,4613.027,N,00609.846,E,06.6,124,300614,01,E,A*01
$IIVHW,,,120,M,06.1,N,,*60
$IIVLW,53349,N,000.6,N*5D
$IIVWR,048,L,14.1,N,,,,*77
$IIDPT,008.3,+0.7,*4B
$IIGLL,4613.027,N,00609.846,E,164822,A,A*5B
$IIHDG,120,,,01,E*10
$IIMTW,+15.0,C*3C
$IIMWV,312,R,14.5,N,A*13
$IIMWV,287,T,10.9,N,A*10
$IIRMC,164823,A,4613.025,N,00609.848,E,06.8,124,300614,01,E,A*02
$IIVHW,,,120,M,06.1,N,,*60
$IIVLW,53349,N,000.6,N*5D
$IIVWR,048,L,14.5,N,,,,*73
$IIDPT,008.3,+0.7,*4B
$IIGLL,4613.025,N,00609.848,E,164823,A,A*56
$IIHDG,119,,,01,E*1A
$IIMTW,+15.0,C*3C
$IIMWV,310,R,14.5,N,A*11
$IIMWV,289,T,11.2,N,A*14
$IIRMC,164824,A,4613.024,N,00609.850,E,06.6,123,300614,01,E,A*04
$IIVHW,,,119,M,06.1,N,,*6A
$IIVLW,53349,N,000.6,N*5D
$IIVWR,050,L,14.5,N,,,,*7A
$IIDPT,008.3,+0.7,*4B
$IIGLL,4613.023,N,00609.852,E,164825,A,A*5D
$IIHDG,120,,,01,E*10
$IIMTW,+15.0,C*3C
$IIMWV,309,R,14.5,N,A*19
$IIMWV,285,T,11.4,N,A*1E
$IIRMC,164825,A,4613.023,N,00609.852,E,06.7,123,300614,01,E,A*01
$IIVHW,,,120,M,06.2,N,,*63
$IIVLW,53349,N,000.6,N*5D
$IIVWR,051,L,14.5,N,,,,*7B
$IIDPT,008.3,+0.7,*4B
$IIGLL,4613.022,N,00609.854,E,164826,A,A*59
$IIHDG,120,,,01,E*10
$IIMTW,+15.0,C*3C
$IIMWV,311,R,13.9,N,A*1B
$IIMWV,285,T,11.6,N,A*1C
$IIRMC,164826,A,4613.022,N,00609.854,E,06.8,124,300614,01,E,A*0D
$IIVHW,,,120,M,06.2,N,,*63
$IIVLW,53349,N,000.6,N*5D
$IIVWR,048,L,13.5,N,,,,*74
$IIDPT,008.3,+0.7,*4B
$IIGLL,4613.021,N,00609.856,E,164827,A,A*59
$IIHDG,120,,,01,E*10
$IIMTW,+15.0,C*3C
$IIMWV,312,R,13.5,N,A*14
$IIMWV,285,T,10.7,N,A*1C
$IIRMC,164827,A,4613.021,N,00609.856,E,06.8,124,300614,01,E,A*0D
$IIVHW,,,120,M,06.3,N,,*62
$IIVLW,53349,N,000.6,N*5D
$IIVWR,048,L,14.1,N,,,,*77
$IIDPT,008.3,+0.7,*4B
$IIGLL,4613.020,N,00609.859,E,164828,A,A*58
$IIHDG,119,,,01,E*1A
$IIMTW,+15.0,C*3C
$IIMWV,312,R,14.1,N,A*17
$IIMWV,285,T,10.2,N,A*19
$IIRMC,164828,A,4613.020,N,00609.859,E,06.8,122,300614,01,E,A*0A
$IIVHW,,,118,M,06.4,N,,*6E
$IIVLW,53349,N,000.6,N*5D
$IIVWR,045,L,13.9,N,,,,*75
$IIDPT,008.3,+0.7,*4B
$IIGLL,4613.019,N,00609.861,E,164829,A,A*58
$IIHDG,118,,,01,E*1B
$IIMTW,+15.0,C*3C
$IIMWV,315,R,13.9,N,A*1F
$IIMWV,286,T,10.8,N,A*10
$IIRMC,164830,A,4613.018,N,00609.863,E,07.2,123,300614,01,E,A*0B
$IIVHW,,,117,M,06.4,N,,*61
$IIVLW,53349,N,000.6,N*5D
$IIVWR,044,L,14.4,N,,,,*7E
$IIDPT,008.3,+0.7,*4B
$IIGLL,4613.018,N,00609.863,E,164830,A,A*53
$IIHDG,117,,,01,E*14
$IIMTW,+15.0,C*3C
$IIMWV,316,R,14.4,N,A*16
$IIMWV,291,T,10.6,N,A*18
$IIRMC,164831,A,4613.017,N,00609.865,E,06.8,119,300614,01,E,A*01
$IIVHW,,,118,M,06.4,N,,*6E
$IIVLW,53349,N,000.6,N*5D
$IIVWR,045,L,14.6,N,,,,*7D
$IIDPT,008.3,+0.7,*4B
$IIGLL,4613.017,N,00609.865,E,164831,A,A*5B
$IIHDG,118,,,01,E*1B
$IIMTW,+15.0,C*3C
$IIMWV,315,R,14.8,N,A*19
$IIMWV,291,T,11.0,N,A*1F
$IIRMC,164832,A,4613.016,N,00609.868,E,06.8,119,300614,01,E,A*0E
$IIVHW,,,118,M,06.5,N,,*6F
$IIVLW,53349,N,000.6,N*5D
$IIVWR,045,L,14.8,N,,,,*73
$IIDPT,008.3,+0.7,*4B
$IIGLL,4613.016,N,00609.868,E,164832,A,A*54
$IIHDG,118,,,01,E*1B
$IIMTW,+15.0,C*3C
$IIMWV,316,R,15.4,N,A*17
$IIMWV,291,T,11.2,N,A*1D
$IIRMC,164833,A,4613.015,N,00609.870,E,06.9,122,300614,01,E,A*0C
$IIVHW,,,117,M,06.5,N,,*60
$IIVLW,53349,N,000.6,N*5D
$IIVWR,044,L,15.4,N,,,,*7F
$IIDPT,008.3,+0.7,*4B
$IIGLL,4613.015,N,00609.870,E,164833,A,A*5F
$IIHDG,116,,,01,E*15
$IIMTW,+15.0,C*3C
$IIMWV,317,R,14.3,N,A*10
$IIMWV,293,T,11.5,N,A*18
$IIRMC,164834,A,4613.014,N,00609.873,E,06.8,118,300614,01,E,A*01
$IIVHW,,,116,M,06.5,N,,*61
$IIVLW,53349,N,000.6,N*5D
$IIVWR,043,L,14.3,N,,,,*7E
$IIDPT,008.3,+0.7,*4B
$IIGLL,4613.013,N,00609.875,E,164835,A,A*5A
$IIHDG,116,,,01,E*15
$IIMTW,+15.0,C*3C
$IIMWV,318,R,14.4,N,A*18
$IIMWV,292,T,10.4,N,A*19
$IIRMC,164835,A,4613.013,N,00609.875,E,06.8,112,300614,01,E,A*0B
$IIVHW,,,116,M,06.5,N,,*61
$IIVLW,53349,N,000.6,N*5D
$IIVWR,042,L,14.4,N,,,,*78
$IIDPT,008.3,+0.7,*4B
$IIGLL,4613.013,N,00609.877,E,164836,A,A*5B
$IIHDG,116,,,01,E*15
$IIMTW,+15.0,C*3C
$IIMWV,314,R,14.5,N,A*15
$IIMWV,293,T,10.4,N,A*18
$IIRMC,164836,A,4613.013,N,00609.877,E,06.7,113,300614,01,E,A*04
$IIVHW,,,116,M,06.5,N,,*61
$IIVLW,53349,N,000.6,N*5D
$IIVWR,046,L,15.3,N,,,,*7A
$IIDPT,008.3,+0.7,*4B
$IIGLL,4613.012,N,00609.880,E,164837,A,A*53
$IIHDG,116,,,01,E*15
$IIMTW,+15.0,C*3C
$IIMWV,314,R,15.3,N,A*12
$IIMWV,289,T,10.9,N,A*1E
$IIRMC,164837,A,4613.012,N,00609.880,E,06.7,114,300614,01,E,A*0B
$IIVHW,,,116,M,06.4,N,,*60
$IIVLW,53349,N,000.6,N*5D
$IIVWR,043,L,14.9,N,,,,*74
$IIDPT,008.3,+0.7,*4B
$IIGLL,4613.011,N,00609.882,E,164838,A,A*5D
$IIHDG,116,,,01,E*15
$IIMTW,+15.0,C*3C
$IIMWV,317,R,14.9,N,A*1A
$IIMWV,290,T,11.7,N,A*19
$IIRMC,164838,A,4613.011,N,00609.882,E,06.6,115,300614,01,E,A*05
$IIVHW,,,119,M,06.3,N,,*68
$IIVLW,53349,N,000.6,N*5D
$IIVWR,043,L,14.1,N,,,,*7C
$IIDPT,008.3,+0.7,*4B
$IIGLL,4613.010,N,00609.885,E,164839,A,A*5A
$IIHDG,119,,,01,E*1A
$IIMTW,+15.0,C*3C
$IIMWV,317,R,14.1,N,A*12
$IIMWV,293,T,11.0,N,A*1D
$IIRMC,164840,A,4613.009,N,00609.887,E,06.6,121,300614,01,E,A*01
$IIVHW,,,120,M,06.2,N,,*63
$IIVLW,53349,N,000.6,N*5D
$IIVWR,046,L,13.7,N,,,,*78
$IIDPT,008.3,+0.7,*4B
$IIGLL,4613.009,N,00609.887,E,164840,A,A*5E
$IIHDG,120,,,01,E*10
$IIMTW,+15.0,C*3C
$IIMWV,314,R,13.7,N,A*10
$IIMWV,287,T,10.2,N,A*1B
$IIRMC,164841,A,4613.008,N,00609.889,E,06.6,123,300614,01,E,A*0D
$IIVHW,,,120,M,06.2,N,,*63
$IIVLW,53349,N,000.6,N*5D
$IIVWR,044,L,13.5,N,,,,*78
$IIDPT,008.3,+0.7,*4B
$IIGLL,4613.008,N,00609.889,E,164841,A,A*50
$IIHDG,120,,,01,E*10
$IIMTW,+15.0,C*3C
$IIMWV,316,R,13.0,N,A*15
$IIMWV,291,T,09.9,N,A*1F
$IIRMC,164842,A,4613.007,N,00609.892,E,06.6,124,300614,01,E,A*0C
$IIVHW,,,121,M,06.1,N,,*61
$IIVLW,53349,N,000.6,N*5D
$IIVWR,044,L,13.0,N,,,,*7D
$IIDPT,008.3,+0.7,*4B
$IIGLL,4613.007,N,00609.892,E,164842,A,A*56
$IIHDG,121,,,01,E*11
$IIMTW,+15.0,C*3C
$IIMWV,313,R,12.7,N,A*16
$IIMWV,289,T,09.4,N,A*1B
$IIRMC,164843,A,4613.006,N,00609.894,E,06.6,123,300614,01,E,A*0D
$IIVHW,,,122,M,06.1,N,,*62
$IIVLW,53349,N,000.6,N*5D
$IIVWR,047,L,12.7,N,,,,*78
$IIDPT,008.3,+0.7,*4B
$IIGLL,4613.006,N,00609.894,E,164843,A,A*50
$IIHDG,123,,,01,E*13
$IIMTW,+15.0,C*3C
$IIMWV,311,R,13.1,N,A*13
$IIMWV,285,T,09.5,N,A*16
$IIRMC,164844,A,4613.005,N,00609.896,E,06.2,124,300614,01,E,A*08
$IIVHW,,,123,M,06.1,N,,*63
$IIVLW,53349,N,000.6,N*5D
$IIVWR,049,L,13.1,N,,,,*71
$IIDPT,008.3,+0.7,*4B
$IIGLL,4613.004,N,00609.899,E,164845,A,A*59
$IIHDG,123,,,01,E*13
$IIMTW,+15.0,C*3C
$IIMWV,310,R,13.2,N,A*11
$IIMWV,284,T,10.1,N,A*1B
$IIRMC,164845,A,4613.004,N,00609.899,E,06.5,124,300614,01,E,A*00
$IIVHW,,,123,M,06.1,N,,*63
$IIVLW,53349,N,000.6,N*5D
$IIVWR,050,L,13.2,N,,,,*7A
$IIDPT,008.3,+0.7,*4B
$IIGLL,4613.003,N,00609.901,E,164846,A,A*5D
$IIHDG,122,,,01,E*12
$IIMTW,+15.0,C*3C
$IIMWV,311,R,13.3,N,A*11
$IIMWV,283,T,10.3,N,A*1E
$IIRMC,164846,A,4613.003,N,00609.901,E,06.1,125,300614,01,E,A*01
$IIVHW,,,122,M,06.0,N,,*63
$IIVLW,53349,N,000.6,N*5D
$IIVWR,049,L,13.5,N,,,,*75
$IIDPT,008.3,+0.7,*4B
$IIGLL,4613.002,N,00609.902,E,164847,A,A*5E
$IIHDG,122,,,01,E*12
$IIMTW,+15.0,C*3C
$IIMWV,311,R,13.5,N,A*17
$IIMWV,285,T,10.2,N,A*19
$IIRMC,164847,A,4613.002,N,00609.902,E,05.5,124,300614,01,E,A*04
$IIVHW,,,122,M,06.0,N,,*63
$IIVLW,53349,N,000.6,N*5D
$IIVWR,049,L,13.0,N,,,,*70
$IIDPT,008.3,+0.7,*4B
$IIGLL,4613.001,N,00609.904,E,164848,A,A*54
$IIHDG,121,,,01,E*11
$IIMTW,+15.0,C*3C
$IIMWV,311,R,13.0,N,A*12
$IIMWV,286,T,10.5,N,A*1D
$IIRMC,164848,A,4613.001,N,00609.904,E,06.5,123,300614,01,E,A*0A
$IIVHW,,,119,M,05.9,N,,*61
$IIVLW,53349,N,000.6,N*5D
$IIVWR,047,L,13.1,N,,,,*7F
$IIDPT,008.3,+0.7,*4B
$IIGLL,4613.001,N,00609.904,E,164848,A,A*54
$IIHDG,119,,,01,E*1A
$IIMTW,+15.0,C*3C
$IIMWV,313,R,13.1,N,A*11
$IIMWV,285,T,10.0,N,A*1B
$IIRMC,164850,A,4612.999,N,00609.909,E,06.4,122,300614,01,E,A*07
$IIVHW,,,120,M,05.9,N,,*6B
$IIVLW,53349,N,000.6,N*5D
$IIVWR,046,L,13.2,N,,,,*7D
$IIDPT,008.3,+0.7,*4B
$IIGLL,4612.999,N,00609.909,E,164850,A,A*59
$IIHDG,120,,,01,E*10
$IIMTW,+15.0,C*3C
$IIMWV,314,R,13.2,N,A*15
$IIMWV,289,T,10.0,N,A*17
$IIRMC,164851,A,4612.998,N,00609.911,E,06.4,122,300614,01,E,A*0E
$IIVHW,,,122,M,05.9,N,,*69
$IIVLW,53349,N,000.6,N*5D
$IIVWR,048,L,13.0,N,,,,*71
$IIDPT,008.3,+0.7,*4B
$IIGLL,4612.998,N,00609.911,E,164851,A,A*50
$IIHDG,122,,,01,E*12
$IIMTW,+15.0,C*3C
$IIMWV,311,R,12.7,N,A*14
$IIMWV,286,T,10.0,N,A*18
$IIRMC,164852,A,4612.997,N,00609.913,E,06.3,125,300614,01,E,A*00
$IIVHW,,,122,M,05.8,N,,*68
