$IIVWR,006,L,01.1,N,,,,*79
$IIHDG,329,,,01,E*1B
$IIMWV,354,R,01.1,N,A*11
$IIVHW,,,329,M,,,,*3C
$IIVLW,01522,N,000.0,N*57
$IIVWR,017,R,02.2,N,,,,*67
$IIHDG,257,,,01,E*13
$IIMTW,+00.0,C*38
$IIMWV,017,R,02.2,N,A*15
$IIVHW,,,257,M,03.4,N,,*63
$IIVLW,01522,N,000.0,N*57
$IIVWR,116,R,03.3,N,,,,*67
$IIHDG,227,,,01,E*14
$IIMTW,+15.0,C*3C
$IIMWV,116,R,03.3,N,A*15
$IIMWV,155,T,01.4,N,A*11
$IIVHW,,,227,M,03.6,N,,*66
$IIVLW,01522,N,000.0,N*57
$IIVWR,139,R,04.0,N,,,,*6E
$IIDPT,013.3,-1.0,*41
$IIHDG,218,,,01,E*18
$IIMTW,+15.5,C*39
$IIMWV,139,R,04.0,N,A*1C
$IIMWV,150,T,05.8,N,A*1C
$IIVHW,,,218,M,03.8,N,,*64
$IIVLW,01522,N,000.0,N*57
$IIVWR,146,R,04.7,N,,,,*61
$IIDPT,013.8,-1.0,*4A
$IIHDG,216,,,01,E*16
$IIMTW,+15.5,C*39
$IIMWV,146,R,04.7,N,A*13
$IIMWV,159,T,07.2,N,A*1D
$IIVHW,,,216,M,03.9,N,,*6B
$IIVLW,01522,N,000.0,N*57
$IIVWR,151,R,05.0,N,,,,*61
$IIDPT,013.8,-1.0,*4A
$IIHDG,215,,,01,E*15
$IIMTW,+15.5,C*39
$IIMWV,151,R,05.0,N,A*13
$IIMWV,162,T,08.3,N,A*1B
$IIVHW,,,215,M,04.0,N,,*66
$IIVLW,01522,N,000.0,N*57
$IIVWR,148,R,05.3,N,,,,*6A
$IIDPT,013.4,-1.0,*46
$IIHDG,214,,,01,E*14
$IIMTW,+15.5,C*39
$IIMWV,148,R,05.3,N,A*18
$IIMWV,164,T,08.7,N,A*19
$IIVHW,,,214,M,04.1,N,,*66
$IIVLW,01522,N,000.0,N*57
$IIVWR,148,R,05.7,N,,,,*6E
$IIDPT,013.0,-1.0,*42
$IIHDG,215,,,01,E*15
$IIMTW,+15.5,C*39
$IIMWV,148,R,05.7,N,A*1C
$IIMWV,162,T,09.1,N,A*18
$IIVHW,,,215,M,04.2,N,,*64
$IIVLW,01522,N,000.0,N*57
$IIVWR,143,R,05.9,N,,,,*6B
$IIDPT,013.0,-1.0,*42
$IIHDG,216,,,01,E*16
$IIMTW,+15.5,C*39
$IIMWV,143,R,05.9,N,A*19
$IIMWV,162,T,09.5,N,A*1C
$IIVHW,,,216,M,04.3,N,,*66
$IIVLW,01522,N,000.0,N*57
$IIVWR,136,R,06.0,N,,,,*63
$IIDPT,013.0,-1.0,*42
$IIHDG,217,,,01,E*17
$IIMTW,+16.0,C*3F
$IIMWV,136,R,06.0,N,A*11
$IIMWV,159,T,09.6,N,A*17
$IIVHW,,,217,M,04.3,N,,*67
$IIVLW,01522,N,000.0,N*57
$IIVWR,131,R,06.3,N,,,,*67
$IIDPT,013.0,-1.0,*42
$IIHDG,217,,,01,E*17
$IIMTW,+16.0,C*3F
$IIMWV,131,R,06.3,N,A*15
$IIMWV,155,T,09.6,N,A*1B
$IIVHW,,,217,M,04.4,N,,*60
$IIVLW,01522,N,000.0,N*57
$IIVWR,129,R,06.6,N,,,,*6B
$IIDPT,013.0,-1.0,*42
$IIHDG,218,,,01,E*18
$IIMTW,+16.0,C*3F
$IIMWV,129,R,06.6,N,A*19
$IIMWV,151,T,09.7,N,A*1E
$IIVHW,,,218,M,04.4,N,,*6F
$IIVLW,01522,N,000.0,N*57
$IIVWR,127,R,06.8,N,,,,*6B
$IIDPT,013.0,-1.0,*42
$IIHDG,219,,,01,E*19
$IIMTW,+16.5,C*3A
$IIMWV,127,R,06.8,N,A*19
$IIMWV,149,T,09.9,N,A*19
$IIVHW,,,219,M,04.4,N,,*6E
$IIVLW,01522,N,000.0,N*57
$IIVWR,128,R,07.1,N,,,,*6C
$IIDPT,013.0,-1.0,*42
$IIHDG,219,,,01,E*19
$IIMTW,+16.5,C*3A
$IIMWV,128,R,07.1,N,A*1E
$IIMWV,147,T,10.0,N,A*16
$IIVHW,,,219,M,04.4,N,,*6E
$IIVLW,01522,N,000.0,N*57
$IIVWR,127,R,07.2,N,,,,*60
$IIDPT,013.0,-1.0,*42
$IIHDG,219,,,01,E*19
$IIMTW,+16.5,C*3A
$IIMWV,127,R,07.2,N,A*12
$IIMWV,148,T,10.5,N,A*1C
$IIVHW,,,219,M,04.5,N,,*6F
$IIVLW,01522,N,000.0,N*57
$IIVWR,125,R,07.3,N,,,,*63
$IIDPT,013.0,-1.0,*42
$IIHDG,220,,,01,E*13
$IIMTW,+16.0,C*3F
$IIMWV,125,R,07.3,N,A*11
$IIMWV,147,T,10.4,N,A*12
$IIVHW,,,220,M,04.5,N,,*65
$IIVLW,01522,N,000.0,N*57
$IIVWR,122,R,07.5,N,,,,*62
$IIDPT,013.0,-1.0,*42
$IIHDG,221,,,01,E*12
$IIMTW,+16.0,C*3F
$IIMWV,122,R,07.5,N,A*10
$IIMWV,146,T,10.4,N,A*13
$IIVHW,,,221,M,04.5,N,,*64
$IIVLW,01522,N,000.0,N*57
$IIVWR,120,R,07.7,N,,,,*62
$IIDPT,013.0,-1.0,*42
$IIHDG,221,,,01,E*12
$IIMTW,+16.0,C*3F
$IIMWV,120,R,07.7,N,A*10
$IIMWV,143,T,10.5,N,A*17
$IIVHW,,,221,M,04.5,N,,*64
$IIVLW,01522,N,000.0,N*57
$IIVWR,117,R,07.9,N,,,,*68
$IIDPT,013.0,-1.0,*42
$IIHDG,222,,,01,E*11
$IIMTW,+16.0,C*3F
$IIMWV,117,R,07.9,N,A*1A
$IIMWV,142,T,10.6,N,A*15
$IIVHW,,,222,M,04.6,N,,*64
$IIVLW,01522,N,000.0,N*57
$IIVWR,114,R,08.2,N,,,,*6F
$IIDPT,013.0,-1.0,*42
$IIHDG,223,,,01,E*10
$IIMTW,+16.0,C*3F
$IIMWV,114,R,08.2,N,A*1D
$IIMWV,139,T,10.7,N,A*18
$IIVHW,,,223,M,04.6,N,,*65
$IIVLW,01522,N,000.0,N*57
$IIVWR,111,R,08.6,N,,,,*6E
$IIDPT,013.0,-1.0,*42
$IIHDG,223,,,01,E*10
$IIMTW,+16.0,C*3F
$IIMWV,111,R,08.6,N,A*1C
$IIMWV,137,T,10.8,N,A*19
$IIVHW,,,223,M,04.6,N,,*65
$IIVLW,01522,N,000.0,N*57
$IIVWR,110,R,08.8,N,,,,*61
$IIDPT,013.5,-1.0,*47
$IIHDG,223,,,01,E*10
$IIMTW,+16.0,C*3F
$IIMWV,110,R,08.8,N,A*13
$IIMWV,134,T,11.0,N,A*13
$IIVHW,,,223,M,04.6,N,,*65
$IIVLW,01522,N,000.0,N*57
$IIVWR,109,R,09.0,N,,,,*60
$IIDPT,013.5,-1.0,*47
$IIHDG,223,,,01,E*10
$IIMTW,+16.0,C*3F
$IIMWV,109,R,09.0,N,A*12
$IIMWV,133,T,11.1,N,A*15
$IIVHW,,,223,M,04.7,N,,*64
$IIVLW,01522,N,000.0,N*57
$IIVWR,107,R,09.1,N,,,,*6F
$IIDPT,013.0,-1.0,*42
$IIHDG,224,,,01,E*17
$IIMTW,+16.0,C*3F
$IIMWV,107,R,09.1,N,A*1D
$IIMWV,132,T,11.4,N,A*11
$IIVHW,,,224,M,04.7,N,,*63
$IIVLW,01522,N,000.0,N*57
$IIVWR,104,R,09.1,N,,,,*6C
$IIDPT,013.0,-1.0,*42
$IIHDG,225,,,01,E*16
$IIMTW,+16.0,C*3F
$IIMWV,104,R,09.1,N,A*1E
$IIMWV,130,T,11.4,N,A*13
$IIVHW,,,225,M,04.7,N,,*62
$IIVLW,01522,N,000.0,N*57
$IIVWR,103,R,09.5,N,,,,*6F
$IIDPT,013.0,-1.0,*42
$IIHDG,225,,,01,E*16
$IIMTW,+16.0,C*3F
$IIMWV,103,R,09.5,N,A*1D
$IIMWV,128,T,11.1,N,A*1F
$IIVHW,,,225,M,04.8,N,,*6D
$IIVLW,01522,N,000.0,N*57
$IIVWR,100,R,09.6,N,,,,*6F
$IIDPT,013.0,-1.0,*42
$IIHDG,225,,,01,E*16
$IIMTW,+16.0,C*3F
$IIMWV,100,R,09.6,N,A*1D
$IIMWV,127,T,11.4,N,A*15
$IIVHW,,,225,M,04.8,N,,*6D
$IIVLW,01522,N,000.0,N*57
$IIVWR,098,R,09.6,N,,,,*6F
$IIDPT,013.0,-1.0,*42
$IIHDG,227,,,01,E*14
$IIMTW,+16.0,C*3F
$IIMWV,098,R,09.6,N,A*1D
$IIMWV,125,T,11.4,N,A*17
$IIVHW,,,227,M,04.8,N,,*6F
$IIVLW,01522,N,000.0,N*57
$IIVWR,099,R,09.5,N,,,,*6D
$IIDPT,012.8,-1.0,*4B
$IIHDG,227,,,01,E*14
$IIMTW,+16.0,C*3F
$IIMWV,099,R,09.5,N,A*1F
$IIMWV,123,T,11.3,N,A*16
$IIVHW,,,227,M,04.8,N,,*6F
$IIVLW,01522,N,000.0,N*57
$IIVWR,099,R,09.5,N,,,,*6D
$IIDPT,012.8,-1.0,*4B
$IIHDG,227,,,01,E*14
$IIMTW,+16.0,C*3F
$IIMWV,099,R,09.5,N,A*1F
$IIMWV,124,T,11.3,N,A*11
$IIVHW,,,227,M,04.8,N,,*6F
$IIVLW,01522,N,000.0,N*57
$IIVWR,099,R,09.3,N,,,,*6B
$IIDPT,012.8,-1.0,*4B
$IIHDG,227,,,01,E*14
$IIMTW,+16.0,C*3F
$IIMWV,099,R,09.3,N,A*19
$IIMWV,124,T,11.3,N,A*11
$IIVHW,,,227,M,04.8,N,,*6F
$IIVLW,01522,N,000.0,N*57
$IIVWR,100,R,09.1,N,,,,*68
$IIDPT,012.8,-1.0,*4B
$IIHDG,227,,,01,E*14
$IIMTW,+16.0,C*3F
$IIMWV,100,R,09.1,N,A*1A
$IIMWV,124,T,11.1,N,A*13
$IIVHW,,,227,M,04.9,N,,*6E
$IIVLW,01522,N,000.0,N*57
$IIVWR,100,R,09.1,N,,,,*68
$IIDPT,013.4,-1.0,*46
$IIHDG,227,,,01,E*14
$IIMTW,+16.0,C*3F
$IIMWV,100,R,09.1,N,A*1A
$IIMWV,126,T,10.9,N,A*18
$IIVHW,,,227,M,04.9,N,,*6E
$IIVLW,01522,N,000.0,N*57
$IIVWR,101,R,09.1,N,,,,*69
$IIDPT,012.9,-1.0,*4A
$IIHDG,226,,,01,E*15
$IIMTW,+16.0,C*3F
$IIMWV,101,R,09.1,N,A*1B
$IIMWV,126,T,10.9,N,A*18
$IIVHW,,,226,M,04.9,N,,*6F
$IIVLW,01522,N,000.0,N*57
$IIVWR,103,R,09.2,N,,,,*68
$IIDPT,012.9,-1.0,*4A
$IIHDG,225,,,01,E*16
$IIMTW,+16.0,C*3F
$IIMWV,103,R,09.2,N,A*1A
$IIMWV,127,T,11.0,N,A*11
$IIVHW,,,225,M,04.9,N,,*6C
$IIVLW,01522,N,000.0,N*57
$IIVWR,103,R,09.1,N,,,,*6B
$IIDPT,012.9,-1.0,*4A
$IIHDG,225,,,01,E*16
$IIMTW,+16.0,C*3F
$IIMWV,103,R,09.1,N,A*19
$IIMWV,128,T,11.3,N,A*1D
$IIVHW,,,225,M,04.9,N,,*6C
$IIVLW,01522,N,000.1,N*56
$IIVWR,105,R,09.0,N,,,,*6C
$IIDPT,012.9,-1.0,*4A
$IIGLL,4629.865,N,00640.738,E,163830,A,A*53
$IIHDG,225,,,01,E*16
$IIMTW,+16.0,C*3F
$IIMWV,105,R,09.0,N,A*1E
$IIMWV,128,T,11.2,N,A*1C
$IIRMC,163830,A,4629.865,N,00640.738,E,05.9,228,200614,01,E,A*0B
$IIVHW,,,225,M,04.9,N,,*6C
$IIVLW,01522,N,000.1,N*56
$IIVWR,105,R,08.9,N,,,,*64
$IIDPT,012.9,-1.0,*4A
$IIGLL,4629.865,N,00640.735,E,163831,A,A*5F
$IIHDG,225,,,01,E*16
$IIMTW,+16.0,C*3F
$IIMWV,105,R,08.9,N,A*16
$IIMWV,130,T,11.3,N,A*14
$IIRMC,163832,A,4629.864,N,00640.733,E,05.8,228,200614,01,E,A*02
$IIVHW,,,224,M,04.9,N,,*6D
$IIVLW,01522,N,000.1,N*56
$IIVWR,108,R,08.6,N,,,,*66
$IIDPT,012.9,-1.0,*4A
$IIGLL,4629.864,N,00640.733,E,163832,A,A*5B
$IIHDG,224,,,01,E*17
$IIMTW,+16.5,C*3A
$IIMWV,108,R,08.6,N,A*14
$IIMWV,133,T,11.0,N,A*14
$IIRMC,163833,A,4629.798,N,00640.790,E,05.7,226,200614,01,E,A*07
$IIVHW,,,224,M,04.9,N,,*6D
$IIVLW,01522,N,000.1,N*56
$IIVWR,109,R,08.4,N,,,,*65
$IIDPT,012.9,-1.0,*4A
$IIGLL,4629.798,N,00640.790,E,163833,A,A*5F
$IIHDG,224,,,01,E*17
$IIMTW,+16.0,C*3F
$IIMWV,109,R,08.2,N,A*11
$IIMWV,134,T,10.9,N,A*1B
$IIRMC,163834,A,4629.796,N,00640.789,E,05.7,227,200614,01,E,A*07
$IIVHW,,,225,M,04.8,N,,*6D
$IIVLW,01522,N,000.1,N*56
$IIVWR,109,R,08.2,N,,,,*63
$IIDPT,012.9,-1.0,*4A
$IIGLL,4629.796,N,00640.789,E,163834,A,A*5E
$IIHDG,225,,,01,E*16
$IIMTW,+16.0,C*3F
$IIMWV,108,R,08.0,N,A*12
$IIMWV,135,T,10.8,N,A*1B
$IIRMC,163835,A,4629.795,N,00640.787,E,05.6,227,200614,01,E,A*0A
$IIVHW,,,225,M,04.8,N,,*6D
$IIVLW,01522,N,000.1,N*56
$IIVWR,108,R,08.0,N,,,,*60
$IIDPT,012.9,-1.0,*4A
$IIGLL,4629.795,N,00640.787,E,163835,A,A*52
$IIHDG,225,,,01,E*16
$IIMTW,+16.0,C*3F
$IIMWV,104,R,07.9,N,A*18
$IIMWV,134,T,10.5,N,A*17
$IIRMC,163836,A,4629.794,N,00640.786,E,05.7,228,200614,01,E,A*07
$IIVHW,,,225,M,04.8,N,,*6D
$IIVLW,01522,N,000.1,N*56
$IIVWR,104,R,07.9,N,,,,*6A
$IIDPT,015.2,-1.0,*46
$IIGLL,4629.792,N,00640.784,E,163837,A,A*54
$IIHDG,225,,,01,E*16
$IIMTW,+16.0,C*3F
$IIMWV,102,R,07.9,N,A*1E
$IIMWV,131,T,10.1,N,A*16
$IIRMC,163837,A,4629.792,N,00640.784,E,05.6,229,200614,01,E,A*02
$IIVHW,,,225,M,04.8,N,,*6D
$IIVLW,01522,N,000.1,N*56
$IIVWR,102,R,07.9,N,,,,*6C
$IIDPT,015.2,-1.0,*46
$IIGLL,4629.791,N,00640.783,E,163838,A,A*5F
$IIHDG,226,,,01,E*15
$IIMTW,+16.0,C*3F
$IIMWV,100,R,07.8,N,A*1D
$IIMWV,130,T,10.0,N,A*16
$IIRMC,163838,A,4629.791,N,00640.783,E,05.7,229,200614,01,E,A*08
$IIVHW,,,226,M,04.8,N,,*6E
$IIVLW,01522,N,000.1,N*56
$IIVWR,102,R,07.7,N,,,,*62
$IIDPT,015.2,-1.0,*46
$IIGLL,4629.790,N,00640.782,E,163839,A,A*5E
$IIHDG,226,,,01,E*15
$IIMTW,+16.0,C*3F
$IIMWV,102,R,07.7,N,A*10
$IIMWV,129,T,09.8,N,A*1E
$IIRMC,163839,A,4629.790,N,00640.782,E,05.8,228,200614,01,E,A*07
$IIVHW,,,226,M,04.8,N,,*6E
$IIVLW,01522,N,000.1,N*56
$IIVWR,105,R,08.1,N,,,,*6C
$IIDPT,013.0,-1.0,*42
$IIGLL,4629.789,N,00640.780,E,163840,A,A*5A
$IIHDG,226,,,01,E*15
$IIMTW,+16.0,C*3F
$IIMWV,105,R,08.1,N,A*1E
$IIMWV,131,T,09.9,N,A*16
$IIRMC,163840,A,4629.789,N,00640.780,E,05.8,228,200614,01,E,A*03
$IIVHW,,,225,M,04.8,N,,*6D
$IIVLW,01522,N,000.1,N*56
$IIVWR,106,R,08.4,N,,,,*6A
$IIDPT,013.0,-1.0,*42
$IIGLL,4629.788,N,00640.778,E,163841,A,A*5D
$IIHDG,225,,,01,E*16
$IIMTW,+16.0,C*3F
$IIMWV,106,R,08.4,N,A*18
$IIMWV,132,T,10.4,N,A*10
$IIRMC,163841,A,4629.788,N,00640.778,E,05.8,229,200614,01,E,A*05
$IIVHW,,,226,M,04.8,N,,*6E
$IIVLW,01522,N,000.1,N*56
$IIVWR,105,R,08.4,N,,,,*69
$IIDPT,013.0,-1.0,*42
$IIGLL,4629.788,N,00640.778,E,163841,A,A*5D
$IIHDG,226,,,01,E*15
$IIMTW,+16.0,C*3F
$IIMWV,105,R,08.4,N,A*1B
$IIMWV,131,T,10.7,N,A*10
$IIRMC,163843,A,4629.786,N,00640.775,E,05.8,229,200614,01,E,A*04
$IIVHW,,,226,M,04.8,N,,*6E
$IIVLW,01522,N,000.1,N*56
$IIVWR,107,R,08.4,N,,,,*6B
$IIDPT,013.0,-1.0,*42
$IIGLL,4629.786,N,00640.775,E,163843,A,A*5C
$IIHDG,226,,,01,E*15
$IIMTW,+16.0,C*3F
$IIMWV,107,R,08.4,N,A*19
$IIMWV,132,T,10.8,N,A*1C
$IIRMC,163844,A,4629.785,N,00640.773,E,05.8,229,200614,01,E,A*06
$IIVHW,,,226,M,04.9,N,,*6F
$IIVLW,01522,N,000.1,N*56
$IIVWR,107,R,08.4,N,,,,*6B
$IIDPT,013.0,-1.0,*42
$IIGLL,4629.785,N,00640.773,E,163844,A,A*5E
$IIHDG,226,,,01,E*15
$IIMTW,+16.0,C*3F
$IIMWV,107,R,08.4,N,A*19
$IIMWV,132,T,10.8,N,A*1C
$IIRMC,163845,A,4629.784,N,00640.771,E,05.9,227,200614,01,E,A*0B
$IIVHW,,,225,M,04.8,N,,*6D
$IIVLW,01522,N,000.1,N*56
$IIVWR,107,R,08.4,N,,,,*6B
$IIDPT,013.0,-1.0,*42
$IIGLL,4629.784,N,00640.771,E,163845,A,A*5C
$IIHDG,225,,,01,E*16
$IIMTW,+16.0,C*3F
$IIMWV,106,R,08.3,N,A*1F
$IIMWV,132,T,10.8,N,A*1C
$IIRMC,163846,A,4629.783,N,00640.770,E,05.8,227,200614,01,E,A*0F
$IIVHW,,,225,M,04.8,N,,*6D
$IIVLW,01522,N,000.1,N*56
$IIVWR,106,R,08.3,N,,,,*6D
$IIDPT,013.0,-1.0,*42
$IIGLL,4629.782,N,00640.768,E,163847,A,A*50
$IIHDG,224,,,01,E*17
$IIMTW,+16.0,C*3F
$IIMWV,104,R,08.1,N,A*1F
$IIMWV,132,T,10.6,N,A*12
$IIRMC,163847,A,4629.782,N,00640.768,E,05.8,224,200614,01,E,A*05
$IIVHW,,,224,M,04.8,N,,*6C
$IIVLW,01522,N,000.1,N*56
$IIVWR,104,R,08.1,N,,,,*6D
$IIDPT,013.0,-1.0,*42
$IIGLL,4629.780,N,00640.766,E,163848,A,A*53
$IIHDG,224,,,01,E*17
$IIMTW,+16.0,C*3F
$IIMWV,101,R,07.8,N,A*1C
$IIMWV,131,T,10.3,N,A*14
$IIRMC,163848,A,4629.780,N,00640.766,E,05.7,224,200614,01,E,A*09
$IIVHW,,,224,M,04.8,N,,*6C
$IIVLW,01522,N,000.1,N*56
$IIVWR,102,R,07.6,N,,,,*63
$IIDPT,013.0,-1.0,*42
$IIGLL,4629.780,N,00640.765,E,163849,A,A*51
$IIHDG,224,,,01,E*17
$IIMTW,+16.0,C*3F
$IIMWV,102,R,07.6,N,A*11
$IIMWV,129,T,09.8,N,A*1E
$IIRMC,163849,A,4629.780,N,00640.765,E,05.5,226,200614,01,E,A*0B
$IIVHW,,,224,M,04.8,N,,*6C
$IIVLW,01522,N,000.1,N*56
$IIVWR,102,R,07.5,N,,,,*60
$IIDPT,013.0,-1.0,*42
$IIGLL,4629.779,N,00640.763,E,163850,A,A*59
$IIHDG,224,,,01,E*17
$IIMTW,+16.0,C*3F
$IIMWV,102,R,07.5,N,A*12
$IIMWV,130,T,09.7,N,A*19
$IIRMC,163850,A,4629.779,N,00640.763,E,05.6,227,200614,01,E,A*01
$IIVHW,,,224,M,04.7,N,,*63
$IIVLW,01522,N,000.1,N*56
$IIVWR,102,R,07.4,N,,,,*61
$IIDPT,013.0,-1.0,*42
$IIGLL,4629.777,N,00640.762,E,163851,A,A*57
$IIHDG,224,,,01,E*17
$IIMTW,+16.0,C*3F
$IIMWV,102,R,07.4,N,A*13
$IIMWV,131,T,09.6,N,A*19
$IIRMC,163852,A,4629.776,N,00640.760,E,05.6,228,200614,01,E,A*00
$IIVHW,,,225,M,04.7,N,,*62
$IIVLW,01522,N,000.1,N*56
$IIVWR,104,R,07.3,N,,,,*60
$IIDPT,013.0,-1.0,*42
$IIGLL,4629.776,N,00640.760,E,163852,A,A*57
$IIHDG,225,,,01,E*16
$IIMTW,+16.0,C*3F
$IIMWV,104,R,07.3,N,A*12
$IIMWV,133,T,09.5,N,A*18
$IIRMC,163853,A,4629.775,N,00640.759,E,05.6,227,200614,01,E,A*07
$IIVHW,,,225,M,04.7,N,,*62
$IIVLW,01522,N,000.1,N*56
$IIVWR,104,R,07.1,N,,,,*62
$IIDPT,013.0,-1.0,*42
$IIGLL,4629.775,N,00640.759,E,163853,A,A*5F
$IIHDG,225,,,01,E*16
$IIMTW,+16.0,C*3F
$IIMWV,107,R,07.1,N,A*13
$IIMWV,134,T,09.4,N,A*1E
$IIRMC,163854,A,4629.774,N,00640.757,E,05.6,228,200614,01,E,A*00
$IIVHW,,,225,M,04.7,N,,*62
$IIVLW,01522,N,000.1,N*56
$IIVWR,107,R,07.1,N,,,,*61
$IIDPT,013.0,-1.0,*42
$IIGLL,4629.774,N,00640.757,E,163854,A,A*57
$IIHDG,225,,,01,E*16
$IIMTW,+16.0,C*3F
$IIMWV,107,R,07.3,N,A*11
$IIMWV,135,T,09.6,N,A*1D
$IIRMC,163855,A,4629.773,N,00640.755,E,05.6,229,200614,01,E,A*05
$IIVHW,,,225,M,04.7,N,,*62
$IIVLW,01522,N,000.1,N*56
$IIVWR,107,R,07.3,N,,,,*63
$IIDPT,013.0,-1.0,*42
$IIGLL,4629.773,N,00640.755,E,163855,A,A*53
$IIHDG,226,,,01,E*15
$IIMTW,+16.0,C*3F
$IIMWV,108,R,07.5,N,A*18
$IIMWV,134,T,09.7,N,A*1D
$IIRMC,163856,A,4629.772,N,00640.754,E,05.6,228,200614,01,E,A*07
$IIVHW,,,226,M,04.7,N,,*61
$IIVLW,01522,N,000.1,N*56
$IIVWR,108,R,07.5,N,,,,*6A
$IIDPT,013.0,-1.0,*42
$IIGLL,4629.771,N,00640.752,E,163857,A,A*54
$IIHDG,226,,,01,E*15
$IIMTW,+16.0,C*3F
$IIMWV,109,R,07.9,N,A*15
$IIMWV,135,T,09.9,N,A*12
$IIRMC,163857,A,4629.771,N,00640.752,E,05.6,229,200614,01,E,A*02
$IIVHW,,,226,M,04.7,N,,*61
$IIVLW,01522,N,000.1,N*56
$IIVWR,109,R,07.9,N,,,,*67
$IIDPT,013.0,-1.0,*42
$IIGLL,4629.770,N,00640.750,E,163858,A,A*58
$IIHDG,227,,,01,E*14
$IIMTW,+16.0,C*3F
$IIMWV,109,R,08.4,N,A*17
$IIMWV,134,T,10.4,N,A*16
$IIRMC,163858,A,4629.770,N,00640.750,E,05.6,229,200614,01,E,A*0E
$IIVHW,,,227,M,04.7,N,,*60
$IIVLW,01522,N,000.1,N*56
$IIVWR,110,R,08.6,N,,,,*6F
$IIDPT,013.0,-1.0,*42
$IIGLL,4629.769,N,00640.748,E,163859,A,A*58
$IIHDG,227,,,01,E*14
$IIMTW,+16.0,C*3F
$IIMWV,110,R,08.6,N,A*1D
$IIMWV,133,T,10.8,N,A*1D
$IIRMC,163859,A,4629.769,N,00640.748,E,05.6,231,200614,01,E,A*07
$IIVHW,,,227,M,04.7,N,,*60
$IIVLW,01522,N,000.1,N*56
$IIVWR,109,R,09.0,N,,,,*60
$IIDPT,013.0,-1.0,*42
$IIGLL,4629.768,N,00640.746,E,163900,A,A*5A
$IIHDG,228,,,01,E*1B
$IIMTW,+16.0,C*3F
$IIMWV,109,R,09.0,N,A*12
$IIMWV,134,T,11.0,N,A*13
$IIRMC,163900,A,4629.768,N,00640.746,E,05.7,231,200614,01,E,A*04
$IIVHW,,,227,M,04.7,N,,*60
$IIVLW,01522,N,000.1,N*56
$IIVWR,109,R,09.3,N,,,,*63
$IIDPT,013.0,-1.0,*42
$IIGLL,4629.767,N,00640.744,E,163901,A,A*56
$IIHDG,227,,,01,E*14
$IIMTW,+16.0,C*3F
$IIMWV,109,R,09.3,N,A*11
$IIMWV,132,T,11.4,N,A*11
$IIRMC,163902,A,4629.766,N,00640.742,E,05.7,231,200614,01,E,A*0C
$IIVHW,,,227,M,04.7,N,,*60
$IIVLW,01522,N,000.1,N*56
$IIVWR,108,R,09.5,N,,,,*64
$IIDPT,013.0,-1.0,*42
$IIGLL,4629.766,N,00640.742,E,163902,A,A*52
$IIHDG,227,,,01,E*14
$IIMTW,+16.0,C*3F
$IIMWV,108,R,09.5,N,A*16
$IIMWV,131,T,11.8,N,A*1E
$IIRMC,163903,A,4629.765,N,00640.741,E,05.8,228,200614,01,E,A*0A
$IIVHW,,,227,M,04.8,N,,*6F
$IIVLW,01522,N,000.1,N*56
$IIVWR,108,R,09.6,N,,,,*67
$IIGLL,4629.765,N,00640.741,E,163903,A,A*53
$IIHDG,227,,,01,E*14
$IIMTW,+15.5,C*39
$IIMWV,108,R,09.6,N,A*15
$IIMWV,130,T,11.9,N,A*1E
$IIRMC,163904,A,4629.764,N,00640.739,E,05.8,227,200614,01,E,A*0C
$IIVHW,,,227,M,04.8,N,,*6F
$IIVLW,01522,N,000.1,N*56
$IIVWR,108,R,09.6,N,,,,*67
$IIDPT,034.3,-1.0,*44
$IIGLL,4629.764,N,00640.739,E,163904,A,A*5A
$IIHDG,227,,,01,E*14
$IIMTW,+15.5,C*39
$IIMWV,106,R,09.6,N,A*1B
$IIMWV,130,T,11.9,N,A*1E
$IIRMC,163905,A,4629.763,N,00640.737,E,05.8,226,200614,01,E,A*05
$IIVHW,,,227,M,04.8,N,,*6F
$IIVLW,01522,N,000.1,N*56
$IIVWR,106,R,09.6,N,,,,*69
$IIDPT,034.3,-1.0,*44
$IIGLL,4629.763,N,00640.737,E,163905,A,A*52
$IIHDG,227,,,01,E*14
$IIMTW,+16.0,C*3F
$IIMWV,105,R,09.7,N,A*19
$IIMWV,129,T,11.8,N,A*17
$IIRMC,163906,A,4629.762,N,00640.735,E,05.8,227,200614,01,E,A*04
$IIVHW,,,227,M,04.8,N,,*6F
$IIVLW,01522,N,000.1,N*56
$IIVWR,105,R,09.7,N,,,,*6B
$IIDPT,034.3,-1.0,*44
$IIGLL,4629.762,N,00640.735,E,163906,A,A*52
$IIHDG,227,,,01,E*14
$IIMTW,+16.0,C*3F
$IIMWV,104,R,09.7,N,A*18
$IIMWV,128,T,11.9,N,A*17
$IIRMC,163907,A,4629.761,N,00640.734,E,05.8,229,200614,01,E,A*09
$IIVHW,,,227,M,04.8,N,,*6F
$IIVLW,01522,N,000.1,N*56
$IIVWR,104,R,09.7,N,,,,*6A
$IIDPT,032.6,-1.0,*47
$IIGLL,4629.760,N,00640.732,E,163908,A,A*59
$IIHDG,227,,,01,E*14
$IIMTW,+16.0,C*3F
$IIMWV,104,R,09.4,N,A*1B
$IIMWV,127,T,11.7,N,A*16
$IIRMC,163908,A,4629.760,N,00640.732,E,05.8,229,200614,01,E,A*01
$IIVHW,,,227,M,04.8,N,,*6F
$IIVLW,01522,N,000.1,N*56
$IIVWR,104,R,09.4,N,,,,*69
$IIDPT,015.4,-1.0,*40
$IIGLL,4629.759,N,00640.730,E,163909,A,A*50
$IIHDG,226,,,01,E*15
$IIMTW,+16.0,C*3F
$IIMWV,103,R,09.3,N,A*1B
$IIMWV,128,T,11.4,N,A*1A
$IIRMC,163909,A,4629.759,N,00640.730,E,05.8,229,200614,01,E,A*08
$IIVHW,,,226,M,04.8,N,,*6E
$IIVLW,01522,N,000.1,N*56
$IIVWR,102,R,09.1,N,,,,*6A
$IIDPT,015.4,-1.0,*40
$IIGLL,4629.758,N,00640.728,E,163910,A,A*50
$IIHDG,226,,,01,E*15
$IIMTW,+16.0,C*3F
$IIMWV,102,R,09.1,N,A*18
$IIMWV,127,T,11.2,N,A*13
$IIRMC,163910,A,4629.758,N,00640.728,E,05.8,228,200614,01,E,A*09
$IIVHW,,,226,M,04.8,N,,*6E
$IIVLW,01522,N,000.1,N*56
$IIVWR,099,R,09.0,N,,,,*68
$IIDPT,015.4,-1.0,*40
$IIGLL,4629.757,N,00640.727,E,163911,A,A*51
$IIHDG,225,,,01,E*16
$IIMTW,+16.0,C*3F
$IIMWV,099,R,09.0,N,A*1A
$IIMWV,127,T,11.1,N,A*10
$IIRMC,163911,A,4629.757,N,00640.727,E,05.8,228,200614,01,E,A*08
$IIVHW,,,224,M,04.8,N,,*6C
$IIVLW,01522,N,000.1,N*56
$IIVWR,097,R,08.9,N,,,,*6E
$IIDPT,013.0,-1.0,*42
$IIGLL,4629.755,N,00640.725,E,163912,A,A*52
$IIHDG,224,,,01,E*17
$IIMTW,+16.0,C*3F
$IIMWV,097,R,08.9,N,A*1C
$IIMWV,125,T,10.9,N,A*1B
$IIRMC,163912,A,4629.755,N,00640.725,E,05.8,227,200614,01,E,A*04
$IIVHW,,,224,M,04.8,N,,*6C
$IIVLW,01522,N,000.1,N*56
$IIVWR,094,R,08.6,N,,,,*62
$IIDPT,013.0,-1.0,*42
$IIGLL,4629.755,N,00640.725,E,163912,A,A*52
$IIHDG,224,,,01,E*17
$IIMTW,+16.0,C*3F
$IIMWV,094,R,08.6,N,A*10
$IIMWV,122,T,10.1,N,A*14
$IIRMC,163914,A,4629.753,N,00640.722,E,05.8,226,200614,01,E,A*02
$IIVHW,,,224,M,04.8,N,,*6C
$IIVLW,01522,N,000.1,N*56
$IIVWR,092,R,08.6,N,,,,*64
$IIDPT,013.0,-1.0,*42
$IIGLL,4629.753,N,00640.722,E,163914,A,A*55
$IIHDG,224,,,01,E*17
$IIMTW,+16.0,C*3F
$IIMWV,094,R,08.1,N,A*17
$IIMWV,120,T,09.9,N,A*16
$IIRMC,163915,A,4629.752,N,00640.720,E,05.7,226,200614,01,E,A*0F
$IIVHW,,,224,M,04.8,N,,*6C
$IIVLW,01522,N,000.1,N*56
$IIVWR,094,R,08.1,N,,,,*65
$IIDPT,013.0,-1.0,*42
$IIGLL,4629.752,N,00640.720,E,163915,A,A*57
$IIHDG,224,,,01,E*17
$IIMTW,+16.0,C*3F
$IIMWV,094,R,07.8,N,A*11
$IIMWV,123,T,09.6,N,A*1A
$IIRMC,163916,A,4629.751,N,00640.719,E,05.7,226,200614,01,E,A*05
$IIVHW,,,223,M,04.7,N,,*64
$IIVLW,01522,N,000.1,N*56
$IIVWR,094,R,07.8,N,,,,*63
$IIDPT,013.0,-1.0,*42
$IIGLL,4629.751,N,00640.719,E,163916,A,A*5D
$IIHDG,223,,,01,E*10
$IIMTW,+16.5,C*3A
$IIMWV,094,R,07.5,N,A*1C
$IIMWV,124,T,09.4,N,A*1F
$IIRMC,163917,A,4629.750,N,00640.717,E,05.7,226,200614,01,E,A*0B
$IIVHW,,,223,M,04.7,N,,*64
$IIVLW,01522,N,000.1,N*56
$IIVWR,094,R,07.5,N,,,,*6E
$IIDPT,013.0,-1.0,*42
$IIGLL,4629.749,N,00640.715,E,163918,A,A*56
$IIHDG,223,,,01,E*10
$IIMTW,+16.5,C*3A
$IIMWV,094,R,07.2,N,A*1B
$IIMWV,125,T,09.1,N,A*1B
$IIRMC,163918,A,4629.749,N,00640.715,E,05.6,225,200614,01,E,A*0C
$IIVHW,,,223,M,04.7,N,,*64
$IIVLW,01522,N,000.1,N*56
$IIVWR,094,R,07.2,N,,,,*69
$IIDPT,013.0,-1.0,*42
$IIGLL,4629.748,N,00640.714,E,163919,A,A*57
$IIHDG,223,,,01,E*10
$IIMTW,+16.5,C*3A
$IIMWV,095,R,07.0,N,A*18
$IIMWV,126,T,08.8,N,A*10
$IIRMC,163919,A,4629.748,N,00640.714,E,05.6,225,200614,01,E,A*0D
$IIVHW,,,223,M,04.7,N,,*64
$IIVLW,01522,N,000.1,N*56
$IIVWR,096,R,07.0,N,,,,*69
$IIDPT,013.0,-1.0,*42
$IIGLL,4629.747,N,00640.712,E,163920,A,A*54
$IIHDG,222,,,01,E*11
$IIMTW,+16.5,C*3A
$IIMWV,096,R,07.0,N,A*1B
$IIMWV,127,T,08.7,N,A*1E
$IIRMC,163920,A,4629.747,N,00640.712,E,05.5,224,200614,01,E,A*0C
$IIVHW,,,222,M,04.7,N,,*65
$IIVLW,01522,N,000.1,N*56
$IIVWR,097,R,07.0,N,,,,*68
$IIDPT,013.0,-1.0,*42
$IIGLL,4629.746,N,00640.711,E,163921,A,A*57
$IIHDG,222,,,01,E*11
$IIMTW,+16.5,C*3A
$IIMWV,097,R,07.0,N,A*1A
$IIMWV,128,T,08.7,N,A*11
$IIRMC,163921,A,4629.746,N,00640.711,E,05.5,224,200614,01,E,A*0F
$IIVHW,,,221,M,04.6,N,,*67
$IIVLW,01522,N,000.1,N*56
$IIVWR,098,R,07.1,N,,,,*66
$IIDPT,013.0,-1.0,*42
$IIGLL,4629.745,N,00640.709,E,163922,A,A*5E
$IIHDG,221,,,01,E*12
$IIMTW,+16.5,C*3A
$IIMWV,098,R,07.1,N,A*14
$IIMWV,128,T,08.8,N,A*1E
$IIRMC,163923,A,4629.744,N,00640.707,E,05.5,223,200614,01,E,A*0F
$IIVHW,,,221,M,04.6,N,,*67
$IIVLW,01522,N,000.1,N*56
$IIVWR,098,R,07.3,N,,,,*64
$IIDPT,013.0,-1.0,*42
$IIGLL,4629.744,N,00640.707,E,163923,A,A*50
$IIHDG,221,,,01,E*12
$IIMTW,+16.0,C*3F
$IIMWV,098,R,07.3,N,A*16
$IIMWV,128,T,09.1,N,A*16
$IIRMC,163924,A,4629.743,N,00640.706,E,05.5,221,200614,01,E,A*0C
$IIVHW,,,220,M,04.6,N,,*66
$IIVLW,01522,N,000.1,N*56
$IIVWR,100,R,07.6,N,,,,*61
$IIDPT,013.0,-1.0,*42
$IIGLL,4629.743,N,00640.706,E,163924,A,A*51
$IIHDG,220,,,01,E*13
$IIMTW,+16.0,C*3F
$IIMWV,102,R,07.7,N,A*10
$IIMWV,128,T,09.4,N,A*13
$IIRMC,163924,A,4629.743,N,00640.706,E,05.5,221,200614,01,E,A*0C
$IIVHW,,,219,M,04.6,N,,*6C
$IIVLW,01522,N,000.1,N*56
$IIVWR,102,R,07.7,N,,,,*62
$IIDPT,013.0,-1.0,*42
$IIGLL,4629.743,N,00640.706,E,163924,A,A*51
$IIHDG,219,,,01,E*19
$IIMTW,+16.0,C*3F
$IIMWV,104,R,07.9,N,A*18
$IIMWV,130,T,09.7,N,A*19
$IIRMC,163926,A,4629.740,N,00640.702,E,05.6,217,200614,01,E,A*0F
$IIVHW,,,218,M,04.6,N,,*6D
$IIVLW,01522,N,000.1,N*56
$IIVWR,104,R,07.9,N,,,,*6A
$IIDPT,013.0,-1.0,*42
$IIGLL,4629.740,N,00640.702,E,163926,A,A*54
$IIHDG,218,,,01,E*18
$IIMTW,+16.0,C*3F
$IIMWV,104,R,08.0,N,A*1E
$IIMWV,131,T,10.0,N,A*17
$IIRMC,163927,A,4629.739,N,00640.701,E,05.6,218,200614,01,E,A*0C
$IIVHW,,,218,M,04.6,N,,*6D
$IIVLW,01522,N,000.1,N*56
$IIVWR,104,R,08.0,N,,,,*6C
$IIDPT,013.0,-1.0,*42
$IIGLL,4629.738,N,00640.699,E,163928,A,A*56
$IIHDG,217,,,01,E*17
$IIMTW,+16.0,C*3F
$IIMWV,103,R,08.3,N,A*1A
$IIMWV,131,T,10.1,N,A*16
$IIRMC,163928,A,4629.738,N,00640.699,E,05.6,219,200614,01,E,A*03
$IIVHW,,,217,M,04.6,N,,*62
$IIVLW,01522,N,000.1,N*56
$IIVWR,103,R,08.3,N,,,,*68
$IIDPT,013.0,-1.0,*42
$IIGLL,4629.736,N,00640.698,E,163929,A,A*58
$IIHDG,216,,,01,E*16
$IIMTW,+16.0,C*3F
$IIMWV,106,R,08.7,N,A*1B
$IIMWV,129,T,10.3,N,A*1D
$IIRMC,163929,A,4629.736,N,00640.698,E,05.7,217,200614,01,E,A*02
$IIVHW,,,216,M,04.7,N,,*62
$IIVLW,01522,N,000.1,N*56
$IIVWR,109,R,09.1,N,,,,*61
$IIDPT,013.0,-1.0,*42
$IIGLL,4629.735,N,00640.697,E,163930,A,A*5C
$IIHDG,216,,,01,E*16
$IIMTW,+16.0,C*3F
$IIMWV,109,R,09.1,N,A*13
$IIMWV,131,T,10.9,N,A*1E
$IIRMC,163930,A,4629.735,N,00640.697,E,05.8,212,200614,01,E,A*0C
$IIVHW,,,216,M,04.7,N,,*62
$IIVLW,01522,N,000.1,N*56
$IIVWR,109,R,09.3,N,,,,*63
$IIDPT,013.0,-1.0,*42
$IIGLL,4629.734,N,00640.695,E,163931,A,A*5E
$IIHDG,216,,,01,E*16
$IIMTW,+16.0,C*3F
$IIMWV,109,R,09.3,N,A*11
$IIMWV,132,T,11.5,N,A*10
$IIRMC,163931,A,4629.734,N,00640.695,E,05.8,216,200614,01,E,A*0A
$IIVHW,,,215,M,04.7,N,,*61
$IIVLW,01522,N,000.1,N*56
$IIVWR,111,R,09.4,N,,,,*6D
$IIDPT,013.0,-1.0,*42
$IIGLL,4629.733,N,00640.694,E,163932,A,A*5B
$IIHDG,215,,,01,E*15
$IIMTW,+16.0,C*3F
$IIMWV,111,R,09.4,N,A*1F
$IIMWV,131,T,11.6,N,A*10
$IIRMC,163933,A,4629.731,N,00640.692,E,05.7,214,200614,01,E,A*07
$IIVHW,,,214,M,04.7,N,,*60
$IIVLW,01522,N,000.1,N*56
$IIVWR,113,R,09.7,N,,,,*6C
$IIDPT,013.0,-1.0,*42
$IIGLL,4629.731,N,00640.692,E,163933,A,A*5E
$IIHDG,214,,,01,E*14
$IIMTW,+16.0,C*3F
$IIMWV,113,R,09.7,N,A*1E
$IIMWV,133,T,12.2,N,A*15
$IIRMC,163934,A,4629.730,N,00640.691,E,05.7,216,200614,01,E,A*00
$IIVHW,,,214,M,04.7,N,,*60
$IIVLW,01522,N,000.1,N*56
$IIVWR,115,R,09.8,N,,,,*65
$IIDPT,012.9,-1.0,*4A
$IIGLL,4629.730,N,00640.691,E,163934,A,A*5B
$IIHDG,214,,,01,E*14
$IIMTW,+15.5,C*39
$IIMWV,117,R,09.9,N,A*14
$IIMWV,135,T,12.5,N,A*14
$IIRMC,163935,A,4629.729,N,00640.690,E,05.7,215,200614,01,E,A*0B
$IIVHW,,,213,M,04.7,N,,*67
$IIVLW,01522,N,000.1,N*56
$IIVWR,117,R,09.9,N,,,,*66
$IIDPT,012.9,-1.0,*4A
$IIGLL,4629.729,N,00640.690,E,163935,A,A*53
$IIHDG,213,,,01,E*13
$IIMTW,+16.0,C*3F
$IIMWV,119,R,09.8,N,A*1B
$IIMWV,136,T,12.7,N,A*15
$IIRMC,163936,A,4629.728,N,00640.688,E,05.9,213,200614,01,E,A*08
$IIVHW,,,212,M,04.7,N,,*66
$IIVLW,01522,N,000.1,N*56
$IIVWR,119,R,09.8,N,,,,*69
$IIDPT,012.8,-1.0,*4B
$IIGLL,4629.728,N,00640.688,E,163936,A,A*58
$IIHDG,212,,,01,E*12
$IIMTW,+16.0,C*3F
$IIMWV,122,R,09.6,N,A*1D
$IIMWV,138,T,12.7,N,A*1B
$IIRMC,163937,A,4629.726,N,00640.687,E,05.9,211,200614,01,E,A*0A
$IIVHW,,,212,M,04.7,N,,*66
$IIVLW,01522,N,000.1,N*56
$IIVWR,122,R,09.6,N,,,,*6F
$IIDPT,012.8,-1.0,*4B
$IIGLL,4629.725,N,00640.686,E,163938,A,A*55
$IIHDG,211,,,01,E*11
$IIMTW,+16.0,C*3F
$IIMWV,124,R,09.2,N,A*1F
$IIMWV,140,T,12.7,N,A*14
$IIRMC,163938,A,4629.725,N,00640.686,E,05.8,211,200614,01,E,A*06
$IIVHW,,,211,M,04.8,N,,*6A
$IIVLW,01522,N,000.1,N*56
$IIVWR,124,R,09.2,N,,,,*6D
$IIDPT,012.8,-1.0,*4B
$IIGLL,4629.724,N,00640.684,E,163939,A,A*57
$IIHDG,211,,,01,E*11
$IIMTW,+16.0,C*3F
$IIMWV,124,R,09.0,N,A*1D
$IIMWV,143,T,12.4,N,A*14
$IIRMC,163939,A,4629.724,N,00640.684,E,05.9,212,200614,01,E,A*06
$IIVHW,,,211,M,04.8,N,,*6A
$IIVLW,01522,N,000.1,N*56
$IIVWR,125,R,08.9,N,,,,*66
$IIDPT,012.8,-1.0,*4B
$IIGLL,4629.723,N,00640.683,E,163940,A,A*59
$IIHDG,211,,,01,E*11
$IIMTW,+16.0,C*3F
$IIMWV,125,R,08.9,N,A*14
$IIMWV,143,T,12.3,N,A*13
$IIRMC,163940,A,4629.723,N,00640.683,E,05.9,213,200614,01,E,A*09
$IIVHW,,,211,M,04.8,N,,*6A
$IIVLW,01522,N,000.1,N*56
$IIVWR,126,R,08.8,N,,,,*64
$IIDPT,012.8,-1.0,*4B
$IIGLL,4629.721,N,00640.681,E,163941,A,A*58
$IIHDG,209,,,01,E*18
$IIMTW,+15.5,C*39
$IIMWV,126,R,08.8,N,A*16
$IIMWV,144,T,12.2,N,A*15
$IIRMC,163941,A,4629.721,N,00640.681,E,05.9,213,200614,01,E,A*08
$IIVHW,,,208,M,04.8,N,,*62
$IIVLW,01522,N,000.1,N*56
$IIVWR,129,R,08.9,N,,,,*6A
$IIDPT,012.8,-1.0,*4B
$IIGLL,4629.720,N,00640.680,E,163942,A,A*5B
$IIHDG,208,,,01,E*19
$IIMTW,+15.5,C*39
$IIMWV,129,R,08.9,N,A*18
$IIMWV,145,T,12.2,N,A*14
$IIRMC,163943,A,4629.719,N,00640.679,E,05.9,208,200614,01,E,A*0C
$IIVHW,,,208,M,04.8,N,,*62
$IIVLW,01522,N,000.1,N*56
$IIVWR,131,R,08.6,N,,,,*6C
$IIDPT,012.8,-1.0,*4B
$IIGLL,4629.719,N,00640.679,E,163943,A,A*56
$IIHDG,208,,,01,E*19
$IIMTW,+15.5,C*39
$IIMWV,131,R,08.6,N,A*1E
$IIMWV,149,T,12.2,N,A*18
$IIRMC,163944,A,4629.717,N,00640.677,E,05.9,208,200614,01,E,A*0B
$IIVHW,,,207,M,04.8,N,,*6D
$IIVLW,01522,N,000.1,N*56
$IIVWR,134,R,08.6,N,,,,*69
$IIDPT,012.8,-1.0,*4B
$IIGLL,4629.717,N,00640.677,E,163944,A,A*51
$IIHDG,207,,,01,E*16
$IIMTW,+15.5,C*39
$IIMWV,134,R,08.6,N,A*1B
$IIMWV,150,T,12.4,N,A*16
$IIRMC,163945,A,4629.716,N,00640.676,E,06.0,208,200614,01,E,A*00
$IIVHW,,,206,M,04.8,N,,*6C
$IIVLW,01522,N,000.1,N*56
$IIVWR,134,R,08.6,N,,,,*69
$IIDPT,019.6,-1.0,*4E
$IIGLL,4629.716,N,00640.676,E,163945,A,A*50
$IIHDG,206,,,01,E*17
$IIMTW,+15.5,C*39
$IIMWV,134,R,08.4,N,A*19
$IIMWV,150,T,12.4,N,A*16
$IIRMC,163946,A,4629.715,N,00640.675,E,05.1,204,200614,01,E,A*0D
$IIVHW,,,206,M,04.8,N,,*6C
$IIVLW,01522,N,000.2,N*55
$IIVWR,134,R,08.4,N,,,,*6B
$IIDPT,015.5,-1.0,*41
$IIGLL,4629.715,N,00640.675,E,163946,A,A*53
$IIHDG,205,,,01,E*14
$IIMTW,+15.5,C*39
$IIMWV,134,R,08.4,N,A*19
$IIMWV,150,T,12.0,N,A*12
$IIRMC,163947,A,4629.714,N,00640.674,E,05.9,206,200614,01,E,A*06
$IIVHW,,,205,M,04.8,N,,*6F
$IIVLW,01522,N,000.2,N*55
$IIVWR,134,R,08.4,N,,,,*6B
$IIDPT,015.5,-1.0,*41
$IIGLL,4629.712,N,00640.673,E,163948,A,A*5C
$IIHDG,205,,,01,E*14
$IIMTW,+15.5,C*39
$IIMWV,134,R,08.4,N,A*19
$IIMWV,150,T,12.0,N,A*12
$IIRMC,163948,A,4629.712,N,00640.673,E,05.5,208,200614,01,E,A*0A
$IIVHW,,,205,M,04.8,N,,*6F
$IIVLW,01522,N,000.2,N*55
$IIVWR,134,R,08.4,N,,,,*6B
$IIDPT,015.3,-1.0,*47
$IIGLL,4629.711,N,00640.671,E,163949,A,A*5C
$IIHDG,205,,,01,E*14
$IIMTW,+16.0,C*3F
$IIMWV,136,R,08.2,N,A*1D
$IIMWV,150,T,12.0,N,A*12
$IIRMC,163949,A,4629.711,N,00640.671,E,06.6,202,200614,01,E,A*00
$IIVHW,,,205,M,04.8,N,,*6F
$IIVLW,01522,N,000.2,N*55
$IIVWR,138,R,08.2,N,,,,*61
$IIDPT,013.0,-1.0,*42
$IIGLL,4629.709,N,00640.671,E,163950,A,A*5D
$IIHDG,205,,,01,E*14
$IIMTW,+16.0,C*3F
$IIMWV,138,R,08.2,N,A*13
$IIMWV,153,T,12.0,N,A*11
$IIRMC,163950,A,4629.709,N,00640.671,E,05.6,206,200614,01,E,A*06
$IIVHW,,,205,M,04.7,N,,*60
$IIVLW,01522,N,000.2,N*55
$IIVWR,138,R,08.1,N,,,,*62
$IIDPT,013.0,-1.0,*42
$IIGLL,4629.708,N,00640.670,E,163951,A,A*5C
$IIHDG,204,,,01,E*15
$IIMTW,+16.0,C*3F
$IIMWV,138,R,08.1,N,A*10
$IIMWV,153,T,12.0,N,A*11
$IIRMC,163951,A,4629.708,N,00640.670,E,05.6,207,200614,01,E,A*06
$IIVHW,,,203,M,04.7,N,,*66
$IIVLW,01522,N,000.2,N*55
$IIVWR,139,R,08.2,N,,,,*60
$IIDPT,013.0,-1.0,*42
$IIGLL,4629.706,N,00640.669,E,163952,A,A*59
$IIHDG,203,,,01,E*12
$IIMTW,+16.0,C*3F
$IIMWV,139,R,08.2,N,A*12
$IIMWV,153,T,11.9,N,A*1B
$IIRMC,163953,A,4629.705,N,00640.668,E,05.6,204,200614,01,E,A*03
$IIVHW,,,203,M,04.7,N,,*66
$IIVLW,01522,N,000.2,N*55
$IIVWR,140,R,08.2,N,,,,*6E
$IIDPT,013.0,-1.0,*42
$IIGLL,4629.705,N,00640.668,E,163953,A,A*5A
$IIHDG,203,,,01,E*12
$IIMTW,+16.0,C*3F
$IIMWV,140,R,08.2,N,A*1C
$IIMWV,155,T,12.1,N,A*16
$IIRMC,163954,A,4629.704,N,00640.666,E,05.3,205,200614,01,E,A*0F
$IIVHW,,,203,M,04.7,N,,*66
$IIVLW,01522,N,000.2,N*55
$IIVWR,142,R,08.3,N,,,,*6D
$IIDPT,013.0,-1.0,*42
$IIGLL,4629.704,N,00640.666,E,163954,A,A*52
$IIHDG,203,,,01,E*12
$IIMTW,+16.0,C*3F
$IIMWV,145,R,08.3,N,A*18
$IIMWV,155,T,12.3,N,A*14
$IIRMC,163955,A,4629.702,N,00640.665,E,05.0,206,200614,01,E,A*0B
$IIVHW,,,201,M,04.7,N,,*64
$IIVLW,01522,N,000.2,N*55
$IIVWR,145,R,08.3,N,,,,*6A
$IIDPT,013.0,-1.0,*42
$IIGLL,4629.702,N,00640.665,E,163955,A,A*56
$IIHDG,201,,,01,E*10
$IIMTW,+16.5,C*3A
$IIMWV,147,R,08.4,N,A*1D
$IIMWV,158,T,12.4,N,A*1E
$IIRMC,163956,A,4629.701,N,00640.664,E,05.2,204,200614,01,E,A*0A
$IIVHW,,,201,M,04.6,N,,*65
$IIVLW,01522,N,000.2,N*55
$IIVWR,147,R,08.4,N,,,,*6F
$IIDPT,013.0,-1.0,*42
$IIGLL,4629.701,N,00640.664,E,163956,A,A*57
$IIHDG,201,,,01,E*10
$IIMTW,+15.5,C*39
$IIMWV,148,R,08.2,N,A*14
$IIMWV,159,T,12.5,N,A*1E
$IIRMC,163957,A,4629.700,N,00640.663,E,05.3,207,200614,01,E,A*0F
$IIVHW,,,201,M,04.6,N,,*65
$IIVLW,01522,N,000.2,N*55
$IIVWR,148,R,08.2,N,,,,*66
$IIDPT,013.0,-1.0,*42
$IIGLL,4629.698,N,00640.662,E,163958,A,A*5E
$IIHDG,203,,,01,E*12
$IIMTW,+15.5,C*39
$IIMWV,148,R,08.4,N,A*12
$IIMWV,160,T,12.2,N,A*13
$IIRMC,163958,A,4629.698,N,00640.662,E,05.0,204,200614,01,E,A*01
$IIVHW,,,203,M,04.6,N,,*67
$IIVLW,01522,N,000.2,N*55
$IIVWR,148,R,08.4,N,,,,*60
$IIDPT,013.0,-1.0,*42
$IIGLL,4629.697,N,00640.662,E,163959,A,A*50
$IIHDG,203,,,01,E*12
$IIMTW,+16.0,C*3F
$IIMWV,148,R,08.5,N,A*13
$IIMWV,159,T,12.5,N,A*1E
$IIRMC,163959,A,4629.697,N,00640.662,E,05.0,205,200614,01,E,A*0E
$IIVHW,,,203,M,04.5,N,,*64
$IIVLW,01522,N,000.2,N*55
$IIVWR,149,R,08.5,N,,,,*60
$IIDPT,013.0,-1.0,*42
$IIGLL,4629.696,N,00640.661,E,164000,A,A*50
$IIHDG,203,,,01,E*12
$IIMTW,+16.5,C*3A
$IIMWV,149,R,08.5,N,A*12
$IIMWV,159,T,12.6,N,A*1D
$IIRMC,164000,A,4629.696,N,00640.661,E,05.0,206,200614,01,E,A*0D
$IIVHW,,,203,M,04.5,N,,*64
$IIVLW,01522,N,000.2,N*55
$IIVWR,149,R,08.7,N,,,,*62
$IIDPT,012.9,-1.0,*4A
$IIGLL,4629.694,N,00640.660,E,164001,A,A*52
$IIHDG,203,,,01,E*12
$IIMTW,+16.5,C*3A
$IIMWV,149,R,08.7,N,A*10
$IIMWV,160,T,12.6,N,A*17
$IIRMC,164001,A,4629.694,N,00640.660,E,05.3,206,200614,01,E,A*0C
$IIVHW,,,203,M,04.5,N,,*64
$IIVLW,01522,N,000.2,N*55
$IIVWR,149,R,08.7,N,,,,*62
$IIDPT,012.9,-1.0,*4A
$IIGLL,4629.693,N,00640.659,E,164002,A,A*5C
$IIHDG,203,,,01,E*12
$IIMTW,+16.5,C*3A
$IIMWV,149,R,08.7,N,A*10
$IIMWV,159,T,12.8,N,A*13
$IIRMC,164003,A,4629.692,N,00640.658,E,05.3,205,200614,01,E,A*00
$IIVHW,,,203,M,04.5,N,,*64
$IIVLW,01522,N,000.2,N*55
$IIVWR,149,R,08.8,N,,,,*6D
$IIDPT,012.9,-1.0,*4A
$IIGLL,4629.692,N,00640.658,E,164003,A,A*5D
$IIHDG,203,,,01,E*12
$IIMTW,+16.5,C*3A
$IIMWV,149,R,08.8,N,A*1F
$IIMWV,160,T,12.9,N,A*18
$IIRMC,164004,A,4629.691,N,00640.657,E,05.3,206,200614,01,E,A*08
$IIVHW,,,203,M,04.5,N,,*64
$IIVLW,01522,N,000.2,N*55
$IIVWR,147,R,08.8,N,,,,*63
$IIDPT,012.9,-1.0,*4A
$IIGLL,4629.691,N,00640.657,E,164004,A,A*56
$IIHDG,203,,,01,E*12
$IIMTW,+16.0,C*3F
$IIMWV,146,R,08.7,N,A*1F
$IIMWV,159,T,12.7,N,A*1C
$IIRMC,164005,A,4629.690,N,00640.656,E,05.3,207,200614,01,E,A*08
$IIVHW,,,203,M,04.5,N,,*64
$IIVLW,01522,N,000.2,N*55
$IIVWR,146,R,08.7,N,,,,*6D
$IIDPT,012.9,-1.0,*4A
$IIGLL,4629.690,N,00640.656,E,164005,A,A*57
$IIHDG,203,,,01,E*12
$IIMTW,+16.0,C*3F
$IIMWV,145,R,08.7,N,A*1C
$IIMWV,158,T,12.6,N,A*1C
$IIRMC,164006,A,4629.688,N,00640.655,E,05.3,206,200614,01,E,A*00
$IIVHW,,,203,M,04.4,N,,*65
$IIVLW,01522,N,000.2,N*55
$IIVWR,145,R,08.7,N,,,,*6E
$IIDPT,012.9,-1.0,*4A
$IIGLL,4629.688,N,00640.655,E,164006,A,A*5E
$IIHDG,203,,,01,E*12
$IIMTW,+16.0,C*3F
$IIMWV,144,R,08.6,N,A*1C
$IIMWV,157,T,12.5,N,A*10
$IIRMC,164007,A,4629.687,N,00640.654,E,05.3,207,200614,01,E,A*0E
$IIVHW,,,203,M,04.4,N,,*65
$IIVLW,01522,N,000.2,N*55
$IIVWR,144,R,08.6,N,,,,*6E
$IIDPT,012.9,-1.0,*4A
$IIGLL,4629.686,N,00640.653,E,164008,A,A*58
$IIHDG,203,,,01,E*12
$IIMTW,+16.0,C*3F
$IIMWV,143,R,08.4,N,A*19
$IIMWV,156,T,12.4,N,A*10
$IIRMC,164008,A,4629.686,N,00640.653,E,05.2,206,200614,01,E,A*07
$IIVHW,,,203,M,04.4,N,,*65
$IIVLW,01522,N,000.2,N*55
$IIVWR,143,R,08.4,N,,,,*6B
$IIDPT,012.9,-1.0,*4A
$IIGLL,4629.685,N,00640.652,E,164009,A,A*5B
$IIHDG,204,,,01,E*15
$IIMTW,+16.0,C*3F
$IIMWV,144,R,08.2,N,A*18
$IIMWV,156,T,12.1,N,A*15
$IIRMC,164009,A,4629.685,N,00640.652,E,05.1,208,200614,01,E,A*09
$IIVHW,,,204,M,04.4,N,,*62
$IIVLW,01522,N,000.2,N*55
$IIVWR,144,R,08.2,N,,,,*6A
$IIDPT,012.9,-1.0,*4A
$IIGLL,4629.683,N,00640.651,E,164010,A,A*56
$IIHDG,205,,,01,E*14
$IIMTW,+16.0,C*3F
$IIMWV,144,R,08.2,N,A*18
$IIMWV,157,T,12.0,N,A*15
$IIRMC,164010,A,4629.683,N,00640.651,E,05.1,209,200614,01,E,A*05
$IIVHW,,,205,M,04.4,N,,*63
$IIVLW,01522,N,000.2,N*55
$IIVWR,145,R,08.5,N,,,,*6C
$IIDPT,012.9,-1.0,*4A
$IIGLL,4629.682,N,00640.650,E,164011,A,A*57
$IIHDG,206,,,01,E*17
$IIMTW,+16.0,C*3F
$IIMWV,145,R,08.5,N,A*1E
$IIMWV,157,T,12.0,N,A*15
$IIRMC,164011,A,4629.682,N,00640.650,E,05.1,211,200614,01,E,A*0D
$IIVHW,,,206,M,04.3,N,,*67
$IIVLW,01522,N,000.2,N*55
$IIVWR,146,R,08.5,N,,,,*6F
$IIDPT,012.9,-1.0,*4A
$IIGLL,4629.681,N,00640.649,E,164012,A,A*5F
$IIHDG,206,,,01,E*17
$IIMTW,+16.0,C*3F
$IIMWV,146,R,08.5,N,A*1D
$IIMWV,157,T,12.2,N,A*17
$IIRMC,164013,A,4629.679,N,00640.647,E,05.1,212,200614,01,E,A*0E
$IIVHW,,,207,M,04.3,N,,*66
$IIVLW,01522,N,000.2,N*55
$IIVWR,145,R,08.3,N,,,,*6A
$IIDPT,012.9,-1.0,*4A
$IIGLL,4629.679,N,00640.647,E,164013,A,A*57
$IIHDG,207,,,01,E*16
$IIMTW,+16.0,C*3F
$IIMWV,145,R,08.3,N,A*18
$IIMWV,157,T,12.1,N,A*14
$IIRMC,164013,A,4629.679,N,00640.647,E,05.1,212,200614,01,E,A*0E
$IIVHW,,,207,M,04.3,N,,*66
$IIVLW,01522,N,000.2,N*55
$IIVWR,145,R,08.3,N,,,,*6A
$IIDPT,012.9,-1.0,*4A
$IIGLL,4629.679,N,00640.647,E,164013,A,A*57
$IIHDG,207,,,01,E*16
$IIMTW,+16.0,C*3F
$IIMWV,143,R,08.3,N,A*1E
$IIMWV,157,T,12.1,N,A*14
$IIRMC,164015,A,4629.677,N,00640.645,E,05.1,212,200614,01,E,A*04
$IIVHW,,,207,M,04.3,N,,*66
$IIVLW,01522,N,000.2,N*55
$IIVWR,143,R,08.3,N,,,,*6C
$IIDPT,012.9,-1.0,*4A
$IIGLL,4629.677,N,00640.645,E,164015,A,A*5D
$IIHDG,207,,,01,E*16
$IIMTW,+16.0,C*3F
$IIMWV,143,R,08.4,N,A*19
$IIMWV,156,T,12.0,N,A*14
$IIRMC,164016,A,4629.676,N,00640.644,E,05.2,213,200614,01,E,A*05
$IIVHW,,,210,M,04.3,N,,*60
$IIVLW,01522,N,000.2,N*55
$IIVWR,143,R,08.4,N,,,,*6B
$IIDPT,012.9,-1.0,*4A
$IIGLL,4629.676,N,00640.644,E,164016,A,A*5E
$IIHDG,210,,,01,E*10
$IIMTW,+16.0,C*3F
$IIMWV,142,R,08.6,N,A*1A
$IIMWV,156,T,12.1,N,A*15
$IIRMC,164017,A,4629.675,N,00640.643,E,05.2,215,200614,01,E,A*06
$IIVHW,,,210,M,04.3,N,,*60
$IIVLW,01522,N,000.2,N*55
$IIVWR,142,R,08.6,N,,,,*68
$IIDPT,012.9,-1.0,*4A
$IIGLL,4629.673,N,00640.642,E,164018,A,A*53
$IIHDG,210,,,01,E*10
$IIMTW,+16.0,C*3F
$IIMWV,141,R,08.7,N,A*18
$IIMWV,154,T,12.3,N,A*15
$IIRMC,164018,A,4629.673,N,00640.642,E,05.2,215,200614,01,E,A*0E
$IIVHW,,,210,M,04.3,N,,*60
$IIVLW,01522,N,000.2,N*55
$IIVWR,141,R,08.7,N,,,,*6A
$IIDPT,012.9,-1.0,*4A
$IIGLL,4629.672,N,00640.640,E,164019,A,A*51
$IIHDG,212,,,01,E*12
$IIMTW,+16.0,C*3F
$IIMWV,140,R,08.9,N,A*17
$IIMWV,154,T,12.3,N,A*15
$IIRMC,164019,A,4629.672,N,00640.640,E,05.2,216,200614,01,E,A*0F
$IIVHW,,,212,M,04.3,N,,*62
$IIVLW,01522,N,000.2,N*55
$IIVWR,140,R,08.9,N,,,,*65
$IIDPT,012.9,-1.0,*4A
$IIGLL,4629.670,N,00640.640,E,164020,A,A*59
$IIHDG,212,,,01,E*12
$IIMTW,+16.0,C*3F
$IIMWV,140,R,08.9,N,A*17
$IIMWV,153,T,12.5,N,A*14
$IIRMC,164020,A,4629.670,N,00640.640,E,05.2,215,200614,01,E,A*04
$IIVHW,,,212,M,04.3,N,,*62
$IIVLW,01522,N,000.2,N*55
$IIVWR,140,R,08.8,N,,,,*64
$IIDPT,012.9,-1.0,*4A
$IIGLL,4629.669,N,00640.639,E,164021,A,A*5E
$IIHDG,212,,,01,E*12
$IIMTW,+16.0,C*3F
$IIMWV,140,R,08.8,N,A*16
$IIMWV,153,T,12.5,N,A*14
$IIRMC,164021,A,4629.669,N,00640.639,E,05.2,216,200614,01,E,A*00
$IIVHW,,,213,M,04.3,N,,*63
$IIVLW,01522,N,000.2,N*55
$IIVWR,141,R,08.7,N,,,,*6A
$IIDPT,012.9,-1.0,*4A
$IIGLL,4629.668,N,00640.637,E,164022,A,A*52
$IIHDG,213,,,01,E*13
$IIMTW,+16.0,C*3F
$IIMWV,141,R,08.7,N,A*18
$IIMWV,153,T,12.4,N,A*15
$IIRMC,164023,A,4629.667,N,00640.636,E,05.2,215,200614,01,E,A*00
$IIVHW,,,213,M,04.3,N,,*63
$IIVLW,01522,N,000.2,N*55
$IIVWR,141,R,08.5,N,,,,*68
$IIDPT,012.9,-1.0,*4A
$IIGLL,4629.667,N,00640.636,E,164023,A,A*5D
$IIHDG,213,,,01,E*13
$IIMTW,+16.0,C*3F
$IIMWV,141,R,08.5,N,A*1A
$IIMWV,154,T,12.2,N,A*14
$IIRMC,164024,A,4629.666,N,00640.635,E,05.2,217,200614,01,E,A*07
$IIVHW,,,212,M,04.3,N,,*62
$IIVLW,01522,N,000.2,N*55
$IIVWR,142,R,08.5,N,,,,*6B
$IIDPT,012.9,-1.0,*4A
$IIGLL,4629.666,N,00640.635,E,164024,A,A*58
$IIHDG,212,,,01,E*12
$IIMTW,+16.0,C*3F
$IIMWV,141,R,08.5,N,A*1A
$IIMWV,155,T,12.1,N,A*16
$IIRMC,164025,A,4629.664,N,00640.634,E,05.2,216,200614,01,E,A*04
$IIVHW,,,212,M,04.3,N,,*62
$IIVLW,01522,N,000.2,N*55
$IIVWR,141,R,08.5,N,,,,*68
$IIDPT,013.0,-1.0,*42
$IIGLL,4629.664,N,00640.634,E,164025,A,A*5A
$IIHDG,212,,,01,E*12
$IIMTW,+16.0,C*3F
$IIMWV,142,R,08.3,N,A*1F
$IIMWV,154,T,12.1,N,A*17
$IIRMC,164026,A,4629.663,N,00640.633,E,05.2,217,200614,01,E,A*06
$IIVHW,,,212,M,04.3,N,,*62
$IIVLW,01522,N,000.2,N*55
$IIVWR,142,R,08.3,N,,,,*6D
$IIDPT,013.0,-1.0,*42
$IIGLL,4629.663,N,00640.633,E,164026,A,A*59
$IIHDG,212,,,01,E*12
$IIMTW,+16.0,C*3F
$IIMWV,142,R,08.3,N,A*1F
$IIMWV,155,T,11.9,N,A*1D
$IIRMC,164027,A,4629.662,N,00640.631,E,05.3,215,200614,01,E,A*07
$IIVHW,,,212,M,04.3,N,,*62
$IIVLW,01522,N,000.2,N*55
$IIVWR,142,R,08.3,N,,,,*6D
$IIDPT,013.0,-1.0,*42
$IIGLL,4629.661,N,00640.630,E,164028,A,A*56
$IIHDG,212,,,01,E*12
$IIMTW,+16.0,C*3F
$IIMWV,143,R,08.1,N,A*1C
$IIMWV,155,T,11.9,N,A*1D
$IIRMC,164028,A,4629.661,N,00640.630,E,05.3,213,200614,01,E,A*0C
$IIVHW,,,212,M,04.3,N,,*62
$IIVLW,01522,N,000.2,N*55
$IIVWR,143,R,08.1,N,,,,*6E
$IIDPT,013.0,-1.0,*42
$IIGLL,4629.659,N,00640.629,E,164029,A,A*54
$IIHDG,213,,,01,E*13
$IIMTW,+16.0,C*3F
$IIMWV,142,R,08.0,N,A*1C
$IIMWV,156,T,11.7,N,A*10
$IIRMC,164029,A,4629.659,N,00640.629,E,05.2,217,200614,01,E,A*0B
$IIVHW,,,213,M,04.3,N,,*63
$IIVLW,01522,N,000.2,N*55
$IIVWR,143,R,08.1,N,,,,*6E
$IIDPT,013.0,-1.0,*42
$IIGLL,4629.658,N,00640.628,E,164030,A,A*5C
$IIHDG,213,,,01,E*13
$IIMTW,+16.0,C*3F
$IIMWV,143,R,08.1,N,A*1C
$IIMWV,155,T,11.7,N,A*13
$IIRMC,164030,A,4629.658,N,00640.628,E,05.2,218,200614,01,E,A*0C
$IIVHW,,,213,M,04.3,N,,*63
$IIVLW,01522,N,000.2,N*55
$IIVWR,142,R,08.0,N,,,,*6E
$IIDPT,013.0,-1.0,*42
$IIGLL,4629.657,N,00640.627,E,164031,A,A*5D
$IIHDG,213,,,01,E*13
$IIMTW,+16.0,C*3F
$IIMWV,142,R,08.0,N,A*1C
$IIMWV,156,T,11.8,N,A*1F
$IIRMC,164031,A,4629.657,N,00640.627,E,05.2,217,200614,01,E,A*02
$IIVHW,,,213,M,04.3,N,,*63
$IIVLW,01522,N,000.2,N*55
$IIVWR,142,R,07.9,N,,,,*68
$IIDPT,013.0,-1.0,*42
$IIGLL,4629.656,N,00640.625,E,164032,A,A*5D
$IIHDG,213,,,01,E*13
$IIMTW,+16.0,C*3F
$IIMWV,142,R,07.9,N,A*1A
$IIMWV,155,T,11.6,N,A*12
$IIRMC,164033,A,4629.655,N,00640.624,E,05.1,217,200614,01,E,A*02
$IIVHW,,,212,M,04.3,N,,*62
$IIVLW,01522,N,000.2,N*55
$IIVWR,140,R,08.0,N,,,,*6C
$IIDPT,013.0,-1.0,*42
$IIGLL,4629.655,N,00640.624,E,164033,A,A*5E
$IIHDG,212,,,01,E*12
$IIMTW,+15.5,C*39
$IIMWV,140,R,08.0,N,A*1E
$IIMWV,154,T,11.5,N,A*10
$IIRMC,164034,A,4629.654,N,00640.623,E,05.1,215,200614,01,E,A*01
$IIVHW,,,211,M,04.3,N,,*61
$IIVLW,01522,N,000.2,N*55
$IIVWR,140,R,07.9,N,,,,*6A
$IIDPT,013.0,-1.0,*42
$IIGLL,4629.654,N,00640.623,E,164034,A,A*5F
$IIHDG,211,,,01,E*11
$IIMTW,+15.5,C*39
$IIMWV,142,R,07.9,N,A*1A
$IIMWV,154,T,11.4,N,A*11
$IIRMC,164035,A,4629.653,N,00640.621,E,05.1,215,200614,01,E,A*05
$IIVHW,,,211,M,04.3,N,,*61
$IIVLW,01522,N,000.2,N*55
$IIVWR,142,R,07.9,N,,,,*68
$IIDPT,013.0,-1.0,*42
$IIGLL,4629.653,N,00640.621,E,164035,A,A*5B
$IIHDG,211,,,01,E*11
$IIMTW,+16.0,C*3F
$IIMWV,145,R,07.9,N,A*1D
$IIMWV,155,T,11.5,N,A*11
$IIRMC,164036,A,4629.652,N,00640.620,E,05.1,213,200614,01,E,A*00
$IIVHW,,,210,M,04.3,N,,*60
$IIVLW,01522,N,000.2,N*55
$IIVWR,145,R,07.9,N,,,,*6F
$IIDPT,013.0,-1.0,*42
$IIGLL,4629.652,N,00640.620,E,164036,A,A*58
$IIHDG,210,,,01,E*10
$IIMTW,+16.0,C*3F
$IIMWV,144,R,07.9,N,A*1C
$IIMWV,157,T,11.6,N,A*10
$IIRMC,164036,A,4629.652,N,00640.620,E,05.1,213,200614,01,E,A*00
$IIVHW,,,210,M,04.2,N,,*61
$IIVLW,01522,N,000.2,N*55
$IIVWR,144,R,07.9,N,,,,*6E
$IIDPT,013.0,-1.0,*42
$IIGLL,4629.650,N,00640.618,E,164038,A,A*5F
$IIHDG,210,,,01,E*10
$IIMTW,+16.0,C*3F
$IIMWV,146,R,08.0,N,A*18
$IIMWV,157,T,11.5,N,A*13
$IIRMC,164038,A,4629.650,N,00640.618,E,05.0,217,200614,01,E,A*02
$IIVHW,,,210,M,04.2,N,,*61
$IIVLW,01522,N,000.2,N*55
$IIVWR,146,R,08.0,N,,,,*6A
$IIDPT,013.0,-1.0,*42
$IIGLL,4629.648,N,00640.617,E,164039,A,A*58
$IIHDG,210,,,01,E*10
$IIMTW,+16.0,C*3F
$IIMWV,146,R,08.3,N,A*1B
$IIMWV,158,T,11.6,N,A*1F
$IIRMC,164039,A,4629.648,N,00640.617,E,05.0,211,200614,01,E,A*03
$IIVHW,,,210,M,04.2,N,,*61
$IIVLW,01522,N,000.2,N*55
$IIVWR,148,R,08.3,N,,,,*67
$IIDPT,013.0,-1.0,*42
$IIGLL,4629.647,N,00640.616,E,164040,A,A*58
$IIHDG,209,,,01,E*18
$IIMTW,+15.5,C*39
$IIMWV,148,R,08.3,N,A*15
$IIMWV,157,T,11.9,N,A*1F
$IIRMC,164040,A,4629.647,N,00640.616,E,05.0,214,200614,01,E,A*06
$IIVHW,,,209,M,04.2,N,,*69
$IIVLW,01522,N,000.2,N*55
$IIVWR,148,R,08.3,N,,,,*67
$IIDPT,013.0,-1.0,*42
$IIGLL,4629.646,N,00640.615,E,164041,A,A*5B
$IIHDG,209,,,01,E*18
$IIMTW,+16.0,C*3F
$IIMWV,148,R,08.3,N,A*15
$IIMWV,159,T,11.9,N,A*11
$IIRMC,164041,A,4629.646,N,00640.615,E,05.0,208,200614,01,E,A*08
$IIVHW,,,208,M,04.1,N,,*6B
$IIVLW,01522,N,000.2,N*55
$IIVWR,151,R,08.4,N,,,,*68
$IIDPT,013.0,-1.0,*42
$IIGLL,4629.645,N,00640.614,E,164042,A,A*5A
$IIHDG,208,,,01,E*19
$IIMTW,+16.0,C*3F
$IIMWV,151,R,08.4,N,A*1A
$IIMWV,159,T,11.9,N,A*11
$IIRMC,164043,A,4629.644,N,00640.613,E,04.7,215,200614,01,E,A*04
$IIVHW,,,207,M,04.1,N,,*64
$IIVLW,01522,N,000.2,N*55
$IIVWR,151,R,08.3,N,,,,*6F
$IIDPT,013.0,-1.0,*42
$IIGLL,4629.644,N,00640.613,E,164043,A,A*5D
$IIHDG,207,,,01,E*16
$IIMTW,+16.0,C*3F
$IIMWV,151,R,08.3,N,A*1D
$IIMWV,161,T,11.9,N,A*1A
$IIRMC,164044,A,4629.643,N,00640.612,E,04.7,211,200614,01,E,A*01
$IIVHW,,,207,M,04.1,N,,*64
$IIVLW,01522,N,000.2,N*55
$IIVWR,152,R,08.1,N,,,,*6E
$IIDPT,013.0,-1.0,*42
$IIGLL,4629.643,N,00640.612,E,164044,A,A*5C
$IIHDG,207,,,01,E*16
$IIMTW,+16.0,C*3F
$IIMWV,153,R,08.1,N,A*1D
$IIMWV,161,T,11.8,N,A*1B
$IIRMC,164044,A,4629.643,N,00640.612,E,04.7,211,200614,01,E,A*01
$IIVHW,,,206,M,04.1,N,,*65
$IIVLW,01522,N,000.2,N*55
$IIVWR,153,R,08.1,N,,,,*6F
$IIDPT,013.0,-1.0,*42
$IIGLL,4629.643,N,00640.612,E,164044,A,A*5C
$IIHDG,206,,,01,E*17
$IIMTW,+16.0,C*3F
$IIMWV,154,R,08.0,N,A*1B
$IIMWV,163,T,11.8,N,A*19
$IIRMC,164046,A,4629.640,N,00640.610,E,04.8,210,200614,01,E,A*0C
$IIVHW,,,206,M,04.0,N,,*64
$IIVLW,01522,N,000.2,N*55
$IIVWR,154,R,08.0,N,,,,*69
$IIDPT,013.0,-1.0,*42
$IIGLL,4629.640,N,00640.610,E,164046,A,A*5F
$IIHDG,205,,,01,E*14
$IIMTW,+15.5,C*39
$IIMWV,153,R,08.1,N,A*1D
$IIMWV,163,T,11.8,N,A*19
$IIRMC,164047,A,4629.639,N,00640.609,E,05.2,200,200614,01,E,A*01
$IIVHW,,,205,M,04.0,N,,*67
$IIVLW,01522,N,000.2,N*55
$IIVWR,153,R,08.1,N,,,,*6F
$IIDPT,013.0,-1.0,*42
$IIGLL,4629.638,N,00640.608,E,164048,A,A*57
$IIHDG,205,,,01,E*14
$IIMTW,+16.0,C*3F
$IIMWV,154,R,08.0,N,A*1B
$IIMWV,163,T,11.8,N,A*19
$IIRMC,164048,A,4629.638,N,00640.608,E,04.8,211,200614,01,E,A*05
$IIVHW,,,205,M,04.0,N,,*67
$IIVLW,01522,N,000.2,N*55
$IIVWR,154,R,08.0,N,,,,*69
$IIDPT,013.0,-1.0,*42
$IIGLL,4629.637,N,00640.607,E,164049,A,A*56
$IIHDG,205,,,01,E*14
$IIMTW,+16.0,C*3F
$IIMWV,156,R,08.1,N,A*18
$IIMWV,163,T,11.8,N,A*19
$IIRMC,164049,A,4629.637,N,00640.607,E,04.7,210,200614,01,E,A*0A
$IIVHW,,,205,M,04.0,N,,*67
$IIVLW,01522,N,000.2,N*55
$IIVWR,156,R,08.2,N,,,,*69
$IIDPT,013.0,-1.0,*42
$IIGLL,4629.636,N,00640.606,E,164050,A,A*5E
$IIHDG,205,,,01,E*14
$IIMTW,+16.0,C*3F
$IIMWV,156,R,08.2,N,A*1B
$IIMWV,164,T,11.8,N,A*1E
$IIRMC,164050,A,4629.636,N,00640.606,E,04.9,207,200614,01,E,A*0A
$IIVHW,,,205,M,04.0,N,,*67
$IIVLW,01522,N,000.2,N*55
$IIVWR,157,R,08.2,N,,,,*68
$IIDPT,013.0,-1.0,*42
$IIGLL,4629.634,N,00640.605,E,164051,A,A*5E
$IIHDG,203,,,01,E*12
$IIMTW,+16.0,C*3F
$IIMWV,157,R,08.2,N,A*1A
$IIMWV,164,T,11.8,N,A*1E
$IIRMC,164051,A,4629.634,N,00640.605,E,04.8,206,200614,01,E,A*0A
$IIVHW,,,203,M,03.9,N,,*6F
$IIVLW,01522,N,000.2,N*55
$IIVWR,158,R,08.3,N,,,,*66
$IIDPT,013.0,-1.0,*42
$IIGLL,4629.634,N,00640.605,E,164051,A,A*5E
$IIHDG,203,,,01,E*12
$IIMTW,+16.0,C*3F
$IIMWV,158,R,08.3,N,A*14
$IIMWV,165,T,11.9,N,A*1E
$IIRMC,164053,A,4629.632,N,00640.603,E,04.7,205,200614,01,E,A*04
$IIVHW,,,203,M,03.9,N,,*6F
$IIVLW,01522,N,000.2,N*55
$IIVWR,159,R,08.3,N,,,,*67
$IIDPT,013.0,-1.0,*42
$IIGLL,4629.632,N,00640.603,E,164053,A,A*5C
$IIHDG,203,,,01,E*12
$IIMTW,+16.0,C*3F
$IIMWV,159,R,08.3,N,A*15
$IIMWV,166,T,12.0,N,A*17
$IIRMC,164054,A,4629.631,N,00640.602,E,04.8,203,200614,01,E,A*08
$IIVHW,,,201,M,03.9,N,,*6D
$IIVLW,01522,N,000.2,N*55
$IIVWR,161,R,08.5,N,,,,*6A
$IIDPT,013.0,-1.0,*42
$IIGLL,4629.631,N,00640.602,E,164054,A,A*59
$IIHDG,201,,,01,E*10
$IIMTW,+16.0,C*3F
$IIMWV,160,R,08.5,N,A*19
$IIMWV,167,T,12.2,N,A*14
$IIRMC,164055,A,4629.630,N,00640.601,E,04.8,202,200614,01,E,A*0A
$IIVHW,,,201,M,03.9,N,,*6D
$IIVLW,01522,N,000.2,N*55
$IIVWR,160,R,08.5,N,,,,*6B
$IIDPT,013.0,-1.0,*42
$IIGLL,4629.630,N,00640.601,E,164055,A,A*5A
$IIHDG,201,,,01,E*10
$IIMTW,+16.0,C*3F
$IIMWV,162,R,08.7,N,A*19
$IIMWV,167,T,12.1,N,A*17
$IIRMC,164056,A,4629.629,N,00640.600,E,04.5,204,200614,01,E,A*0B
$IIVHW,,,200,M,03.9,N,,*6C
$IIVLW,01522,N,000.2,N*55
$IIVWR,162,R,08.7,N,,,,*6B
$IIDPT,013.0,-1.0,*42
$IIGLL,4629.629,N,00640.600,E,164056,A,A*50
$IIHDG,200,,,01,E*11
$IIMTW,+16.0,C*3F
$IIMWV,163,R,09.0,N,A*1E
$IIMWV,168,T,12.3,N,A*1A
$IIRMC,164057,A,4629.628,N,00640.600,E,04.5,206,200614,01,E,A*09
$IIVHW,,,200,M,03.8,N,,*6D
$IIVLW,01522,N,000.2,N*55
$IIVWR,163,R,09.0,N,,,,*6C
$IIDPT,013.0,-1.0,*42
$IIGLL,4629.627,N,00640.599,E,164058,A,A*53
$IIHDG,200,,,01,E*11
$IIMTW,+16.0,C*3F
$IIMWV,163,R,09.3,N,A*1D
$IIMWV,168,T,12.7,N,A*1E
$IIRMC,164058,A,4629.627,N,00640.599,E,04.4,206,200614,01,E,A*0B
$IIVHW,,,200,M,03.8,N,,*6D
$IIVLW,01522,N,000.2,N*55
$IIVWR,163,R,09.3,N,,,,*6F
$IIDPT,013.0,-1.0,*42
$IIGLL,4629.627,N,00640.599,E,164058,A,A*53
$IIHDG,200,,,01,E*11
$IIMTW,+16.0,C*3F
$IIMWV,164,R,09.4,N,A*1D
$IIMWV,168,T,13.0,N,A*18
$IIRMC,164058,A,4629.627,N,00640.599,E,04.4,206,200614,01,E,A*0B
$IIVHW,,,200,M,03.8,N,,*6D
$IIVLW,01522,N,000.2,N*55
$IIVWR,164,R,09.5,N,,,,*6E
$IIDPT,013.0,-1.0,*42
$IIGLL,4629.625,N,00640.597,E,164100,A,A*53
$IIHDG,200,,,01,E*11
$IIMTW,+16.0,C*3F
$IIMWV,164,R,09.5,N,A*1C
$IIMWV,168,T,13.1,N,A*19
$IIRMC,164100,A,4629.625,N,00640.597,E,04.5,204,200614,01,E,A*08
$IIVHW,,,200,M,03.8,N,,*6D
$IIVLW,01522,N,000.2,N*55
$IIVWR,164,R,09.6,N,,,,*6D
$IIDPT,013.0,-1.0,*42
$IIGLL,4629.623,N,00640.597,E,164101,A,A*54
$IIHDG,200,,,01,E*11
$IIMTW,+16.0,C*3F
$IIMWV,164,R,09.6,N,A*1F
$IIMWV,168,T,13.1,N,A*19
$IIRMC,164101,A,4629.623,N,00640.597,E,04.5,204,200614,01,E,A*0F
$IIVHW,,,200,M,03.7,N,,*62
$IIVLW,01522,N,000.2,N*55
$IIVWR,165,R,09.7,N,,,,*6D
$IIDPT,013.0,-1.0,*42
$IIGLL,4629.622,N,00640.596,E,164102,A,A*57
$IIHDG,200,,,01,E*11
$IIMTW,+16.0,C*3F
$IIMWV,165,R,09.7,N,A*1F
$IIMWV,169,T,13.2,N,A*1B
$IIRMC,164103,A,4629.621,N,00640.596,E,04.2,210,200614,01,E,A*0C
$IIVHW,,,200,M,03.7,N,,*62
$IIVLW,01522,N,000.2,N*55
$IIVWR,165,R,09.6,N,,,,*6C
$IIDPT,013.0,-1.0,*42
$IIGLL,4629.621,N,00640.596,E,164103,A,A*55
$IIHDG,200,,,01,E*11
$IIMTW,+16.0,C*3F
$IIMWV,165,R,09.6,N,A*1E
$IIMWV,170,T,13.3,N,A*12
$IIRMC,164106,A,4629.618,N,00640.593,E,04.6,209,200614,01,E,A*0A
$IIVHW,,,201,M,03.7,N,,*63
$IIVLW,01522,N,000.2,N*55
$IIVWR,164,R,09.7,N,,,,*6C
$IIDPT,013.0,-1.0,*42
$IIGLL,4629.618,N,00640.593,E,164106,A,A*5F
$IIHDG,201,,,01,E*10
$IIMTW,+16.0,C*3F
$IIMWV,163,R,09.6,N,A*18
$IIMWV,168,T,13.3,N,A*1B
$IIRMC,164107,A,4629.617,N,00640.592,E,04.6,211,200614,01,E,A*0C
$IIVHW,,,201,M,03.7,N,,*63
$IIVLW,01522,N,000.2,N*55
$IIVWR,163,R,09.6,N,,,,*6A
$IIDPT,013.0,-1.0,*42
$IIGLL,4629.617,N,00640.592,E,164107,A,A*50
$IIHDG,201,,,01,E*10
$IIMTW,+16.0,C*3F
$IIMWV,163,R,09.7,N,A*19
$IIMWV,168,T,13.2,N,A*1A
$IIRMC,164108,A,4629.615,N,00640.592,E,04.6,207,200614,01,E,A*06
$IIVHW,,,200,M,03.8,N,,*6D
$IIVLW,01522,N,000.2,N*55
$IIVWR,163,R,09.7,N,,,,*6B
$IIDPT,013.0,-1.0,*42
$IIGLL,4629.615,N,00640.592,E,164108,A,A*5D
$IIHDG,200,,,01,E*11
$IIMTW,+16.0,C*3F
$IIMWV,164,R,09.8,N,A*11
$IIMWV,168,T,13.3,N,A*1B
$IIRMC,164109,A,4629.614,N,00640.591,E,04.6,206,200614,01,E,A*04
$IIVHW,,,200,M,03.8,N,,*6D
$IIVLW,01522,N,000.2,N*55
$IIVWR,164,R,09.8,N,,,,*63
$IIDPT,013.0,-1.0,*42
$IIGLL,4629.613,N,00640.590,E,164110,A,A*50
$IIHDG,200,,,01,E*11
$IIMTW,+16.5,C*3A
$IIMWV,164,R,09.8,N,A*11
$IIMWV,168,T,13.4,N,A*1C
$IIRMC,164110,A,4629.613,N,00640.590,E,04.6,205,200614,01,E,A*09
$IIVHW,,,200,M,03.9,N,,*6C
$IIVLW,01522,N,000.2,N*55
$IIVWR,164,R,09.8,N,,,,*63
$IIDPT,013.0,-1.0,*42
$IIGLL,4629.612,N,00640.589,E,164111,A,A*58
$IIHDG,201,,,01,E*10
$IIMTW,+15.5,C*39
$IIMWV,164,R,09.8,N,A*11
$IIMWV,168,T,13.5,N,A*1D
$IIRMC,164111,A,4629.612,N,00640.589,E,05.3,200,200614,01,E,A*00
$IIVHW,,,201,M,03.9,N,,*6D
$IIVLW,01522,N,000.2,N*55
$IIVWR,162,R,09.6,N,,,,*6B
$IIDPT,013.0,-1.0,*42
$IIGLL,4629.611,N,00640.589,E,164112,A,A*58
$IIHDG,202,,,01,E*13
$IIMTW,+15.5,C*39
$IIMWV,162,R,09.6,N,A*19
$IIMWV,168,T,13.6,N,A*1E
$IIRMC,164112,A,4629.611,N,00640.589,E,05.3,207,200614,01,E,A*07
$IIVHW,,,202,M,04.0,N,,*60
$IIVLW,01522,N,000.3,N*54
$IIVWR,162,R,09.7,N,,,,*6A
$IIDPT,013.0,-1.0,*42
$IIGLL,4629.610,N,00640.587,E,164113,A,A*56
$IIHDG,203,,,01,E*12
$IIMTW,+16.0,C*3F
$IIMWV,162,R,09.7,N,A*18
$IIMWV,168,T,13.4,N,A*1C
$IIRMC,164113,A,4629.610,N,00640.587,E,05.3,209,200614,01,E,A*07
$IIVHW,,,203,M,04.2,N,,*63
$IIVLW,01522,N,000.3,N*54
$IIVWR,159,R,09.5,N,,,,*60
$IIDPT,013.0,-1.0,*42
$IIGLL,4629.610,N,00640.587,E,164113,A,A*56
$IIHDG,203,,,01,E*12
$IIMTW,+16.0,C*3F
$IIMWV,159,R,09.5,N,A*12
$IIMWV,167,T,13.6,N,A*11
$IIRMC,164115,A,4629.607,N,00640.585,E,05.4,207,200614,01,E,A*0C
$IIVHW,,,204,M,04.3,N,,*65
$IIVLW,01522,N,000.3,N*54
$IIVWR,159,R,09.5,N,,,,*60
$IIDPT,013.0,-1.0,*42
$IIGLL,4629.607,N,00640.585,E,164115,A,A*54
$IIHDG,204,,,01,E*15
$IIMTW,+16.0,C*3F
$IIMWV,159,R,09.5,N,A*12
$IIMWV,165,T,13.5,N,A*10
$IIRMC,164116,A,4629.606,N,00640.584,E,05.7,207,200614,01,E,A*0C
$IIVHW,,,204,M,04.4,N,,*62
$IIVLW,01522,N,000.3,N*54
$IIVWR,158,R,09.1,N,,,,*65
$IIDPT,013.0,-1.0,*42
$IIGLL,4629.606,N,00640.584,E,164116,A,A*57
$IIHDG,204,,,01,E*15
$IIMTW,+15.5,C*39
$IIMWV,154,R,09.0,N,A*1A
$IIMWV,165,T,13.2,N,A*17
$IIRMC,164117,A,4629.605,N,00640.583,E,05.7,210,200614,01,E,A*0F
$IIVHW,,,205,M,04.5,N,,*62
$IIVLW,01522,N,000.3,N*54
$IIVWR,154,R,09.0,N,,,,*68
$IIDPT,013.0,-1.0,*42
$IIGLL,4629.605,N,00640.583,E,164117,A,A*52
$IIHDG,205,,,01,E*14
$IIMTW,+16.0,C*3F
$IIMWV,153,R,08.7,N,A*1B
$IIMWV,163,T,13.1,N,A*12
$IIRMC,164118,A,4629.604,N,00640.581,E,05.4,212,200614,01,E,A*02
$IIVHW,,,206,M,04.6,N,,*62
$IIVLW,01522,N,000.3,N*54
$IIVWR,153,R,08.7,N,,,,*69
$IIDPT,013.0,-1.0,*42
$IIGLL,4629.604,N,00640.581,E,164118,A,A*5E
$IIHDG,207,,,01,E*16
$IIMTW,+16.0,C*3F
$IIMWV,150,R,08.4,N,A*1B
$IIMWV,163,T,12.9,N,A*1B
$IIRMC,164119,A,4629.602,N,00640.580,E,06.0,212,200614,01,E,A*03
$IIVHW,,,207,M,04.7,N,,*62
$IIVLW,01522,N,000.3,N*54
$IIVWR,150,R,08.4,N,,,,*69
$IIDPT,013.0,-1.0,*42
$IIGLL,4629.601,N,00640.579,E,164120,A,A*57
$IIHDG,207,,,01,E*16
$IIMTW,+15.5,C*39
$IIMWV,147,R,08.4,N,A*1D
$IIMWV,161,T,12.7,N,A*17
$IIRMC,164120,A,4629.601,N,00640.579,E,06.2,213,200614,01,E,A*0F
$IIVHW,,,207,M,04.8,N,,*6D
$IIVLW,01522,N,000.3,N*54
$IIVWR,147,R,08.4,N,,,,*6F
$IIDPT,013.0,-1.0,*42
$IIGLL,4629.599,N,00640.577,E,164121,A,A*5A
$IIHDG,207,,,01,E*16
$IIMTW,+15.5,C*39
$IIMWV,146,R,08.2,N,A*1A
$IIMWV,159,T,12.6,N,A*1D
$IIRMC,164121,A,4629.599,N,00640.577,E,06.2,214,200614,01,E,A*05
$IIVHW,,,207,M,04.8,N,,*6D
$IIVLW,01522,N,000.3,N*54
$IIVWR,146,R,07.9,N,,,,*6C
$IIDPT,013.0,-1.0,*42
$IIGLL,4629.598,N,00640.576,E,164122,A,A*59
$IIHDG,207,,,01,E*16
$IIMTW,+15.5,C*39
$IIMWV,146,R,07.9,N,A*1E
$IIMWV,159,T,12.5,N,A*1E
$IIRMC,164122,A,4629.598,N,00640.576,E,06.3,211,200614,01,E,A*02
$IIVHW,,,207,M,04.9,N,,*6C
$IIVLW,01522,N,000.3,N*54
$IIVWR,144,R,07.8,N,,,,*6F
$IIDPT,013.0,-1.0,*42
$IIGLL,4629.596,N,00640.575,E,164123,A,A*55
$IIHDG,208,,,01,E*19
$IIMTW,+15.5,C*39
$IIMWV,144,R,07.8,N,A*1D
$IIMWV,159,T,12.2,N,A*19
$IIRMC,164123,A,4629.596,N,00640.575,E,06.4,208,200614,01,E,A*01
$IIVHW,,,207,M,04.9,N,,*6C
$IIVLW,01522,N,000.3,N*54
$IIVWR,142,R,07.9,N,,,,*68
$IIDPT,011.9,-1.0,*49
$IIGLL,4629.595,N,00640.573,E,164124,A,A*57
$IIHDG,207,,,01,E*16
$IIMTW,+15.5,C*39
$IIMWV,142,R,07.9,N,A*1A
$IIMWV,158,T,12.2,N,A*18
$IIRMC,164125,A,4629.593,N,00640.572,E,06.2,211,200614,01,E,A*0B
$IIVHW,,,207,M,05.0,N,,*64
$IIVLW,01522,N,000.3,N*54
$IIVWR,139,R,07.9,N,,,,*64
$IIDPT,010.8,-1.0,*49
$IIGLL,4629.593,N,00640.572,E,164125,A,A*51
$IIHDG,207,,,01,E*16
$IIMTW,+15.5,C*39
$IIMWV,139,R,07.9,N,A*16
$IIMWV,154,T,12.0,N,A*16
$IIRMC,164126,A,4629.592,N,00640.570,E,06.2,213,200614,01,E,A*09
$IIVHW,,,206,M,05.0,N,,*65
$IIVLW,01522,N,000.3,N*54
$IIVWR,139,R,07.6,N,,,,*6B
$IIDPT,010.8,-1.0,*49
$IIGLL,4629.592,N,00640.570,E,164126,A,A*51
$IIHDG,206,,,01,E*17
$IIMTW,+15.5,C*39
$IIMWV,140,R,07.5,N,A*14
$IIMWV,155,T,11.8,N,A*1C
$IIRMC,164127,A,4629.591,N,00640.569,E,06.2,212,200614,01,E,A*02
$IIVHW,,,205,M,05.0,N,,*66
$IIVLW,01522,N,000.3,N*54
$IIVWR,140,R,07.5,N,,,,*66
$IIDPT,010.8,-1.0,*49
$IIGLL,4629.591,N,00640.569,E,164127,A,A*5B
$IIHDG,205,,,01,E*14
$IIMTW,+15.5,C*39
$IIMWV,141,R,07.3,N,A*13
$IIMWV,156,T,11.7,N,A*10
$IIRMC,164128,A,4629.589,N,00640.568,E,06.2,208,200614,01,E,A*0E
$IIVHW,,,204,M,05.0,N,,*67
$IIVLW,01522,N,000.3,N*54
$IIVWR,141,R,07.3,N,,,,*61
$IIDPT,010.8,-1.0,*49
$IIGLL,4629.589,N,00640.568,E,164128,A,A*5C
$IIHDG,204,,,01,E*15
$IIMTW,+15.5,C*39
$IIMWV,144,R,07.3,N,A*16
$IIMWV,157,T,11.5,N,A*13
$IIRMC,164129,A,4629.588,N,00640.567,E,05.8,207,200614,01,E,A*07
$IIVHW,,,204,M,05.0,N,,*67
$IIVLW,01522,N,000.3,N*54
$IIVWR,144,R,07.3,N,,,,*64
$IIDPT,011.7,-1.0,*47
$IIGLL,4629.586,N,00640.566,E,164130,A,A*54
$IIHDG,203,,,01,E*12
$IIMTW,+15.5,C*39
$IIMWV,148,R,07.4,N,A*1D
$IIMWV,159,T,11.7,N,A*1F
$IIRMC,164130,A,4629.586,N,00640.566,E,06.1,205,200614,01,E,A*08
$IIVHW,,,203,M,05.0,N,,*60
$IIVLW,01522,N,000.3,N*54
$IIVWR,148,R,07.4,N,,,,*6F
$IIDPT,011.7,-1.0,*47
$IIGLL,4629.584,N,00640.565,E,164131,A,A*54
$IIHDG,202,,,01,E*13
$IIMTW,+15.5,C*39
$IIMWV,151,R,07.6,N,A*17
$IIMWV,161,T,11.8,N,A*1B
$IIRMC,164131,A,4629.584,N,00640.565,E,06.1,205,200614,01,E,A*08
$IIVHW,,,202,M,05.0,N,,*61
$IIVLW,01522,N,000.3,N*54
$IIVWR,153,R,07.8,N,,,,*69
$IIDPT,012.7,-1.0,*44
$IIGLL,4629.583,N,00640.564,E,164132,A,A*51
$IIHDG,201,,,01,E*10
$IIMTW,+15.5,C*39
$IIMWV,153,R,07.8,N,A*1B
$IIMWV,163,T,12.1,N,A*13
$IIRMC,164132,A,4629.583,N,00640.564,E,06.1,203,200614,01,E,A*0B
$IIVHW,,,201,M,05.0,N,,*62
$IIVLW,01522,N,000.3,N*54
$IIVWR,156,R,08.1,N,,,,*6A
$IIDPT,012.8,-1.0,*4B
$IIGLL,4629.581,N,00640.563,E,164133,A,A*55
$IIHDG,200,,,01,E*11
$IIMTW,+16.0,C*3F
$IIMWV,156,R,08.1,N,A*18
$IIMWV,164,T,12.4,N,A*11
$IIRMC,164133,A,4629.581,N,00640.563,E,06.1,203,200614,01,E,A*0F
$IIVHW,,,199,M,05.0,N,,*60
$IIVLW,01522,N,000.3,N*54
$IIVWR,158,R,08.4,N,,,,*61
$IIDPT,012.8,-1.0,*4B
$IIGLL,4629.580,N,00640.563,E,164134,A,A*53
$IIHDG,199,,,01,E*12
$IIMTW,+15.5,C*39
$IIMWV,158,R,08.4,N,A*13
$IIMWV,165,T,12.7,N,A*13
$IIRMC,164135,A,4629.578,N,00640.562,E,06.0,201,200614,01,E,A*0D
$IIVHW,,,198,M,05.0,N,,*61
$IIVLW,01522,N,000.3,N*54
$IIVWR,160,R,08.8,N,,,,*66
$IIDPT,012.8,-1.0,*4B
$IIGLL,4629.578,N,00640.562,E,164135,A,A*54
$IIHDG,198,,,01,E*13
$IIMTW,+15.5,C*39
$IIMWV,160,R,08.8,N,A*14
$IIMWV,167,T,13.6,N,A*11
$IIRMC,164137,A,4629.575,N,00640.561,E,06.0,195,200614,01,E,A*0F
$IIVHW,,,193,M,05.0,N,,*6A
$IIVLW,01522,N,000.3,N*54
$IIVWR,164,R,09.2,N,,,,*69
$IIDPT,012.8,-1.0,*4B
$IIGLL,4629.575,N,00640.561,E,164137,A,A*58
$IIHDG,193,,,01,E*18
$IIMTW,+15.5,C*39
$IIMWV,166,R,08.9,N,A*13
$IIMWV,170,T,14.0,N,A*16
$IIRMC,164138,A,4629.573,N,00640.560,E,06.0,195,200614,01,E,A*07
$IIVHW,,,190,M,04.9,N,,*61
$IIVLW,01522,N,000.3,N*54
$IIVWR,166,R,08.9,N,,,,*61
$IIDPT,012.8,-1.0,*4B
$IIGLL,4629.573,N,00640.560,E,164138,A,A*50
$IIHDG,190,,,01,E*1B
$IIMTW,+15.5,C*39
$IIMWV,174,R,08.6,N,A*1F
$IIMWV,171,T,13.7,N,A*17
$IIRMC,164139,A,4629.571,N,00640.559,E,06.0,188,200614,01,E,A*02
$IIVHW,,,188,M,04.9,N,,*68
$IIVLW,01522,N,000.3,N*54
$IIVWR,174,R,08.6,N,,,,*6D
$IIDPT,012.8,-1.0,*4B
$IIGLL,4629.571,N,00640.559,E,164139,A,A*59
$IIHDG,184,,,01,E*1E
$IIMTW,+15.5,C*39
$IIMWV,177,R,08.0,N,A*1A
$IIMWV,176,T,13.5,N,A*12
$IIRMC,164140,A,4629.570,N,00640.559,E,06.0,184,200614,01,E,A*01
$IIVHW,,,184,M,04.9,N,,*64
$IIVLW,01522,N,000.3,N*54
$IIVWR,177,R,08.0,N,,,,*68
$IIDPT,012.9,-1.0,*4A
$IIGLL,4629.568,N,00640.559,E,164141,A,A*5E
$IIHDG,181,,,01,E*1B
$IIMTW,+16.0,C*3F
$IIMWV,182,R,07.3,N,A*1C
$IIMWV,178,T,13.0,N,A*19
$IIRMC,164141,A,4629.568,N,00640.559,E,05.7,183,200614,01,E,A*0A
$IIVHW,,,181,M,04.9,N,,*61
$IIVLW,01522,N,000.3,N*54
$IIVWR,178,L,07.3,N,,,,*75
$IIDPT,012.9,-1.0,*4A
$IIGLL,4629.566,N,00640.559,E,164142,A,A*53
$IIHDG,178,,,01,E*1D
$IIMTW,+16.0,C*3F
$IIMWV,188,R,07.2,N,A*17
$IIMWV,181,T,12.3,N,A*1D
$IIRMC,164142,A,4629.566,N,00640.559,E,05.9,177,200614,01,E,A*02
$IIVHW,,,178,M,04.9,N,,*67
$IIVLW,01522,N,000.3,N*54
$IIVWR,167,L,07.7,N,,,,*7F
$IIDPT,012.9,-1.0,*4A
$IIGLL,4629.564,N,00640.560,E,164143,A,A*5A
$IIHDG,177,,,01,E*12
$IIMTW,+16.0,C*3F
$IIMWV,193,R,07.7,N,A*18
$IIMWV,185,T,12.0,N,A*1A
$IIRMC,164143,A,4629.564,N,00640.560,E,05.7,177,200614,01,E,A*05
$IIVHW,,,177,M,04.9,N,,*68
$IIVLW,01522,N,000.3,N*54
$IIVWR,167,L,07.7,N,,,,*7F
$IIDPT,012.9,-1.0,*4A
$IIGLL,4629.563,N,00640.560,E,164144,A,A*5A
$IIHDG,175,,,01,E*10
$IIMTW,+16.0,C*3F
$IIMWV,193,R,07.7,N,A*18
$IIMWV,188,T,12.4,N,A*13
$IIRMC,164144,A,4629.563,N,00640.560,E,05.5,176,200614,01,E,A*06
$IIVHW,,,173,M,04.9,N,,*6C
$IIVLW,01522,N,000.3,N*54
$IIVWR,167,L,07.1,N,,,,*79
$IIDPT,012.9,-1.0,*4A
$IIGLL,4629.561,N,00640.560,E,164145,A,A*59
$IIHDG,173,,,01,E*16
$IIMTW,+16.0,C*3F
$IIMWV,193,R,07.1,N,A*1E
$IIMWV,188,T,12.4,N,A*13
$IIRMC,164146,A,4629.559,N,00640.561,E,05.7,175,200614,01,E,A*0D
$IIVHW,,,173,M,04.9,N,,*6C
$IIVLW,01522,N,000.3,N*54
$IIVWR,167,L,06.1,N,,,,*78
$IIDPT,012.9,-1.0,*4A
$IIGLL,4629.559,N,00640.561,E,164146,A,A*50
$IIHDG,173,,,01,E*16
$IIMTW,+16.0,C*3F
$IIMWV,193,R,06.1,N,A*1F
$IIMWV,187,T,09.6,N,A*14
$IIRMC,164149,A,4629.554,N,00640.561,E,05.6,178,200614,01,E,A*03
$IIVHW,,,173,M,04.9,N,,*6C
$IIVLW,01522,N,000.3,N*54
$IIVWR,166,L,04.6,N,,,,*7C
$IIDPT,012.9,-1.0,*4A
$IIGLL,4629.554,N,00640.561,E,164149,A,A*52
$IIHDG,173,,,01,E*16
$IIMTW,+16.0,C*3F
$IIMWV,194,R,04.3,N,A*18
$IIMWV,187,T,09.4,N,A*16
$IIRMC,164150,A,4629.553,N,00640.562,E,05.8,180,200614,01,E,A*06
$IIVHW,,,174,M,05.0,N,,*63
$IIVLW,01522,N,000.3,N*54
$IIVWR,166,L,04.3,N,,,,*79
$IIDPT,012.9,-1.0,*4A
$IIGLL,4629.553,N,00640.562,E,164150,A,A*5E
$IIHDG,174,,,01,E*11
$IIMTW,+16.0,C*3F
$IIMWV,193,R,04.3,N,A*1F
$IIMWV,186,T,09.1,N,A*12
$IIRMC,164151,A,4629.551,N,00640.562,E,06.0,177,200614,01,E,A*06
$IIVHW,,,174,M,05.0,N,,*63
$IIVLW,01522,N,000.3,N*54
$IIVWR,167,L,04.3,N,,,,*78
$IIDPT,012.9,-1.0,*4A
$IIGLL,4629.551,N,00640.562,E,164151,A,A*5D
$IIHDG,173,,,01,E*16
$IIMTW,+16.0,C*3F
$IIMWV,193,R,04.3,N,A*1F
$IIMWV,185,T,09.2,N,A*12
