$IIVWR,160,L,02.6,N,,,,*7C
$IIGLL,4612.817,N,00610.014,E,161816,A,A*54
$IIHDG,343,,,,*53
$IIMWV,200,R,02.6,N,A*15
$IIRMC,161816,A,4612.817,N,00610.014,E,01.3,296,200814,,,A*4D
$IIVHW,,,343,M,,,,*30
$IIVWR,037,L,04.2,N,,,,*7D
$IIGLL,4612.817,N,00610.013,E,161817,A,A*52
$IIHDG,316,,,,*53
$IIMTW,+00.0,C*38
$IIMWV,323,R,04.2,N,A*17
$IIMWV,192,T,03.7,N,A*1B
$IIRMC,161817,A,4612.817,N,00610.013,E,01.2,297,200814,,,A*4B
$IIVHW,,,316,M,00.0,N,,*60
$IIVLW,53462,N,000.0,N*55
$IIVWR,032,L,05.4,N,,,,*7F
$IIGLL,4612.817,N,00610.013,E,161818,A,A*5D
$IIHDG,307,,,,*53
$IIMTW,+16.5,C*3A
$IIMWV,328,R,05.4,N,A*1B
$IIMWV,323,T,04.2,N,A*11
$IIRMC,161818,A,4612.817,N,00610.013,E,01.6,299,200814,,,A*4E
$IIVHW,,,307,M,00.0,N,,*60
$IIVLW,53462,N,000.0,N*55
$IIVWR,020,L,05.8,N,,,,*70
$IIGLL,4612.817,N,00610.012,E,161819,A,A*5D
$IIHDG,303,,,,*57
$IIMTW,+16.5,C*3A
$IIMWV,340,R,05.8,N,A*19
$IIMWV,328,T,05.4,N,A*1D
$IIRMC,161819,A,4612.817,N,00610.012,E,01.6,300,200814,,,A*4F
$IIVHW,,,303,M,01.0,N,,*65
$IIVLW,53462,N,000.0,N*55
$IIVWR,025,L,05.0,N,,,,*7D
$IIDPT,005.0,+0.7,*45
$IIGLL,4612.818,N,00610.012,E,161820,A,A*58
$IIHDG,302,,,,*56
$IIMTW,+16.5,C*3A
$IIMWV,335,R,05.0,N,A*13
$IIMWV,336,T,04.7,N,A*10
$IIRMC,161820,A,4612.818,N,00610.012,E,01.3,300,200814,,,A*4F
$IIVHW,,,302,M,01.1,N,,*65
$IIVLW,53462,N,000.0,N*55
$IIVWR,026,L,05.5,N,,,,*7B
$IIDPT,005.0,+0.7,*45
$IIGLL,4612.818,N,00610.011,E,161821,A,A*5A
$IIHDG,301,,,,*55
$IIMTW,+16.5,C*3A
$IIMWV,334,R,05.5,N,A*17
$IIMWV,327,T,03.9,N,A*19
$IIRMC,161821,A,4612.818,N,00610.011,E,01.6,299,200814,,,A*49
$IIVHW,,,300,M,01.2,N,,*64
$IIVLW,53462,N,000.0,N*55
$IIVWR,020,L,04.8,N,,,,*71
$IIDPT,005.0,+0.7,*45
$IIGLL,4612.818,N,00610.011,E,161822,A,A*59
$IIHDG,300,,,,*54
$IIMTW,+16.5,C*3A
$IIMWV,340,R,04.8,N,A*18
$IIMWV,327,T,04.4,N,A*13
$IIRMC,161823,A,4612.818,N,00610.010,E,01.8,289,200814,,,A*45
$IIVHW,,,300,M,01.2,N,,*64
$IIVLW,53462,N,000.0,N*55
$IIVWR,022,L,05.3,N,,,,*79
$IIDPT,005.0,+0.7,*45
$IIGLL,4612.818,N,00610.010,E,161823,A,A*59
$IIHDG,300,,,,*54
$IIMTW,+16.5,C*3A
$IIMWV,338,R,05.3,N,A*1D
$IIMWV,333,T,04.1,N,A*13
$IIRMC,161824,A,4612.818,N,00610.009,E,01.6,290,200814,,,A*4C
$IIVHW,,,299,M,01.2,N,,*65
$IIVLW,53462,N,000.0,N*55
$IIVWR,022,L,05.7,N,,,,*7D
$IIDPT,005.0,+0.7,*45
$IIGLL,4612.818,N,00610.009,E,161824,A,A*56
$IIHDG,299,,,,*55
$IIMTW,+16.5,C*3A
$IIMWV,335,R,05.8,N,A*1B
$IIMWV,333,T,04.6,N,A*14
$IIRMC,161825,A,4612.818,N,00610.009,E,01.6,290,200814,,,A*4D
$IIVHW,,,299,M,01.2,N,,*65
$IIVLW,53462,N,000.0,N*55
$IIVWR,025,L,05.8,N,,,,*75
$IIDPT,005.0,+0.7,*45
$IIGLL,4612.818,N,00610.009,E,161825,A,A*57
$IIHDG,299,,,,*55
$IIMTW,+17.0,C*3E
$IIMWV,330,R,05.8,N,A*1E
$IIMWV,329,T,04.6,N,A*1F
$IIRMC,161826,A,4612.819,N,00610.009,E,01.8,290,200814,,,A*41
$IIVHW,,,299,M,01.2,N,,*65
$IIVLW,53462,N,000.0,N*55
$IIVWR,030,L,05.8,N,,,,*71
$IIDPT,005.0,+0.7,*45
$IIGLL,4612.819,N,00610.009,E,161826,A,A*55
$IIHDG,299,,,,*55
$IIMTW,+17.0,C*3E
$IIMWV,330,R,05.9,N,A*1F
$IIMWV,323,T,04.7,N,A*14
$IIRMC,161827,A,4612.819,N,00610.008,E,01.5,291,200814,,,A*4D
$IIVHW,,,299,M,01.1,N,,*66
$IIVLW,53462,N,000.0,N*55
$IIVWR,030,L,05.9,N,,,,*70
$IIDPT,005.0,+0.7,*45
$IIGLL,4612.819,N,00610.008,E,161828,A,A*5A
$IIHDG,299,,,,*55
$IIMTW,+17.0,C*3E
$IIMWV,326,R,05.9,N,A*18
$IIMWV,323,T,04.8,N,A*1B
$IIRMC,161828,A,4612.819,N,00610.008,E,01.3,292,200814,,,A*47
$IIVHW,,,299,M,01.2,N,,*65
$IIVLW,53462,N,000.0,N*55
$IIVWR,034,L,05.9,N,,,,*74
$IIDPT,005.0,+0.7,*45
$IIGLL,4612.820,N,00610.007,E,161829,A,A*5E
$IIHDG,300,,,,*54
$IIMTW,+17.0,C*3E
$IIMWV,325,R,05.3,N,A*11
$IIMWV,318,T,04.8,N,A*13
$IIRMC,161829,A,4612.820,N,00610.007,E,01.7,295,200814,,,A*40
$IIVHW,,,300,M,01.2,N,,*64
$IIVLW,53462,N,000.0,N*55
$IIVWR,035,L,05.5,N,,,,*79
$IIDPT,005.0,+0.7,*45
$IIGLL,4612.820,N,00610.007,E,161830,A,A*56
$IIHDG,300,,,,*54
$IIMTW,+17.0,C*3E
$IIMWV,325,R,05.5,N,A*17
$IIMWV,316,T,04.3,N,A*16
$IIRMC,161830,A,4612.820,N,00610.007,E,01.7,296,200814,,,A*4B
$IIVHW,,,300,M,01.2,N,,*64
$IIVLW,53462,N,000.0,N*55
$IIVWR,037,L,05.2,N,,,,*7C
$IIDPT,005.0,+0.7,*45
$IIGLL,4612.820,N,00610.006,E,161831,A,A*56
$IIHDG,301,,,,*55
$IIMTW,+17.0,C*3E
$IIMWV,323,R,05.2,N,A*16
$IIMWV,317,T,04.5,N,A*11
$IIRMC,161831,A,4612.820,N,00610.006,E,01.6,296,200814,,,A*4A
$IIVHW,,,301,M,01.2,N,,*65
$IIVLW,53462,N,000.0,N*55
$IIVWR,034,L,05.5,N,,,,*78
$IIDPT,005.0,+0.7,*45
$IIGLL,4612.820,N,00610.006,E,161832,A,A*55
$IIHDG,301,,,,*55
$IIMTW,+17.0,C*3E
$IIMWV,326,R,05.5,N,A*14
$IIMWV,313,T,04.2,N,A*12
$IIRMC,161833,A,4612.821,N,00610.006,E,01.5,298,200814,,,A*44
$IIVHW,,,302,M,01.2,N,,*66
$IIVLW,53462,N,000.0,N*55
$IIVWR,033,L,05.2,N,,,,*78
$IIDPT,005.0,+0.7,*45
$IIGLL,4612.821,N,00610.006,E,161833,A,A*55
$IIHDG,302,,,,*56
$IIMTW,+17.0,C*3E
$IIMWV,327,R,05.2,N,A*12
$IIMWV,318,T,04.1,N,A*1A
$IIRMC,161834,A,4612.821,N,00610.005,E,01.5,298,200814,,,A*40
$IIVHW,,,302,M,01.2,N,,*66
$IIVLW,53462,N,000.0,N*55
$IIVWR,031,L,05.4,N,,,,*7C
$IIDPT,005.0,+0.7,*45
$IIGLL,4612.821,N,00610.005,E,161834,A,A*51
$IIHDG,302,,,,*56
$IIMTW,+17.0,C*3E
$IIMWV,330,R,05.5,N,A*13
$IIMWV,320,T,04.3,N,A*13
$IIRMC,161835,A,4612.821,N,00610.005,E,01.5,299,200814,,,A*40
$IIVHW,,,303,M,01.3,N,,*66
$IIVLW,53462,N,000.0,N*55
$IIVWR,030,L,05.5,N,,,,*7C
$IIDPT,005.0,+0.7,*45
$IIGLL,4612.821,N,00610.005,E,161835,A,A*50
$IIHDG,303,,,,*57
$IIMTW,+17.0,C*3E
$IIMWV,329,R,05.7,N,A*19
$IIMWV,322,T,04.3,N,A*11
$IIRMC,161836,A,4612.821,N,00610.004,E,01.5,300,200814,,,A*43
$IIVHW,,,303,M,01.3,N,,*66
$IIVLW,53462,N,000.0,N*55
$IIVWR,031,L,05.7,N,,,,*7F
$IIDPT,005.0,+0.7,*45
$IIGLL,4612.821,N,00610.004,E,161836,A,A*52
$IIHDG,304,,,,*50
$IIMTW,+17.0,C*3E
$IIMWV,329,R,06.3,N,A*1E
$IIMWV,321,T,04.6,N,A*17
$IIRMC,161837,A,4612.821,N,00610.004,E,01.5,301,200814,,,A*43
$IIVHW,,,304,M,01.3,N,,*61
$IIVLW,53462,N,000.0,N*55
$IIVWR,031,L,06.3,N,,,,*78
$IIDPT,005.0,+0.7,*45
$IIGLL,4612.822,N,00610.004,E,161838,A,A*5F
$IIHDG,304,,,,*50
$IIMTW,+17.0,C*3E
$IIMWV,330,R,06.7,N,A*12
$IIMWV,322,T,05.2,N,A*11
$IIRMC,161838,A,4612.822,N,00610.004,E,01.3,300,200814,,,A*48
$IIVHW,,,304,M,01.3,N,,*61
$IIVLW,53462,N,000.0,N*55
$IIVWR,030,L,06.7,N,,,,*7D
$IIDPT,005.0,+0.7,*45
$IIGLL,4612.822,N,00610.003,E,161839,A,A*59
$IIHDG,305,,,,*51
$IIMTW,+17.0,C*3E
$IIMWV,331,R,06.8,N,A*1C
$IIMWV,324,T,05.5,N,A*10
$IIRMC,161839,A,4612.822,N,00610.003,E,01.6,301,200814,,,A*4A
$IIVHW,,,305,M,01.3,N,,*60
$IIVLW,53462,N,000.0,N*55
$IIVWR,028,L,06.6,N,,,,*75
$IIDPT,005.0,+0.7,*45
$IIGLL,4612.822,N,00610.002,E,161840,A,A*56
$IIHDG,306,,,,*52
$IIMTW,+17.0,C*3E
$IIMWV,332,R,06.6,N,A*11
$IIMWV,325,T,05.6,N,A*12
$IIRMC,161840,A,4612.822,N,00610.002,E,01.6,302,200814,,,A*46
$IIVHW,,,306,M,01.3,N,,*63
$IIVLW,53462,N,000.0,N*55
$IIVWR,026,L,06.7,N,,,,*7A
$IIDPT,005.0,+0.7,*45
$IIGLL,4612.822,N,00610.002,E,161841,A,A*57
$IIHDG,306,,,,*52
$IIMTW,+17.0,C*3E
$IIMWV,334,R,06.7,N,A*16
$IIMWV,326,T,05.4,N,A*13
$IIRMC,161841,A,4612.822,N,00610.002,E,01.6,302,200814,,,A*47
$IIVHW,,,306,M,01.3,N,,*63
$IIVLW,53462,N,000.0,N*55
$IIVWR,025,L,06.8,N,,,,*76
$IIDPT,005.0,+0.7,*45
$IIGLL,4612.822,N,00610.001,E,161842,A,A*57
$IIHDG,306,,,,*52
$IIMTW,+17.0,C*3E
$IIMWV,335,R,06.8,N,A*18
$IIMWV,328,T,05.5,N,A*1C
$IIRMC,161843,A,4612.822,N,00610.001,E,01.6,303,200814,,,A*47
$IIVHW,,,305,M,01.3,N,,*60
$IIVLW,53462,N,000.0,N*55
$IIVWR,024,L,07.5,N,,,,*7B
$IIDPT,005.0,+0.7,*45
$IIGLL,4612.822,N,00610.001,E,161843,A,A*56
$IIHDG,305,,,,*51
$IIMTW,+17.0,C*3E
$IIMWV,336,R,07.5,N,A*17
$IIMWV,331,T,06.2,N,A*10
$IIRMC,161844,A,4612.823,N,00610.000,E,01.5,303,200814,,,A*43
$IIVHW,,,304,M,01.2,N,,*60
$IIVLW,53462,N,000.0,N*55
$IIVWR,025,L,07.9,N,,,,*76
$IIDPT,005.0,+0.7,*45
$IIGLL,4612.823,N,00610.000,E,161844,A,A*51
$IIHDG,304,,,,*50
$IIMTW,+17.0,C*3E
$IIMWV,334,R,07.8,N,A*18
$IIMWV,330,T,06.6,N,A*15
$IIRMC,161845,A,4612.823,N,00610.000,E,01.5,302,200814,,,A*43
$IIVHW,,,303,M,01.2,N,,*67
$IIVLW,53462,N,000.0,N*55
$IIVWR,026,L,07.8,N,,,,*74
$IIDPT,005.0,+0.7,*45
$IIGLL,4612.823,N,00610.000,E,161845,A,A*50
$IIHDG,303,,,,*57
$IIMTW,+17.0,C*3E
$IIMWV,333,R,08.0,N,A*18
$IIMWV,330,T,06.7,N,A*14
$IIRMC,161846,A,4612.823,N,00609.999,E,01.5,301,200814,,,A*42
$IIVHW,,,302,M,01.2,N,,*66
$IIVLW,53462,N,000.0,N*55
$IIVWR,027,L,08.0,N,,,,*72
$IIDPT,005.0,+0.7,*45
$IIGLL,4612.823,N,00609.999,E,161846,A,A*52
$IIHDG,301,,,,*55
$IIMTW,+17.0,C*3E
$IIMWV,331,R,07.8,N,A*1D
$IIMWV,329,T,06.9,N,A*12
$IIRMC,161847,A,4612.823,N,00609.999,E,01.5,300,200814,,,A*42
$IIVHW,,,301,M,01.2,N,,*65
$IIVLW,53462,N,000.0,N*55
$IIVWR,029,L,07.8,N,,,,*7B
$IIDPT,005.0,+0.7,*45
$IIGLL,4612.823,N,00609.998,E,161848,A,A*5D
$IIHDG,300,,,,*54
$IIMTW,+17.0,C*3E
$IIMWV,329,R,07.5,N,A*19
$IIMWV,326,T,06.6,N,A*12
$IIRMC,161848,A,4612.823,N,00609.998,E,01.5,299,200814,,,A*4D
$IIVHW,,,300,M,01.2,N,,*64
$IIVLW,53462,N,000.0,N*55
$IIVWR,031,L,07.5,N,,,,*7F
$IIDPT,005.0,+0.7,*45
$IIGLL,4612.823,N,00609.998,E,161849,A,A*5C
$IIHDG,299,,,,*55
$IIMTW,+17.0,C*3E
$IIMWV,327,R,07.9,N,A*1B
$IIMWV,323,T,06.5,N,A*14
$IIRMC,161849,A,4612.823,N,00609.998,E,01.4,298,200814,,,A*4C
$IIVHW,,,299,M,01.2,N,,*65
$IIVLW,53462,N,000.0,N*55
$IIVWR,029,L,08.1,N,,,,*7D
$IIDPT,005.0,+0.7,*45
$IIGLL,4612.824,N,00609.997,E,161850,A,A*5C
$IIHDG,297,,,,*5B
$IIMTW,+17.0,C*3E
$IIMWV,331,R,08.1,N,A*1B
$IIMWV,322,T,06.8,N,A*18
$IIRMC,161850,A,4612.824,N,00609.997,E,01.5,297,200814,,,A*42
$IIVHW,,,297,M,01.2,N,,*6B
$IIVLW,53462,N,000.0,N*55
$IIVWR,029,L,07.8,N,,,,*7B
$IIDPT,005.0,+0.7,*45
$IIGLL,4612.824,N,00609.997,E,161851,A,A*5D
$IIHDG,296,,,,*5A
$IIMTW,+17.0,C*3E
$IIMWV,331,R,07.8,N,A*1D
$IIMWV,327,T,06.9,N,A*1C
$IIRMC,161851,A,4612.824,N,00609.997,E,01.5,295,200814,,,A*41
$IIVHW,,,295,M,01.2,N,,*69
$IIVLW,53462,N,000.0,N*55
$IIVWR,028,L,08.0,N,,,,*7D
$IIDPT,005.0,+0.7,*45
$IIGLL,4612.824,N,00609.996,E,161852,A,A*5F
$IIHDG,295,,,,*59
$IIMTW,+17.0,C*3E
$IIMWV,332,R,08.0,N,A*19
$IIMWV,326,T,06.6,N,A*12
$IIRMC,161853,A,4612.824,N,00609.995,E,01.5,294,200814,,,A*40
$IIVHW,,,294,M,01.2,N,,*68
$IIVLW,53462,N,000.0,N*55
$IIVWR,027,L,08.1,N,,,,*73
$IIDPT,005.0,+0.7,*45
$IIGLL,4612.824,N,00609.995,E,161853,A,A*5D
$IIHDG,294,,,,*58
$IIMTW,+17.0,C*3E
$IIMWV,333,R,08.1,N,A*19
$IIMWV,329,T,06.9,N,A*12
$IIRMC,161854,A,4612.825,N,00609.995,E,01.5,294,200814,,,A*46
$IIVHW,,,293,M,01.2,N,,*6F
$IIVLW,53462,N,000.0,N*55
$IIVWR,028,L,08.3,N,,,,*7E
$IIDPT,005.0,+0.7,*45
$IIGLL,4612.825,N,00609.995,E,161854,A,A*5B
$IIHDG,293,,,,*5F
$IIMTW,+17.0,C*3E
$IIMWV,330,R,07.9,N,A*1D
$IIMWV,327,T,07.2,N,A*16
$IIRMC,161855,A,4612.825,N,00609.994,E,01.5,293,200814,,,A*41
$IIVHW,,,293,M,01.2,N,,*6F
$IIVLW,53462,N,000.0,N*55
$IIVWR,030,L,07.9,N,,,,*72
$IIDPT,005.0,+0.7,*45
$IIGLL,4612.825,N,00609.994,E,161855,A,A*5B
$IIHDG,293,,,,*5F
$IIMTW,+17.0,C*3E
$IIMWV,332,R,08.1,N,A*18
$IIMWV,325,T,06.8,N,A*1F
$IIRMC,161856,A,4612.825,N,00609.993,E,01.5,293,200814,,,A*45
$IIVHW,,,293,M,01.2,N,,*6F
$IIVLW,53462,N,000.0,N*55
$IIVWR,028,L,08.1,N,,,,*7C
$IIDPT,005.0,+0.7,*45
$IIGLL,4612.825,N,00609.993,E,161856,A,A*5F
$IIHDG,293,,,,*5F
$IIMTW,+17.0,C*3E
$IIMWV,333,R,08.3,N,A*1B
$IIMWV,327,T,07.0,N,A*14
$IIRMC,161857,A,4612.825,N,00609.992,E,01.5,293,200814,,,A*45
$IIVHW,,,293,M,01.2,N,,*6F
$IIVLW,53462,N,000.0,N*55
$IIVWR,027,L,08.3,N,,,,*71
$IIDPT,005.0,+0.7,*45
$IIGLL,4612.825,N,00609.992,E,161858,A,A*50
$IIHDG,293,,,,*5F
$IIMTW,+17.0,C*3E
$IIMWV,333,R,08.0,N,A*18
$IIMWV,329,T,07.1,N,A*1B
$IIRMC,161858,A,4612.825,N,00609.992,E,01.6,293,200814,,,A*49
$IIVHW,,,293,M,01.2,N,,*6F
$IIVLW,53462,N,000.0,N*55
$IIVWR,027,L,08.0,N,,,,*72
$IIDPT,005.0,+0.7,*45
$IIGLL,4612.825,N,00609.991,E,161859,A,A*52
$IIHDG,293,,,,*5F
$IIMTW,+17.0,C*3E
$IIMWV,331,R,08.1,N,A*1B
$IIMWV,328,T,06.8,N,A*12
$IIRMC,161859,A,4612.825,N,00609.991,E,01.6,293,200814,,,A*4B
$IIVHW,,,293,M,01.3,N,,*6E
$IIVLW,53462,N,000.0,N*55
$IIVWR,029,L,08.3,N,,,,*7F
$IIDPT,005.0,+0.7,*45
$IIGLL,4612.826,N,00609.991,E,161900,A,A*5C
$IIHDG,292,,,,*5E
$IIMTW,+17.0,C*3E
$IIMWV,331,R,08.3,N,A*19
$IIMWV,326,T,06.8,N,A*1C
$IIRMC,161900,A,4612.826,N,00609.991,E,01.6,293,200814,,,A*45
$IIVHW,,,292,M,01.3,N,,*6F
$IIVLW,53462,N,000.0,N*55
$IIVWR,030,L,08.4,N,,,,*70
$IIDPT,005.0,+0.7,*45
$IIGLL,4612.826,N,00609.990,E,161901,A,A*5C
$IIHDG,291,,,,*5D
$IIMTW,+17.0,C*3E
$IIMWV,330,R,08.4,N,A*1F
$IIMWV,327,T,07.0,N,A*14
$IIRMC,161901,A,4612.826,N,00609.990,E,01.7,292,200814,,,A*45
$IIVHW,,,291,M,01.4,N,,*6B
$IIVLW,53462,N,000.0,N*55
$IIVWR,032,L,08.5,N,,,,*73
$IIDPT,005.0,+0.7,*45
$IIGLL,4612.826,N,00609.989,E,161902,A,A*57
$IIHDG,291,,,,*5D
$IIMTW,+17.0,C*3E
$IIMWV,328,R,08.5,N,A*17
$IIMWV,325,T,07.2,N,A*14
$IIRMC,161903,A,4612.826,N,00609.988,E,01.7,292,200814,,,A*4E
$IIVHW,,,293,M,01.4,N,,*69
$IIVLW,53462,N,000.0,N*55
$IIVWR,035,L,08.5,N,,,,*74
$IIDPT,005.0,+0.7,*45
$IIGLL,4612.826,N,00609.988,E,161903,A,A*57
$IIHDG,293,,,,*5F
$IIMTW,+17.0,C*3E
$IIMWV,325,R,08.5,N,A*1A
$IIMWV,318,T,07.2,N,A*1A
$IIRMC,161904,A,4612.826,N,00609.988,E,01.8,293,200814,,,A*47
$IIVHW,,,293,M,01.5,N,,*68
$IIVLW,53462,N,000.0,N*55
$IIVWR,035,L,08.9,N,,,,*78
$IIDPT,005.0,+0.7,*45
$IIGLL,4612.826,N,00609.988,E,161904,A,A*50
$IIHDG,293,,,,*5F
$IIMTW,+17.0,C*3E
$IIMWV,326,R,08.3,N,A*1F
$IIMWV,319,T,07.5,N,A*1C
$IIRMC,161905,A,4612.826,N,00609.987,E,01.8,293,200814,,,A*49
$IIVHW,,,296,M,01.5,N,,*6D
$IIVLW,53462,N,000.0,N*55
$IIVWR,034,L,08.3,N,,,,*73
$IIDPT,005.0,+0.7,*45
$IIGLL,4612.826,N,00609.987,E,161905,A,A*5E
$IIHDG,296,,,,*5A
$IIMTW,+17.0,C*3E
$IIMWV,325,R,08.8,N,A*17
$IIMWV,319,T,07.0,N,A*19
$IIRMC,161906,A,4612.827,N,00609.986,E,01.8,294,200814,,,A*4D
$IIVHW,,,297,M,01.5,N,,*6C
$IIVLW,53462,N,000.0,N*55
$IIVWR,035,L,08.8,N,,,,*79
$IIDPT,005.0,+0.7,*45
$IIGLL,4612.827,N,00609.986,E,161906,A,A*5D
$IIHDG,299,,,,*55
$IIMTW,+17.0,C*3E
$IIMWV,324,R,08.7,N,A*19
$IIMWV,318,T,07.5,N,A*1D
$IIRMC,161908,A,4612.827,N,00609.985,E,01.6,295,200814,,,A*4F
$IIVHW,,,299,M,01.4,N,,*63
$IIVLW,53462,N,000.0,N*55
$IIVWR,036,L,08.7,N,,,,*75
$IIDPT,005.0,+0.7,*45
$IIGLL,4612.828,N,00609.985,E,161909,A,A*5E
$IIHDG,300,,,,*54
$IIMTW,+17.0,C*3E
$IIMWV,324,R,08.8,N,A*16
$IIMWV,317,T,07.5,N,A*12
$IIRMC,161909,A,4612.828,N,00609.985,E,01.7,296,200814,,,A*43
$IIVHW,,,300,M,01.4,N,,*62
$IIVLW,53462,N,000.0,N*55
$IIVWR,036,L,08.8,N,,,,*7A
$IIDPT,005.0,+0.7,*45
$IIGLL,4612.828,N,00609.984,E,161910,A,A*57
$IIHDG,300,,,,*54
$IIMTW,+17.0,C*3E
$IIMWV,325,R,08.5,N,A*1A
$IIMWV,318,T,07.5,N,A*1D
$IIRMC,161910,A,4612.828,N,00609.984,E,01.8,297,200814,,,A*44
$IIVHW,,,300,M,01.4,N,,*62
$IIVLW,53462,N,000.0,N*55
$IIVWR,034,L,09.1,N,,,,*70
$IIDPT,005.0,+0.7,*45
$IIGLL,4612.828,N,00609.984,E,161911,A,A*56
$IIHDG,300,,,,*54
$IIMTW,+17.0,C*3E
$IIMWV,326,R,09.1,N,A*1C
$IIMWV,318,T,07.2,N,A*1A
$IIRMC,161911,A,4612.828,N,00609.984,E,01.7,298,200814,,,A*45
$IIVHW,,,300,M,01.4,N,,*62
$IIVLW,53462,N,000.0,N*55
$IIVWR,037,L,08.9,N,,,,*7A
$IIDPT,005.0,+0.7,*45
$IIGLL,4612.828,N,00609.983,E,161912,A,A*52
$IIHDG,301,,,,*55
$IIMTW,+17.0,C*3E
$IIMWV,323,R,08.9,N,A*10
$IIMWV,320,T,07.8,N,A*1B
$IIRMC,161912,A,4612.828,N,00609.983,E,01.7,298,200814,,,A*41
$IIVHW,,,301,M,01.4,N,,*63
$IIVLW,53462,N,000.0,N*55
$IIVWR,040,L,08.8,N,,,,*7B
$IIDPT,005.0,+0.7,*45
$IIGLL,4612.828,N,00609.983,E,161913,A,A*53
$IIHDG,301,,,,*55
$IIMTW,+17.0,C*3E
$IIMWV,320,R,08.8,N,A*12
$IIMWV,317,T,07.7,N,A*10
$IIRMC,161914,A,4612.828,N,00609.982,E,01.7,299,200814,,,A*47
$IIVHW,,,301,M,01.4,N,,*63
$IIVLW,53462,N,000.0,N*55
$IIVWR,040,L,09.2,N,,,,*70
$IIDPT,005.0,+0.7,*45
$IIGLL,4612.828,N,00609.982,E,161914,A,A*55
$IIHDG,301,,,,*55
$IIMTW,+17.0,C*3E
$IIMWV,320,R,09.2,N,A*19
$IIMWV,314,T,08.0,N,A*1B
$IIRMC,161915,A,4612.829,N,00609.982,E,01.7,299,200814,,,A*47
$IIVHW,,,303,M,01.4,N,,*61
$IIVLW,53462,N,000.0,N*55
$IIVWR,040,L,08.9,N,,,,*7A
$IIDPT,005.0,+0.7,*45
$IIGLL,4612.829,N,00609.982,E,161915,A,A*55
$IIHDG,303,,,,*57
$IIMTW,+17.0,C*3E
$IIMWV,317,R,08.8,N,A*16
$IIMWV,314,T,07.7,N,A*13
$IIRMC,161915,A,4612.829,N,00609.982,E,01.7,299,200814,,,A*47
$IIVHW,,,303,M,01.4,N,,*61
$IIVLW,53462,N,000.0,N*55
$IIVWR,043,L,08.8,N,,,,*78
$IIDPT,005.0,+0.7,*45
$IIGLL,4612.829,N,00609.982,E,161915,A,A*55
$IIHDG,303,,,,*57
$IIMTW,+17.0,C*3E
$IIMWV,317,R,09.2,N,A*1D
$IIMWV,310,T,07.6,N,A*16
$IIRMC,161917,A,4612.829,N,00609.980,E,01.7,300,200814,,,A*46
$IIVHW,,,305,M,01.4,N,,*67
$IIVLW,53462,N,000.0,N*55
$IIVWR,043,L,09.2,N,,,,*73
$IIDPT,005.0,+0.7,*45
$IIGLL,4612.829,N,00609.980,E,161917,A,A*55
$IIHDG,307,,,,*53
$IIMTW,+17.0,C*3E
$IIMWV,318,R,08.9,N,A*18
$IIMWV,310,T,08.0,N,A*1F
$IIRMC,161918,A,4612.830,N,00609.980,E,01.8,301,200814,,,A*4F
$IIVHW,,,307,M,01.4,N,,*65
$IIVLW,53462,N,000.0,N*55
$IIVWR,042,L,08.9,N,,,,*78
$IIDPT,005.0,+0.7,*45
$IIGLL,4612.830,N,00609.979,E,161919,A,A*55
$IIHDG,310,,,,*55
$IIMTW,+17.0,C*3E
$IIMWV,315,R,08.8,N,A*14
$IIMWV,310,T,07.7,N,A*17
$IIRMC,161919,A,4612.830,N,00609.979,E,01.8,303,200814,,,A*4A
$IIVHW,,,310,M,01.5,N,,*62
$IIVLW,53462,N,000.0,N*55
$IIVWR,045,L,08.8,N,,,,*7E
$IIDPT,005.0,+0.7,*45
$IIGLL,4612.830,N,00609.979,E,161920,A,A*5F
$IIHDG,312,,,,*57
$IIMTW,+17.0,C*3E
$IIMWV,313,R,08.8,N,A*12
$IIMWV,307,T,07.7,N,A*11
$IIRMC,161920,A,4612.830,N,00609.979,E,01.8,306,200814,,,A*45
$IIVHW,,,312,M,01.6,N,,*63
$IIVLW,53462,N,000.0,N*55
$IIVWR,052,L,08.7,N,,,,*77
$IIDPT,005.0,+0.7,*45
$IIGLL,4612.830,N,00609.978,E,161921,A,A*5F
$IIHDG,314,,,,*51
$IIMTW,+17.0,C*3E
$IIMWV,308,R,08.7,N,A*17
$IIMWV,304,T,07.7,N,A*12
$IIRMC,161921,A,4612.830,N,00609.978,E,01.9,309,200814,,,A*4B
$IIVHW,,,314,M,01.6,N,,*65
$IIVLW,53462,N,000.0,N*55
$IIVWR,055,L,08.7,N,,,,*70
$IIDPT,005.0,+0.7,*45
$IIGLL,4612.831,N,00609.978,E,161922,A,A*5D
$IIHDG,316,,,,*53
$IIMTW,+17.0,C*3E
$IIMWV,305,R,08.7,N,A*1A
$IIMWV,299,T,07.7,N,A*17
$IIRMC,161922,A,4612.831,N,00609.978,E,01.9,311,200814,,,A*40
$IIVHW,,,318,M,01.9,N,,*66
$IIVLW,53462,N,000.0,N*55
$IIVWR,057,L,08.7,N,,,,*72
$IIDPT,005.0,+0.7,*45
$IIGLL,4612.831,N,00609.977,E,161923,A,A*53
$IIHDG,318,,,,*5D
$IIMTW,+17.0,C*3E
$IIMWV,303,R,08.7,N,A*1C
$IIMWV,293,T,07.7,N,A*1D
$IIRMC,161924,A,4612.832,N,00609.977,E,02.3,319,200814,,,A*4B
$IIVHW,,,318,M,02.0,N,,*6C
$IIVLW,53462,N,000.0,N*55
$IIVWR,059,L,08.8,N,,,,*73
$IIDPT,005.0,+0.7,*45
$IIGLL,4612.832,N,00609.977,E,161924,A,A*57
$IIHDG,318,,,,*5D
$IIMTW,+17.0,C*3E
$IIMWV,301,R,08.8,N,A*11
$IIMWV,288,T,07.8,N,A*18
$IIRMC,161925,A,4612.833,N,00609.976,E,02.5,318,200814,,,A*4D
$IIVHW,,,318,M,02.1,N,,*6D
$IIVLW,53462,N,000.0,N*55
$IIVWR,056,L,09.3,N,,,,*76
$IIDPT,005.0,+0.7,*45
$IIGLL,4612.833,N,00609.976,E,161925,A,A*56
$IIHDG,318,,,,*5D
$IIMTW,+17.0,C*3E
$IIMWV,301,R,09.8,N,A*10
$IIMWV,291,T,08.2,N,A*15
$IIRMC,161926,A,4612.833,N,00609.975,E,02.6,318,200814,,,A*4E
$IIVHW,,,318,M,02.3,N,,*6F
$IIVLW,53462,N,000.0,N*55
$IIVWR,059,L,09.8,N,,,,*72
$IIDPT,005.0,+0.7,*45
$IIGLL,4612.833,N,00609.975,E,161926,A,A*56
$IIHDG,318,,,,*5D
$IIMTW,+17.0,C*3E
$IIMWV,302,R,10.0,N,A*13
$IIMWV,288,T,08.8,N,A*17
$IIRMC,161927,A,4612.834,N,00609.975,E,02.6,317,200814,,,A*47
$IIVHW,,,318,M,02.4,N,,*68
$IIVLW,53462,N,000.0,N*55
$IIVWR,058,L,10.0,N,,,,*73
$IIDPT,005.0,+0.7,*45
$IIGLL,4612.834,N,00609.975,E,161927,A,A*50
$IIHDG,318,,,,*5D
$IIMTW,+17.0,C*3E
$IIMWV,301,R,10.0,N,A*10
$IIMWV,289,T,08.9,N,A*17
$IIRMC,161928,A,4612.835,N,00609.974,E,02.8,317,200814,,,A*46
$IIVHW,,,318,M,02.5,N,,*69
$IIVLW,53462,N,000.0,N*55
$IIVWR,059,L,10.0,N,,,,*72
$IIDPT,005.0,+0.7,*45
$IIGLL,4612.836,N,00609.973,E,161929,A,A*5A
$IIHDG,318,,,,*5D
$IIMTW,+17.0,C*3E
$IIMWV,300,R,10.6,N,A*17
$IIMWV,287,T,09.0,N,A*11
$IIRMC,161929,A,4612.836,N,00609.973,E,03.0,317,200814,,,A*4A
$IIVHW,,,318,M,02.5,N,,*69
$IIVLW,53462,N,000.0,N*55
$IIVWR,060,L,10.6,N,,,,*7E
$IIDPT,005.0,+0.7,*45
$IIGLL,4612.836,N,00609.972,E,161930,A,A*53
$IIHDG,318,,,,*5D
$IIMTW,+17.0,C*3E
$IIMWV,299,R,10.1,N,A*11
$IIMWV,286,T,09.5,N,A*15
$IIRMC,161930,A,4612.836,N,00609.972,E,03.0,317,200814,,,A*43
$IIVHW,,,318,M,02.6,N,,*6A
$IIVLW,53462,N,000.0,N*55
$IIVWR,063,L,10.6,N,,,,*7D
$IIDPT,005.0,+0.7,*45
$IIGLL,4612.837,N,00609.972,E,161931,A,A*53
$IIHDG,319,,,,*5C
$IIMTW,+17.0,C*3E
$IIMWV,297,R,10.6,N,A*18
$IIMWV,284,T,08.9,N,A*1A
$IIRMC,161931,A,4612.837,N,00609.972,E,03.0,318,200814,,,A*4C
$IIVHW,,,319,M,02.6,N,,*6B
$IIVLW,53462,N,000.0,N*55
$IIVWR,057,L,10.9,N,,,,*75
$IIDPT,005.0,+0.7,*45
$IIGLL,4612.837,N,00609.971,E,161932,A,A*53
$IIHDG,320,,,,*56
$IIMTW,+17.0,C*3E
$IIMWV,303,R,10.9,N,A*1B
$IIMWV,282,T,09.6,N,A*12
$IIRMC,161932,A,4612.837,N,00609.971,E,03.2,319,200814,,,A*4F
$IIVHW,,,320,M,02.8,N,,*6F
$IIVLW,53462,N,000.0,N*55
$IIVWR,055,L,10.1,N,,,,*7F
$IIDPT,005.0,+0.7,*45
$IIGLL,4612.838,N,00609.970,E,161933,A,A*5C
$IIHDG,320,,,,*56
$IIMTW,+17.0,C*3E
$IIMWV,305,R,10.1,N,A*15
$IIMWV,289,T,09.6,N,A*19
$IIRMC,161934,A,4612.839,N,00609.969,E,03.3,320,200814,,,A*45
$IIVHW,,,320,M,02.9,N,,*6E
$IIVLW,53462,N,000.0,N*55
$IIVWR,052,L,09.8,N,,,,*79
$IIDPT,005.0,+0.7,*45
$IIGLL,4612.839,N,00609.969,E,161934,A,A*52
$IIHDG,320,,,,*56
$IIMTW,+17.0,C*3E
$IIMWV,308,R,09.8,N,A*19
$IIMWV,292,T,08.3,N,A*17
$IIRMC,161935,A,4612.839,N,00609.969,E,03.5,319,200814,,,A*48
$IIVHW,,,320,M,03.0,N,,*66
$IIVLW,53462,N,000.0,N*55
$IIVWR,052,L,10.0,N,,,,*79
$IIDPT,005.0,+0.7,*45
$IIGLL,4612.839,N,00609.969,E,161935,A,A*53
$IIHDG,320,,,,*56
$IIMTW,+17.0,C*3E
$IIMWV,306,R,09.2,N,A*1D
$IIMWV,292,T,08.5,N,A*11
$IIRMC,161936,A,4612.840,N,00609.968,E,03.5,321,200814,,,A*4F
$IIVHW,,,321,M,03.0,N,,*67
$IIVLW,53462,N,000.0,N*55
$IIVWR,054,L,09.2,N,,,,*75
$IIDPT,005.0,+0.7,*45
$IIGLL,4612.840,N,00609.968,E,161936,A,A*5F
$IIHDG,321,,,,*57
$IIMTW,+17.0,C*3E
$IIMWV,312,R,08.9,N,A*12
$IIMWV,287,T,07.7,N,A*18
$IIRMC,161937,A,4612.841,N,00609.966,E,03.5,321,200814,,,A*41
$IIVHW,,,321,M,03.1,N,,*66
$IIVLW,53462,N,000.0,N*55
$IIVWR,048,L,08.9,N,,,,*72
$IIDPT,005.0,+0.7,*45
$IIGLL,4612.841,N,00609.966,E,161937,A,A*51
$IIHDG,321,,,,*57
$IIMTW,+17.0,C*3E
$IIMWV,314,R,08.1,N,A*1C
$IIMWV,293,T,07.0,N,A*1A
$IIRMC,161938,A,4612.842,N,00609.965,E,03.5,321,200814,,,A*4E
$IIVHW,,,321,M,03.1,N,,*66
$IIVLW,53462,N,000.0,N*55
$IIVWR,046,L,08.1,N,,,,*74
$IIDPT,005.0,+0.7,*45
$IIGLL,4612.842,N,00609.964,E,161939,A,A*5E
$IIHDG,321,,,,*57
$IIMTW,+17.0,C*3E
$IIMWV,315,R,08.3,N,A*1F
$IIMWV,291,T,06.2,N,A*1B
$IIRMC,161939,A,4612.842,N,00609.964,E,03.5,320,200814,,,A*4F
$IIVHW,,,321,M,03.2,N,,*65
$IIVLW,53462,N,000.0,N*55
$IIVWR,045,L,08.3,N,,,,*75
$IIDPT,005.2,+0.7,*47
$IIGLL,4612.842,N,00609.964,E,161939,A,A*5E
$IIHDG,321,,,,*57
$IIMTW,+17.0,C*3E
$IIMWV,314,R,08.5,N,A*18
$IIMWV,293,T,06.3,N,A*18
$IIRMC,161939,A,4612.842,N,00609.964,E,03.5,320,200814,,,A*4F
$IIVHW,,,321,M,03.3,N,,*64
$IIVLW,53462,N,000.0,N*55
$IIVWR,048,L,07.9,N,,,,*7D
$IIDPT,005.2,+0.7,*47
$IIGLL,4612.844,N,00609.962,E,161941,A,A*51
$IIHDG,321,,,,*57
$IIMTW,+17.0,C*3E
$IIMWV,312,R,07.9,N,A*1D
$IIMWV,292,T,06.5,N,A*1F
$IIRMC,161941,A,4612.844,N,00609.962,E,03.6,320,200814,,,A*43
$IIVHW,,,321,M,03.3,N,,*64
$IIVLW,53462,N,000.0,N*55
$IIVWR,055,L,08.1,N,,,,*76
$IIDPT,005.2,+0.7,*47
$IIGLL,4612.845,N,00609.961,E,161942,A,A*50
$IIHDG,321,,,,*57
$IIMTW,+17.0,C*3E
$IIMWV,305,R,08.1,N,A*1C
$IIMWV,287,T,06.0,N,A*1E
$IIRMC,161942,A,4612.845,N,00609.961,E,03.6,321,200814,,,A*43
$IIVHW,,,320,M,03.4,N,,*62
$IIVLW,53462,N,000.0,N*55
$IIVWR,049,L,07.5,N,,,,*70
$IIDPT,005.2,+0.7,*47
$IIGLL,4612.846,N,00609.960,E,161943,A,A*53
$IIHDG,320,,,,*56
$IIMTW,+17.0,C*3E
$IIMWV,311,R,07.5,N,A*12
$IIMWV,280,T,06.7,N,A*1E
$IIRMC,161944,A,4612.846,N,00609.959,E,03.7,319,200814,,,A*47
$IIVHW,,,320,M,03.4,N,,*62
$IIVLW,53462,N,000.0,N*55
$IIVWR,047,L,08.0,N,,,,*74
$IIDPT,005.2,+0.7,*47
$IIGLL,4612.846,N,00609.959,E,161944,A,A*5E
$IIHDG,320,,,,*56
$IIMTW,+17.0,C*3E
$IIMWV,313,R,08.0,N,A*1A
$IIMWV,288,T,06.1,N,A*10
$IIRMC,161945,A,4612.847,N,00609.958,E,03.7,319,200814,,,A*46
$IIVHW,,,319,M,03.4,N,,*68
$IIVLW,53462,N,000.0,N*55
$IIVWR,045,L,08.4,N,,,,*72
$IIDPT,005.2,+0.7,*47
$IIGLL,4612.847,N,00609.958,E,161945,A,A*5F
$IIHDG,319,,,,*5C
$IIMTW,+17.0,C*3E
$IIMWV,317,R,08.5,N,A*1B
$IIMWV,292,T,06.3,N,A*19
$IIRMC,161946,A,4612.848,N,00609.958,E,03.8,319,200814,,,A*45
$IIVHW,,,319,M,03.5,N,,*69
$IIVLW,53462,N,000.0,N*55
$IIVWR,043,L,08.5,N,,,,*75
$IIDPT,005.2,+0.7,*47
$IIGLL,4612.848,N,00609.958,E,161946,A,A*53
$IIHDG,319,,,,*5C
$IIMTW,+17.0,C*3E
$IIMWV,319,R,07.9,N,A*16
$IIMWV,295,T,06.3,N,A*1E
$IIRMC,161947,A,4612.849,N,00609.957,E,03.8,319,200814,,,A*4A
$IIVHW,,,320,M,03.5,N,,*63
$IIVLW,53462,N,000.0,N*55
$IIVWR,041,L,07.9,N,,,,*74
$IIDPT,005.2,+0.7,*47
$IIGLL,4612.849,N,00609.957,E,161947,A,A*5C
$IIHDG,323,,,,*55
$IIMTW,+17.0,C*3E
$IIMWV,318,R,08.3,N,A*12
$IIMWV,295,T,05.7,N,A*19
$IIRMC,161948,A,4612.850,N,00609.956,E,03.8,321,200814,,,A*47
$IIVHW,,,323,M,03.4,N,,*61
$IIVLW,53462,N,000.0,N*55
$IIVWR,042,L,08.3,N,,,,*72
$IIDPT,005.2,+0.7,*47
$IIGLL,4612.851,N,00609.955,E,161949,A,A*59
$IIHDG,326,,,,*50
$IIMTW,+17.0,C*3E
$IIMWV,316,R,07.8,N,A*18
$IIMWV,295,T,06.0,N,A*1D
$IIRMC,161949,A,4612.851,N,00609.955,E,03.8,327,200814,,,A*42
$IIVHW,,,326,M,03.4,N,,*64
$IIVLW,53462,N,000.0,N*55
$IIVWR,044,L,07.8,N,,,,*70
$IIDPT,005.2,+0.7,*47
$IIGLL,4612.852,N,00609.954,E,161950,A,A*53
$IIHDG,329,,,,*5F
$IIMTW,+17.0,C*3E
$IIMWV,316,R,07.4,N,A*14
$IIMWV,291,T,05.7,N,A*1D
$IIRMC,161950,A,4612.852,N,00609.954,E,03.8,329,200814,,,A*46
$IIVHW,,,329,M,03.4,N,,*6B
$IIVLW,53462,N,000.0,N*55
$IIVWR,047,L,07.2,N,,,,*79
$IIDPT,005.2,+0.7,*47
$IIGLL,4612.853,N,00609.954,E,161951,A,A*53
$IIHDG,332,,,,*55
$IIMTW,+17.0,C*3E
$IIMWV,313,R,07.2,N,A*17
$IIMWV,290,T,05.4,N,A*1F
$IIRMC,161951,A,4612.853,N,00609.954,E,03.6,334,200814,,,A*44
$IIVHW,,,332,M,03.4,N,,*61
$IIVLW,53462,N,000.1,N*54
$IIVWR,048,L,07.1,N,,,,*75
$IIDPT,005.2,+0.7,*47
$IIGLL,4612.854,N,00609.953,E,161952,A,A*50
$IIHDG,335,,,,*52
$IIMTW,+17.0,C*3E
$IIMWV,312,R,07.1,N,A*15
$IIMWV,284,T,05.3,N,A*1D
$IIRMC,161952,A,4612.854,N,00609.953,E,03.9,336,200814,,,A*4A
$IIVHW,,,339,M,03.5,N,,*6B
$IIVLW,53462,N,000.1,N*54
$IIVWR,049,L,07.1,N,,,,*74
$IIDPT,005.3,+0.7,*46
$IIGLL,4612.854,N,00609.952,E,161953,A,A*50
$IIHDG,339,,,,*5E
$IIMTW,+17.0,C*3E
$IIMWV,311,R,07.1,N,A*16
$IIMWV,283,T,05.3,N,A*1A
$IIRMC,161954,A,4612.855,N,00609.952,E,03.8,342,200814,,,A*4E
$IIVHW,,,341,M,03.5,N,,*64
$IIVLW,53462,N,000.1,N*54
$IIVWR,050,L,08.0,N,,,,*72
$IIDPT,005.3,+0.7,*46
$IIGLL,4612.855,N,00609.952,E,161954,A,A*56
$IIHDG,341,,,,*51
$IIMTW,+17.0,C*3E
$IIMWV,310,R,08.0,N,A*19
$IIMWV,285,T,06.3,N,A*1F
$IIRMC,161955,A,4612.856,N,00609.951,E,03.8,341,200814,,,A*4C
$IIVHW,,,342,M,03.5,N,,*67
$IIVLW,53462,N,000.1,N*54
$IIVWR,053,L,07.8,N,,,,*76
$IIDPT,005.3,+0.7,*46
$IIGLL,4612.856,N,00609.951,E,161955,A,A*57
$IIHDG,342,,,,*52
$IIMTW,+17.0,C*3E
$IIMWV,302,R,07.5,N,A*10
$IIMWV,279,T,06.2,N,A*1D
$IIRMC,161956,A,4612.857,N,00609.951,E,03.7,345,200814,,,A*45
$IIVHW,,,346,M,03.5,N,,*63
$IIVLW,53462,N,000.1,N*54
$IIVWR,058,L,07.5,N,,,,*70
$IIDPT,005.3,+0.7,*46
$IIGLL,4612.857,N,00609.951,E,161956,A,A*55
$IIHDG,346,,,,*56
$IIMTW,+17.0,C*3E
$IIMWV,302,R,07.5,N,A*10
$IIMWV,273,T,06.3,N,A*16
$IIRMC,161956,A,4612.857,N,00609.951,E,03.7,345,200814,,,A*45
$IIVHW,,,348,M,03.6,N,,*6E
$IIVLW,53462,N,000.1,N*54
$IIVWR,058,L,07.5,N,,,,*70
$IIDPT,005.3,+0.7,*46
$IIGLL,4612.857,N,00609.951,E,161956,A,A*55
$IIHDG,351,,,,*50
$IIMTW,+17.0,C*3E
$IIMWV,304,R,07.4,N,A*17
$IIMWV,273,T,06.3,N,A*16
$IIRMC,161958,A,4612.860,N,00609.950,E,03.9,351,200814,,,A*45
$IIVHW,,,351,M,03.6,N,,*66
$IIVLW,53462,N,000.1,N*54
$IIVWR,056,L,07.4,N,,,,*7F
$IIDPT,005.3,+0.7,*46
$IIGLL,4612.861,N,00609.950,E,161959,A,A*5E
$IIHDG,355,,,,*54
$IIMTW,+17.0,C*3E
$IIMWV,306,R,06.5,N,A*15
$IIMWV,275,T,06.1,N,A*12
$IIRMC,161959,A,4612.861,N,00609.950,E,03.8,355,200814,,,A*40
$IIVHW,,,355,M,03.6,N,,*62
$IIVLW,53462,N,000.1,N*54
$IIVWR,054,L,06.5,N,,,,*7D
$IIDPT,005.3,+0.7,*46
$IIGLL,4612.862,N,00609.949,E,162000,A,A*53
$IIHDG,001,,,,*56
$IIMTW,+17.0,C*3E
$IIMWV,301,R,06.8,N,A*1F
$IIMWV,272,T,05.2,N,A*15
$IIRMC,162000,A,4612.862,N,00609.949,E,03.8,002,200814,,,A*4C
$IIVHW,,,001,M,03.6,N,,*60
$IIVLW,53462,N,000.1,N*54
$IIVWR,064,L,06.2,N,,,,*79
$IIDPT,005.4,+0.7,*41
$IIGLL,4612.863,N,00609.950,E,162001,A,A*5B
$IIHDG,005,,,,*52
$IIMTW,+17.0,C*3E
$IIMWV,296,R,06.2,N,A*1A
$IIMWV,268,T,05.8,N,A*14
$IIRMC,162001,A,4612.863,N,00609.950,E,03.8,007,200814,,,A*41
$IIVHW,,,005,M,03.6,N,,*64
$IIVLW,53462,N,000.1,N*54
$IIVWR,056,L,06.1,N,,,,*7B
$IIDPT,005.5,+0.7,*40
$IIGLL,4612.864,N,00609.950,E,162002,A,A*5F
$IIHDG,009,,,,*5E
$IIMTW,+17.0,C*3E
$IIMWV,304,R,06.1,N,A*13
$IIMWV,260,T,05.5,N,A*11
$IIRMC,162002,A,4612.864,N,00609.950,E,03.7,010,200814,,,A*4C
$IIVHW,,,014,M,03.6,N,,*64
$IIVLW,53462,N,000.1,N*54
$IIVWR,058,L,04.9,N,,,,*7F
$IIDPT,005.5,+0.7,*40
$IIGLL,4612.865,N,00609.951,E,162003,A,A*5E
$IIHDG,014,,,,*52
$IIMTW,+17.0,C*3E
$IIMWV,302,R,04.9,N,A*1F
$IIMWV,268,T,05.0,N,A*1C
$IIRMC,162004,A,4612.866,N,00609.951,E,03.5,015,200814,,,A*4E
$IIVHW,,,018,M,03.5,N,,*6B
$IIVLW,53462,N,000.1,N*54
$IIVWR,066,L,05.4,N,,,,*7E
$IIDPT,005.5,+0.7,*40
$IIGLL,4612.866,N,00609.951,E,162004,A,A*5A
$IIHDG,018,,,,*5E
$IIMTW,+17.0,C*3E
$IIMWV,294,R,05.4,N,A*1D
$IIMWV,254,T,05.0,N,A*13
$IIRMC,162005,A,4612.867,N,00609.951,E,03.9,014,200814,,,A*43
$IIVHW,,,021,M,03.5,N,,*61
$IIVLW,53462,N,000.1,N*54
$IIVWR,063,L,05.2,N,,,,*7D
$IIDPT,005.5,+0.7,*40
$IIGLL,4612.867,N,00609.951,E,162005,A,A*5A
$IIHDG,021,,,,*54
$IIMTW,+17.0,C*3E
$IIMWV,299,R,04.1,N,A*14
$IIMWV,255,T,04.7,N,A*14
$IIRMC,162006,A,4612.868,N,00609.952,E,03.5,017,200814,,,A*43
$IIVHW,,,021,M,03.4,N,,*60
$IIVLW,53462,N,000.1,N*54
$IIVWR,061,L,04.1,N,,,,*7D
$IIDPT,005.5,+0.7,*40
$IIGLL,4612.868,N,00609.952,E,162006,A,A*55
$IIHDG,021,,,,*54
$IIMTW,+17.0,C*3E
$IIMWV,296,R,04.1,N,A*1B
$IIMWV,245,T,03.8,N,A*1D
$IIRMC,162007,A,4612.869,N,00609.952,E,03.4,024,200814,,,A*42
$IIVHW,,,024,M,03.4,N,,*65
$IIVLW,53462,N,000.1,N*54
$IIVWR,064,L,04.1,N,,,,*78
$IIDPT,005.5,+0.7,*40
$IIGLL,4612.869,N,00609.952,E,162007,A,A*55
$IIHDG,027,,,,*52
$IIMTW,+17.0,C*3E
$IIMWV,296,R,04.2,N,A*18
$IIMWV,246,T,03.9,N,A*1F
$IIRMC,162008,A,4612.869,N,00609.953,E,03.4,029,200814,,,A*41
$IIVHW,,,027,M,03.4,N,,*66
$IIVLW,53462,N,000.1,N*54
$IIVWR,064,L,04.2,N,,,,*7B
$IIDPT,005.5,+0.7,*40
$IIGLL,4612.870,N,00609.953,E,162009,A,A*52
$IIHDG,031,,,,*55
$IIMTW,+17.0,C*3E
$IIMWV,299,R,04.4,N,A*11
$IIMWV,247,T,04.0,N,A*10
$IIRMC,162009,A,4612.870,N,00609.953,E,03.4,031,200814,,,A*41
$IIVHW,,,031,M,03.4,N,,*61
$IIVLW,53462,N,000.1,N*54
$IIVWR,061,L,04.4,N,,,,*78
$IIDPT,005.5,+0.7,*40
$IIGLL,4612.871,N,00609.954,E,162010,A,A*5C
$IIHDG,034,,,,*50
$IIMTW,+17.0,C*3E
$IIMWV,300,R,03.9,N,A*1A
$IIMWV,251,T,04.0,N,A*17
$IIRMC,162010,A,4612.871,N,00609.954,E,03.6,035,200814,,,A*49
$IIVHW,,,034,M,03.3,N,,*63
$IIVLW,53462,N,000.1,N*54
$IIVWR,061,L,03.5,N,,,,*7E
$IIDPT,005.5,+0.7,*40
$IIGLL,4612.872,N,00609.955,E,162011,A,A*5F
$IIHDG,042,,,,*51
$IIMTW,+17.0,C*3E
$IIMWV,299,R,03.5,N,A*17
$IIMWV,245,T,03.6,N,A*13
$IIRMC,162011,A,4612.872,N,00609.955,E,03.4,042,200814,,,A*48
$IIVHW,,,042,M,03.3,N,,*62
$IIVLW,53462,N,000.1,N*54
$IIVWR,065,L,03.9,N,,,,*76
$IIDPT,005.6,+0.7,*43
$IIGLL,4612.872,N,00609.955,E,162012,A,A*5C
$IIHDG,044,,,,*57
$IIMTW,+17.0,C*3E
$IIMWV,295,R,03.9,N,A*17
$IIMWV,239,T,03.4,N,A*1A
$IIRMC,162012,A,4612.872,N,00609.955,E,03.4,044,200814,,,A*4D
$IIVHW,,,048,M,03.3,N,,*68
$IIVLW,53462,N,000.1,N*54
$IIVWR,067,L,03.5,N,,,,*78
$IIDPT,005.7,+0.7,*42
$IIGLL,4612.873,N,00609.956,E,162013,A,A*5F
$IIHDG,048,,,,*5B
$IIMTW,+17.0,C*3E
$IIMWV,293,R,03.5,N,A*1D
$IIMWV,243,T,03.9,N,A*1A
$IIRMC,162014,A,4612.873,N,00609.957,E,03.2,054,200814,,,A*4F
$IIVHW,,,053,M,03.3,N,,*62
$IIVLW,53462,N,000.1,N*54
$IIVWR,075,L,03.3,N,,,,*7D
$IIDPT,005.7,+0.7,*42
$IIGLL,4612.873,N,00609.957,E,162014,A,A*59
$IIHDG,053,,,,*51
$IIMTW,+17.0,C*3E
$IIMWV,285,R,03.3,N,A*1C
$IIMWV,232,T,04.0,N,A*12
$IIRMC,162015,A,4612.874,N,00609.958,E,03.2,053,200814,,,A*41
$IIVHW,,,058,M,03.2,N,,*68
$IIVLW,53462,N,000.1,N*54
$IIVWR,077,L,03.2,N,,,,*7E
$IIDPT,005.9,+0.7,*4C
$IIGLL,4612.874,N,00609.958,E,162015,A,A*50
$IIHDG,058,,,,*5A
$IIMTW,+17.0,C*3E
$IIMWV,276,R,03.1,N,A*12
$IIMWV,230,T,04.0,N,A*10
$IIRMC,162016,A,4612.875,N,00609.959,E,03.4,045,200814,,,A*43
$IIVHW,,,061,M,03.2,N,,*62
$IIVLW,53462,N,000.1,N*54
$IIVWR,084,L,03.1,N,,,,*71
$IIDPT,005.9,+0.7,*4C
$IIGLL,4612.875,N,00609.959,E,162016,A,A*53
$IIHDG,061,,,,*50
$IIMTW,+17.0,C*3E
$IIMWV,271,R,02.9,N,A*1C
$IIMWV,226,T,04.1,N,A*16
$IIRMC,162017,A,4612.875,N,00609.960,E,03.1,063,200814,,,A*49
$IIVHW,,,063,M,03.1,N,,*63
$IIVLW,53462,N,000.1,N*54
$IIVWR,089,L,02.9,N,,,,*75
$IIDPT,005.9,+0.7,*4C
$IIGLL,4612.875,N,00609.960,E,162017,A,A*58
$IIHDG,067,,,,*56
$IIMTW,+17.0,C*3E
$IIMWV,267,R,02.8,N,A*1A
$IIMWV,222,T,04.3,N,A*10
$IIRMC,162017,A,4612.875,N,00609.960,E,03.1,063,200814,,,A*49
$IIVHW,,,067,M,03.0,N,,*66
$IIVLW,53462,N,000.1,N*54
$IIVWR,093,L,02.8,N,,,,*7F
$IIDPT,005.9,+0.7,*4C
$IIGLL,4612.876,N,00609.963,E,162019,A,A*56
$IIHDG,070,,,,*50
$IIMTW,+17.0,C*3E
$IIMWV,255,R,02.3,N,A*10
$IIMWV,221,T,04.2,N,A*12
$IIRMC,162019,A,4612.876,N,00609.963,E,03.0,068,200814,,,A*4D
$IIVHW,,,070,M,03.0,N,,*60
$IIVLW,53462,N,000.1,N*54
$IIVWR,105,L,02.3,N,,,,*7A
$IIDPT,005.9,+0.7,*4C
$IIGLL,4612.876,N,00609.964,E,162020,A,A*5B
$IIHDG,073,,,,*53
$IIMTW,+17.0,C*3E
$IIMWV,247,R,02.6,N,A*16
$IIMWV,212,T,04.1,N,A*11
$IIRMC,162020,A,4612.876,N,00609.964,E,03.0,072,200814,,,A*4B
$IIVHW,,,073,M,03.0,N,,*63
$IIVLW,53462,N,000.1,N*54
$IIVWR,118,L,02.2,N,,,,*77
$IIDPT,005.9,+0.7,*4C
$IIGLL,4612.876,N,00609.965,E,162021,A,A*5B
$IIHDG,074,,,,*54
$IIMTW,+17.0,C*3E
$IIMWV,242,R,02.2,N,A*17
$IIMWV,210,T,04.6,N,A*14
$IIRMC,162021,A,4612.876,N,00609.965,E,02.8,074,200814,,,A*44
$IIVHW,,,074,M,02.8,N,,*6D
$IIVLW,53462,N,000.1,N*54
$IIVWR,116,L,01.8,N,,,,*70
$IIDPT,005.9,+0.7,*4C
$IIGLL,4612.876,N,00609.966,E,162022,A,A*5B
$IIHDG,080,,,,*5F
$IIMTW,+17.0,C*3E
$IIMWV,244,R,01.8,N,A*18
$IIMWV,206,T,04.3,N,A*16
$IIRMC,162022,A,4612.876,N,00609.966,E,02.8,078,200814,,,A*48
$IIVHW,,,083,M,02.8,N,,*65
$IIVLW,53462,N,000.1,N*54
$IIVWR,117,L,01.8,N,,,,*71
$IIDPT,005.9,+0.7,*4C
$IIGLL,4612.876,N,00609.967,E,162023,A,A*5B
$IIHDG,083,,,,*5C
$IIMTW,+17.0,C*3E
$IIMWV,243,R,01.8,N,A*1F
$IIMWV,205,T,03.8,N,A*19
$IIRMC,162024,A,4612.876,N,00609.968,E,02.6,079,200814,,,A*4F
$IIVHW,,,079,M,02.7,N,,*6F
$IIVLW,53462,N,000.1,N*54
$IIVWR,126,L,01.5,N,,,,*7E
$IIDPT,005.9,+0.7,*4C
$IIGLL,4612.876,N,00609.968,E,162024,A,A*53
$IIHDG,079,,,,*59
$IIMTW,+17.0,C*3E
$IIMWV,234,R,01.5,N,A*12
$IIMWV,198,T,03.7,N,A*11
$IIRMC,162025,A,4612.876,N,00609.969,E,02.4,077,200814,,,A*43
$IIVHW,,,078,M,02.6,N,,*6F
$IIVLW,53462,N,000.1,N*54
$IIVWR,151,L,01.4,N,,,,*7F
$IIDPT,005.9,+0.7,*4C
$IIGLL,4612.876,N,00609.969,E,162025,A,A*53
$IIHDG,078,,,,*58
$IIMTW,+17.0,C*3E
$IIMWV,172,R,01.4,N,A*12
$IIMWV,189,T,03.9,N,A*1F
$IIRMC,162026,A,4612.876,N,00609.970,E,02.5,078,200814,,,A*46
$IIVHW,,,079,M,02.6,N,,*6E
$IIVLW,53462,N,000.1,N*54
$IIVWR,172,R,01.4,N,,,,*60
$IIDPT,005.9,+0.7,*4C
$IIGLL,4612.876,N,00609.970,E,162026,A,A*58
$IIHDG,079,,,,*59
$IIMTW,+17.0,C*3E
$IIMWV,152,R,01.4,N,A*10
$IIMWV,179,T,04.0,N,A*1E
$IIRMC,162027,A,4612.876,N,00609.971,E,02.5,077,200814,,,A*49
$IIVHW,,,078,M,02.6,N,,*6F
$IIVLW,53462,N,000.1,N*54
$IIVWR,152,R,01.4,N,,,,*62
$IIDPT,006.0,+0.7,*46
$IIGLL,4612.876,N,00609.971,E,162027,A,A*58
$IIHDG,077,,,,*57
$IIMTW,+17.0,C*3E
$IIMWV,162,R,01.3,N,A*14
$IIMWV,171,T,03.9,N,A*18
$IIRMC,162028,A,4612.877,N,00609.972,E,02.4,077,200814,,,A*45
$IIVHW,,,077,M,02.6,N,,*60
$IIVLW,53462,N,000.1,N*54
$IIVWR,162,R,01.3,N,,,,*66
$IIDPT,006.0,+0.7,*46
$IIGLL,4612.877,N,00609.973,E,162029,A,A*55
$IIHDG,078,,,,*58
$IIMTW,+17.0,C*3E
$IIMWV,165,R,01.4,N,A*14
$IIMWV,174,T,03.8,N,A*1C
$IIRMC,162029,A,4612.877,N,00609.973,E,02.4,076,200814,,,A*44
$IIVHW,,,078,M,02.5,N,,*6C
$IIVLW,53462,N,000.1,N*54
$IIVWR,165,R,01.4,N,,,,*66
$IIDPT,006.0,+0.7,*46
$IIGLL,4612.877,N,00609.974,E,162030,A,A*5A
$IIHDG,082,,,,*5D
$IIMTW,+17.0,C*3E
$IIMWV,157,R,01.5,N,A*14
$IIMWV,175,T,03.8,N,A*1D
$IIRMC,162030,A,4612.877,N,00609.974,E,02.4,083,200814,,,A*41
$IIVHW,,,082,M,02.4,N,,*68
$IIVLW,53462,N,000.1,N*54
$IIVWR,153,R,00.7,N,,,,*61
$IIDPT,006.1,+0.7,*47
$IIGLL,4612.877,N,00609.975,E,162031,A,A*5A
$IIHDG,086,,,,*59
$IIMTW,+17.0,C*3E
$IIMWV,153,R,00.7,N,A*13
$IIMWV,172,T,03.8,N,A*1A
$IIRMC,162031,A,4612.877,N,00609.975,E,02.4,086,200814,,,A*44
$IIVHW,,,086,M,02.4,N,,*6C
$IIVLW,53462,N,000.1,N*54
$IIVWR,143,R,01.0,N,,,,*66
$IIDPT,006.1,+0.7,*47
$IIGLL,4612.877,N,00609.976,E,162032,A,A*5A
$IIHDG,092,,,,*5C
$IIMTW,+17.0,C*3E
$IIMWV,143,R,01.0,N,A*14
$IIMWV,174,T,03.0,N,A*14
$IIRMC,162032,A,4612.877,N,00609.976,E,02.4,094,200814,,,A*47
$IIVHW,,,096,M,02.2,N,,*6B
$IIVLW,53462,N,000.1,N*54
$IIVWR,136,R,01.0,N,,,,*64
$IIDPT,006.1,+0.7,*47
$IIGLL,4612.877,N,00609.977,E,162033,A,A*5A
$IIHDG,096,,,,*58
$IIMTW,+17.0,C*3E
$IIMWV,136,R,01.0,N,A*16
$IIMWV,169,T,03.1,N,A*19
$IIRMC,162034,A,4612.876,N,00609.978,E,02.1,103,200814,,,A*44
$IIVHW,,,101,M,02.1,N,,*67
$IIVLW,53462,N,000.1,N*54
$IIVWR,139,R,01.1,N,,,,*6A
$IIDPT,006.1,+0.7,*47
$IIGLL,4612.876,N,00609.978,E,162034,A,A*53
$IIHDG,101,,,,*57
$IIMTW,+17.0,C*3E
$IIMWV,139,R,01.1,N,A*18
$IIMWV,166,T,02.9,N,A*1F
$IIRMC,162035,A,4612.876,N,00609.978,E,02.2,108,200814,,,A*4D
$IIVHW,,,105,M,02.1,N,,*63
$IIVLW,53462,N,000.1,N*54
$IIVWR,130,R,01.8,N,,,,*6A
$IIDPT,006.1,+0.7,*47
$IIGLL,4612.876,N,00609.978,E,162035,A,A*52
$IIHDG,105,,,,*53
$IIMTW,+17.0,C*3E
$IIMWV,124,R,01.8,N,A*1D
$IIMWV,158,T,03.4,N,A*1E
$IIRMC,162036,A,4612.876,N,00609.979,E,02.3,113,200814,,,A*44
$IIVHW,,,109,M,02.1,N,,*6F
$IIVLW,53462,N,000.1,N*54
$IIVWR,124,R,01.8,N,,,,*6F
$IIDPT,006.1,+0.7,*47
$IIGLL,4612.876,N,00609.979,E,162036,A,A*50
$IIHDG,109,,,,*5F
$IIMTW,+17.0,C*3E
$IIMWV,115,R,02.2,N,A*16
$IIMWV,156,T,03.4,N,A*10
$IIRMC,162037,A,4612.875,N,00609.980,E,02.3,117,200814,,,A*44
$IIVHW,,,113,M,02.1,N,,*64
$IIVLW,53462,N,000.1,N*54
$IIVWR,115,R,02.2,N,,,,*64
$IIDPT,006.1,+0.7,*47
$IIGLL,4612.875,N,00609.980,E,162037,A,A*54
$IIHDG,118,,,,*5F
$IIMTW,+17.0,C*3E
$IIMWV,108,R,02.6,N,A*1E
$IIMWV,147,T,03.6,N,A*12
$IIRMC,162038,A,4612.875,N,00609.980,E,02.6,115,200814,,,A*4C
$IIVHW,,,118,M,02.1,N,,*6F
$IIVLW,53462,N,000.1,N*54
$IIVWR,108,R,02.6,N,,,,*6C
$IIDPT,006.1,+0.7,*47
$IIGLL,4612.874,N,00609.981,E,162039,A,A*5A
$IIHDG,120,,,,*54
$IIMTW,+17.0,C*3E
$IIMWV,107,R,03.3,N,A*15
$IIMWV,140,T,03.7,N,A*14
$IIRMC,162039,A,4612.874,N,00609.981,E,02.2,127,200814,,,A*48
$IIVHW,,,120,M,02.1,N,,*64
$IIVLW,53462,N,000.1,N*54
$IIVWR,107,R,03.3,N,,,,*67
$IIDPT,006.1,+0.7,*47
$IIGLL,4612.874,N,00609.982,E,162040,A,A*57
$IIHDG,119,,,,*5E
$IIMTW,+17.0,C*3E
$IIMWV,099,R,03.2,N,A*12
$IIMWV,135,T,04.3,N,A*15
$IIRMC,162040,A,4612.874,N,00609.982,E,02.1,118,200814,,,A*4A
$IIVHW,,,119,M,02.1,N,,*6E
$IIVLW,53462,N,000.1,N*54
$IIVWR,102,R,03.2,N,,,,*63
$IIDPT,006.1,+0.7,*47
$IIGLL,4612.874,N,00609.983,E,162041,A,A*57
$IIHDG,121,,,,*55
$IIMTW,+17.0,C*3E
$IIMWV,102,R,03.2,N,A*11
$IIMWV,130,T,04.0,N,A*13
$IIRMC,162041,A,4612.874,N,00609.983,E,02.1,125,200814,,,A*44
$IIVHW,,,121,M,02.1,N,,*65
$IIVLW,53462,N,000.1,N*54
$IIVWR,092,R,03.1,N,,,,*68
$IIDPT,006.1,+0.7,*47
$IIGLL,4612.873,N,00609.983,E,162042,A,A*53
$IIHDG,123,,,,*57
$IIMTW,+17.0,C*3E
$IIMWV,092,R,03.1,N,A*1A
$IIMWV,131,T,04.1,N,A*13
$IIRMC,162042,A,4612.873,N,00609.983,E,02.2,125,200814,,,A*43
$IIVHW,,,125,M,02.1,N,,*61
$IIVLW,53462,N,000.1,N*54
$IIVWR,092,R,03.6,N,,,,*6F
$IIDPT,006.1,+0.7,*47
$IIGLL,4612.873,N,00609.984,E,162043,A,A*55
$IIHDG,125,,,,*51
$IIMTW,+17.0,C*3E
$IIMWV,092,R,03.6,N,A*1D
$IIMWV,125,T,03.8,N,A*18
$IIRMC,162044,A,4612.873,N,00609.985,E,02.2,128,200814,,,A*4E
$IIVHW,,,125,M,02.1,N,,*61
$IIVLW,53462,N,000.1,N*54
$IIVWR,092,R,04.4,N,,,,*6A
$IIDPT,006.1,+0.7,*47
$IIGLL,4612.873,N,00609.985,E,162044,A,A*53
$IIHDG,125,,,,*51
$IIMTW,+17.0,C*3E
$IIMWV,092,R,04.4,N,A*18
$IIMWV,117,T,04.9,N,A*1F
$IIRMC,162045,A,4612.872,N,00609.986,E,02.2,127,200814,,,A*42
$IIVHW,,,125,M,02.1,N,,*61
$IIVLW,53462,N,000.1,N*54
$IIVWR,092,R,03.9,N,,,,*60
$IIDPT,006.1,+0.7,*47
$IIGLL,4612.872,N,00609.986,E,162045,A,A*50
$IIHDG,125,,,,*51
$IIMTW,+17.0,C*3E
$IIMWV,092,R,04.0,N,A*1C
$IIMWV,121,T,04.5,N,A*16
$IIRMC,162046,A,4612.872,N,00609.987,E,02.2,125,200814,,,A*42
$IIVHW,,,125,M,02.1,N,,*61
$IIVLW,53462,N,000.1,N*54
$IIVWR,092,R,04.0,N,,,,*6E
$IIDPT,006.1,+0.7,*47
$IIGLL,4612.872,N,00609.987,E,162046,A,A*52
$IIHDG,125,,,,*51
$IIMTW,+17.0,C*3E
$IIMWV,096,R,04.6,N,A*1E
$IIMWV,120,T,04.6,N,A*14
$IIRMC,162047,A,4612.872,N,00609.987,E,02.2,127,200814,,,A*41
$IIVHW,,,123,M,02.1,N,,*67
$IIVLW,53462,N,000.1,N*54
$IIVWR,096,R,04.6,N,,,,*6C
$IIDPT,006.1,+0.7,*47
$IIGLL,4612.872,N,00609.987,E,162047,A,A*53
$IIHDG,123,,,,*57
$IIMTW,+17.0,C*3E
$IIMWV,099,R,04.5,N,A*12
$IIMWV,120,T,05.1,N,A*12
$IIRMC,162048,A,4612.871,N,00609.988,E,02.2,125,200814,,,A*40
$IIVHW,,,123,M,02.1,N,,*67
$IIVLW,53462,N,000.1,N*54
$IIVWR,099,R,04.5,N,,,,*60
$IIDPT,006.1,+0.7,*47
$IIGLL,4612.871,N,00609.989,E,162049,A,A*50
$IIHDG,122,,,,*56
$IIMTW,+17.0,C*3E
$IIMWV,098,R,04.1,N,A*17
$IIMWV,123,T,05.2,N,A*12
$IIRMC,162049,A,4612.871,N,00609.989,E,02.2,124,200814,,,A*41
$IIVHW,,,122,M,02.1,N,,*66
$IIVLW,53462,N,000.1,N*54
$IIVWR,098,R,04.1,N,,,,*65
$IIDPT,006.1,+0.7,*47
$IIGLL,4612.871,N,00609.990,E,162050,A,A*50
$IIHDG,123,,,,*57
$IIMTW,+17.0,C*3E
$IIMWV,096,R,04.1,N,A*19
$IIMWV,123,T,04.7,N,A*16
$IIRMC,162050,A,4612.871,N,00609.990,E,02.2,127,200814,,,A*42
$IIVHW,,,123,M,02.0,N,,*66
$IIVLW,53462,N,000.1,N*54
$IIVWR,095,R,04.6,N,,,,*6F
$IIDPT,006.1,+0.7,*47
$IIGLL,4612.870,N,00609.990,E,162051,A,A*50
$IIHDG,123,,,,*57
$IIMTW,+17.0,C*3E
$IIMWV,095,R,04.6,N,A*1D
$IIMWV,122,T,04.7,N,A*17
$IIRMC,162051,A,4612.870,N,00609.990,E,02.2,128,200814,,,A*4D
$IIVHW,,,123,M,02.0,N,,*66
$IIVLW,53462,N,000.1,N*54
$IIVWR,093,R,04.6,N,,,,*69
$IIDPT,006.1,+0.7,*47
$IIGLL,4612.870,N,00609.991,E,162052,A,A*52
$IIHDG,124,,,,*50
$IIMTW,+17.0,C*3E
$IIMWV,093,R,04.6,N,A*1B
$IIMWV,119,T,05.2,N,A*1B
$IIRMC,162052,A,4612.870,N,00609.991,E,02.2,130,200814,,,A*46
$IIVHW,,,125,M,02.0,N,,*60
$IIVLW,53462,N,000.1,N*54
$IIVWR,098,R,04.6,N,,,,*62
$IIDPT,006.1,+0.7,*47
$IIGLL,4612.869,N,00609.991,E,162053,A,A*5B
$IIHDG,125,,,,*51
$IIMTW,+17.0,C*3E
$IIMWV,098,R,04.6,N,A*10
$IIMWV,117,T,05.1,N,A*16
$IIRMC,162054,A,4612.869,N,00609.992,E,02.1,130,200814,,,A*48
$IIVHW,,,128,M,02.0,N,,*6D
$IIVLW,53462,N,000.1,N*54
$IIVWR,094,R,04.2,N,,,,*6A
$IIDPT,006.1,+0.7,*47
$IIGLL,4612.869,N,00609.992,E,162054,A,A*5F
$IIHDG,128,,,,*5C
$IIMTW,+17.0,C*3E
$IIMWV,094,R,04.2,N,A*18
$IIMWV,118,T,04.7,N,A*1E
$IIRMC,162055,A,4612.869,N,00609.992,E,02.2,134,200814,,,A*4E
$IIVHW,,,131,M,01.9,N,,*6F
$IIVLW,53462,N,000.1,N*54
$IIVWR,095,R,04.1,N,,,,*68
$IIDPT,006.1,+0.7,*47
$IIGLL,4612.869,N,00609.992,E,162055,A,A*5E
$IIHDG,131,,,,*54
$IIMTW,+17.0,C*3E
$IIMWV,093,R,04.0,N,A*1D
$IIMWV,119,T,04.7,N,A*1F
$IIRMC,162056,A,4612.868,N,00609.993,E,02.2,138,200814,,,A*41
$IIVHW,,,134,M,01.9,N,,*6A
$IIVLW,53462,N,000.1,N*54
$IIVWR,093,R,04.0,N,,,,*6F
$IIDPT,006.1,+0.7,*47
$IIGLL,4612.868,N,00609.993,E,162056,A,A*5D
$IIHDG,134,,,,*51
$IIMTW,+17.0,C*3E
$IIMWV,092,R,04.0,N,A*1C
$IIMWV,119,T,04.5,N,A*1D
$IIRMC,162057,A,4612.868,N,00609.994,E,02.2,143,200814,,,A*4B
$IIVHW,,,139,M,01.9,N,,*67
$IIVLW,53462,N,000.1,N*54
$IIVWR,092,R,04.0,N,,,,*6E
$IIDPT,006.1,+0.7,*47
$IIGLL,4612.868,N,00609.994,E,162057,A,A*5B
$IIHDG,142,,,,*50
$IIMTW,+17.0,C*3E
$IIMWV,091,R,04.1,N,A*1E
$IIMWV,118,T,04.5,N,A*1C
$IIRMC,162058,A,4612.868,N,00609.994,E,01.9,143,200814,,,A*4C
$IIVHW,,,142,M,01.9,N,,*6B
$IIVLW,53462,N,000.1,N*54
$IIVWR,091,R,04.1,N,,,,*6C
$IIDPT,006.1,+0.7,*47
$IIGLL,4612.867,N,00609.995,E,162059,A,A*5B
$IIHDG,144,,,,*56
$IIMTW,+17.0,C*3E
$IIMWV,088,R,04.5,N,A*12
$IIMWV,116,T,04.5,N,A*12
$IIRMC,162059,A,4612.867,N,00609.995,E,02.1,151,200814,,,A*4B
$IIVHW,,,144,M,01.9,N,,*6D
$IIVLW,53462,N,000.1,N*54
$IIVWR,088,R,04.5,N,,,,*60
$IIDPT,006.1,+0.7,*47
$IIGLL,4612.867,N,00609.995,E,162100,A,A*56
$IIHDG,147,,,,*55
$IIMTW,+17.0,C*3E
$IIMWV,085,R,04.5,N,A*1F
$IIMWV,113,T,04.8,N,A*1A
$IIRMC,162100,A,4612.867,N,00609.995,E,02.1,149,200814,,,A*4F
$IIVHW,,,147,M,01.9,N,,*6E
$IIVLW,53462,N,000.1,N*54
$IIVWR,082,R,04.9,N,,,,*66
$IIDPT,006.1,+0.7,*47
$IIGLL,4612.867,N,00609.995,E,162100,A,A*56
$IIHDG,148,,,,*5A
$IIMTW,+17.0,C*3E
$IIMWV,082,R,04.9,N,A*14
$IIMWV,110,T,04.7,N,A*16
$IIRMC,162100,A,4612.867,N,00609.995,E,02.1,149,200814,,,A*4F
$IIVHW,,,148,M,01.9,N,,*61
$IIVLW,53462,N,000.1,N*54
$IIVWR,080,R,05.2,N,,,,*6E
$IIDPT,006.1,+0.7,*47
$IIGLL,4612.866,N,00609.996,E,162102,A,A*56
$IIHDG,149,,,,*5B
$IIMTW,+17.0,C*3E
$IIMWV,080,R,05.2,N,A*1C
$IIMWV,105,T,04.9,N,A*1C
$IIRMC,162102,A,4612.866,N,00609.996,E,02.0,150,200814,,,A*46
$IIVHW,,,150,M,01.8,N,,*69
$IIVLW,53462,N,000.1,N*54
$IIVWR,078,R,05.3,N,,,,*68
$IIDPT,006.1,+0.7,*47
$IIGLL,4612.865,N,00609.996,E,162103,A,A*54
$IIHDG,150,,,,*53
$IIMTW,+17.0,C*3E
$IIMWV,078,R,05.3,N,A*1A
$IIMWV,102,T,05.1,N,A*12
$IIRMC,162104,A,4612.865,N,00609.997,E,01.9,150,200814,,,A*48
$IIVHW,,,151,M,01.8,N,,*68
$IIVLW,53462,N,000.1,N*54
$IIVWR,075,R,05.2,N,,,,*64
$IIDPT,006.1,+0.7,*47
$IIGLL,4612.865,N,00609.997,E,162104,A,A*52
$IIHDG,151,,,,*52
$IIMTW,+17.0,C*3E
$IIMWV,075,R,05.2,N,A*16
$IIMWV,097,T,05.0,N,A*1E
$IIRMC,162105,A,4612.864,N,00609.997,E,01.9,150,200814,,,A*48
$IIVHW,,,151,M,01.8,N,,*68
$IIVLW,53462,N,000.1,N*54
$IIVWR,075,R,05.0,N,,,,*66
$IIDPT,006.1,+0.7,*47
$IIGLL,4612.864,N,00609.997,E,162105,A,A*52
$IIHDG,151,,,,*52
$IIMTW,+17.0,C*3E
$IIMWV,076,R,05.2,N,A*15
$IIMWV,097,T,04.8,N,A*17
$IIRMC,162106,A,4612.864,N,00609.997,E,01.9,150,200814,,,A*4B
$IIVHW,,,153,M,01.9,N,,*6B
$IIVLW,53462,N,000.1,N*54
$IIVWR,076,R,05.2,N,,,,*67
$IIDPT,006.1,+0.7,*47
$IIGLL,4612.864,N,00609.997,E,162106,A,A*51
$IIHDG,153,,,,*50
$IIMTW,+17.0,C*3E
$IIMWV,077,R,05.0,N,A*16
$IIMWV,098,T,05.0,N,A*11
$IIRMC,162107,A,4612.864,N,00609.998,E,01.9,151,200814,,,A*44
$IIVHW,,,154,M,01.8,N,,*6D
$IIVLW,53462,N,000.1,N*54
$IIVWR,077,R,05.0,N,,,,*64
$IIDPT,006.1,+0.7,*47
$IIGLL,4612.864,N,00609.998,E,162107,A,A*5F
$IIHDG,155,,,,*56
$IIMTW,+17.0,C*3E
$IIMWV,076,R,05.2,N,A*15
$IIMWV,099,T,04.8,N,A*19
$IIRMC,162108,A,4612.863,N,00609.998,E,01.9,153,200814,,,A*4E
$IIVHW,,,155,M,01.8,N,,*6C
$IIVLW,53462,N,000.1,N*54
$IIVWR,076,R,05.2,N,,,,*67
$IIDPT,006.1,+0.7,*47
$IIGLL,4612.863,N,00609.998,E,162109,A,A*56
$IIHDG,156,,,,*55
$IIMTW,+17.0,C*3E
$IIMWV,080,R,05.4,N,A*1A
$IIMWV,097,T,05.0,N,A*1E
$IIRMC,162109,A,4612.863,N,00609.998,E,01.9,154,200814,,,A*48
$IIVHW,,,156,M,01.8,N,,*6F
$IIVLW,53462,N,000.1,N*54
$IIVWR,080,R,05.4,N,,,,*68
$IIDPT,006.1,+0.7,*47
$IIGLL,4612.862,N,00609.998,E,162110,A,A*5F
$IIHDG,155,,,,*56
$IIMTW,+17.0,C*3E
$IIMWV,080,R,05.5,N,A*1B
$IIMWV,101,T,05.2,N,A*12
$IIRMC,162110,A,4612.862,N,00609.998,E,01.9,155,200814,,,A*40
$IIVHW,,,155,M,01.8,N,,*6C
$IIVLW,53462,N,000.1,N*54
$IIVWR,084,R,05.7,N,,,,*6F
$IIDPT,006.0,+0.7,*46
$IIGLL,4612.862,N,00609.998,E,162111,A,A*5E
$IIHDG,156,,,,*55
$IIMTW,+17.0,C*3E
$IIMWV,084,R,05.7,N,A*1D
$IIMWV,100,T,05.3,N,A*12
$IIRMC,162111,A,4612.862,N,00609.998,E,02.1,156,200814,,,A*49
$IIVHW,,,156,M,01.8,N,,*6F
$IIVLW,53462,N,000.1,N*54
$IIVWR,082,R,05.7,N,,,,*69
$IIDPT,005.9,+0.7,*4C
$IIGLL,4612.861,N,00609.999,E,162112,A,A*5F
$IIHDG,157,,,,*54
$IIMTW,+17.0,C*3E
$IIMWV,082,R,05.7,N,A*1B
$IIMWV,103,T,05.7,N,A*15
$IIRMC,162112,A,4612.861,N,00609.999,E,01.9,155,200814,,,A*40
$IIVHW,,,157,M,01.8,N,,*6E
$IIVLW,53462,N,000.1,N*54
$IIVWR,086,R,05.4,N,,,,*6E
$IIDPT,005.9,+0.7,*4C
$IIGLL,4612.861,N,00609.999,E,162113,A,A*5E
$IIHDG,157,,,,*54
$IIMTW,+17.0,C*3E
$IIMWV,086,R,05.4,N,A*1C
$IIMWV,102,T,05.7,N,A*14
$IIRMC,162114,A,4612.860,N,00609.999,E,01.9,156,200814,,,A*44
$IIVHW,,,157,M,01.8,N,,*6E
$IIVLW,53462,N,000.1,N*54
$IIVWR,087,R,05.4,N,,,,*6F
$IIDPT,005.9,+0.7,*4C
$IIGLL,4612.860,N,00609.999,E,162114,A,A*58
$IIHDG,157,,,,*54
$IIMTW,+17.0,C*3E
$IIMWV,087,R,05.4,N,A*1D
$IIMWV,107,T,05.6,N,A*10
$IIRMC,162115,A,4612.860,N,00610.000,E,01.3,157,200814,,,A*4F
$IIVHW,,,158,M,01.8,N,,*61
$IIVLW,53462,N,000.1,N*54
$IIVWR,086,R,05.3,N,,,,*69
$IIDPT,005.8,+0.7,*4D
$IIGLL,4612.860,N,00610.000,E,162115,A,A*58
$IIHDG,158,,,,*5B
$IIMTW,+17.0,C*3E
$IIMWV,083,R,04.8,N,A*14
$IIMWV,106,T,05.5,N,A*12
$IIRMC,162116,A,4612.860,N,00610.000,E,01.7,158,200814,,,A*47
$IIVHW,,,159,M,01.8,N,,*60
$IIVLW,53462,N,000.1,N*54
$IIVWR,083,R,04.8,N,,,,*66
$IIDPT,005.7,+0.7,*42
$IIGLL,4612.860,N,00610.000,E,162116,A,A*5B
$IIHDG,159,,,,*5A
$IIMTW,+17.0,C*3E
$IIMWV,083,R,05.0,N,A*1D
$IIMWV,105,T,04.8,N,A*1D
$IIRMC,162117,A,4612.859,N,00609.999,E,01.7,160,200814,,,A*46
$IIVHW,,,159,M,01.8,N,,*60
$IIVLW,53462,N,000.1,N*54
$IIVWR,083,R,05.0,N,,,,*6F
$IIDPT,005.7,+0.7,*42
$IIGLL,4612.859,N,00609.999,E,162117,A,A*51
$IIHDG,158,,,,*5B
$IIMTW,+17.0,C*3E
$IIMWV,083,R,05.2,N,A*1F
$IIMWV,104,T,05.0,N,A*15
$IIRMC,162118,A,4612.858,N,00609.999,E,01.8,160,200814,,,A*47
$IIVHW,,,158,M,01.8,N,,*61
$IIVLW,53462,N,000.1,N*54
$IIVWR,083,R,05.2,N,,,,*6D
$IIDPT,005.7,+0.7,*42
$IIGLL,4612.858,N,00609.999,E,162119,A,A*5E
$IIHDG,158,,,,*5B
$IIMTW,+17.0,C*3E
$IIMWV,082,R,05.0,N,A*1C
$IIMWV,103,T,05.2,N,A*10
$IIRMC,162119,A,4612.858,N,00609.999,E,02.1,160,200814,,,A*4C
$IIVHW,,,158,M,01.8,N,,*61
$IIVLW,53462,N,000.1,N*54
$IIVWR,082,R,05.0,N,,,,*6E
$IIDPT,005.6,+0.7,*43
$IIGLL,4612.857,N,00609.999,E,162120,A,A*5B
$IIHDG,159,,,,*5A
$IIMTW,+17.0,C*3E
$IIMWV,080,R,04.9,N,A*16
$IIMWV,103,T,05.0,N,A*12
$IIRMC,162120,A,4612.857,N,00609.999,E,01.5,158,200814,,,A*45
$IIVHW,,,159,M,01.8,N,,*60
$IIVLW,53462,N,000.1,N*54
$IIVWR,078,R,05.2,N,,,,*69
$IIDPT,005.6,+0.7,*43
$IIGLL,4612.857,N,00609.999,E,162121,A,A*5A
$IIHDG,159,,,,*5A
$IIMTW,+17.0,C*3E
$IIMWV,078,R,05.2,N,A*1B
$IIMWV,102,T,04.9,N,A*1B
$IIRMC,162121,A,4612.857,N,00609.999,E,01.5,157,200814,,,A*4B
$IIVHW,,,159,M,01.8,N,,*60
$IIVLW,53462,N,000.1,N*54
$IIVWR,078,R,05.3,N,,,,*68
$IIDPT,005.6,+0.7,*43
$IIGLL,4612.857,N,00610.000,E,162122,A,A*58
$IIHDG,159,,,,*5A
$IIMTW,+17.0,C*3E
$IIMWV,078,R,05.3,N,A*1A
$IIMWV,099,T,05.0,N,A*10
$IIRMC,162122,A,4612.857,N,00610.000,E,01.9,160,200814,,,A*41
$IIVHW,,,159,M,01.7,N,,*6F
$IIVLW,53462,N,000.1,N*54
$IIVWR,075,R,05.2,N,,,,*64
$IIDPT,005.6,+0.7,*43
$IIGLL,4612.856,N,00610.000,E,162123,A,A*58
$IIHDG,159,,,,*5A
$IIMTW,+17.0,C*3E
$IIMWV,075,R,05.2,N,A*16
$IIMWV,098,T,05.1,N,A*10
$IIRMC,162124,A,4612.855,N,00610.000,E,01.8,161,200814,,,A*45
$IIVHW,,,159,M,01.7,N,,*6F
$IIVLW,53462,N,000.1,N*54
$IIVWR,071,R,04.8,N,,,,*6B
$IIDPT,005.6,+0.7,*43
$IIGLL,4612.855,N,00610.000,E,162124,A,A*5C
$IIHDG,159,,,,*5A
$IIMTW,+17.0,C*3E
$IIMWV,071,R,04.8,N,A*19
$IIMWV,094,T,04.5,N,A*19
$IIRMC,162125,A,4612.855,N,00610.001,E,01.8,161,200814,,,A*45
$IIVHW,,,160,M,01.7,N,,*65
$IIVLW,53462,N,000.1,N*54
$IIVWR,068,R,04.6,N,,,,*6D
$IIDPT,005.6,+0.7,*43
$IIGLL,4612.855,N,00610.001,E,162125,A,A*5C
$IIHDG,160,,,,*50
$IIMTW,+17.0,C*3E
$IIMWV,070,R,04.9,N,A*19
$IIMWV,091,T,04.2,N,A*1B
$IIRMC,162126,A,4612.854,N,00610.001,E,01.6,158,200814,,,A*43
$IIVHW,,,160,M,01.7,N,,*65
$IIVLW,53462,N,000.1,N*54
$IIVWR,070,R,04.9,N,,,,*6B
$IIDPT,005.6,+0.7,*43
$IIGLL,4612.854,N,00610.001,E,162126,A,A*5E
$IIHDG,160,,,,*50
$IIMTW,+17.0,C*3E
$IIMWV,072,R,04.8,N,A*1A
$IIMWV,091,T,04.6,N,A*1F
$IIRMC,162127,A,4612.854,N,00610.001,E,01.7,159,200814,,,A*42
$IIVHW,,,160,M,01.7,N,,*65
$IIVLW,53462,N,000.1,N*54
$IIVWR,072,R,04.8,N,,,,*68
$IIDPT,005.6,+0.7,*43
$IIGLL,4612.854,N,00610.001,E,162127,A,A*5F
$IIHDG,161,,,,*51
$IIMTW,+17.0,C*3E
$IIMWV,074,R,05.0,N,A*15
$IIMWV,095,T,04.5,N,A*18
$IIRMC,162128,A,4612.853,N,00610.001,E,01.7,160,200814,,,A*40
$IIVHW,,,161,M,01.7,N,,*64
$IIVLW,53462,N,000.1,N*54
$IIVWR,074,R,05.0,N,,,,*67
$IIDPT,005.6,+0.7,*43
$IIGLL,4612.853,N,00610.001,E,162129,A,A*56
$IIHDG,163,,,,*53
$IIMTW,+17.0,C*3E
$IIMWV,075,R,04.9,N,A*1C
$IIMWV,095,T,04.8,N,A*15
$IIRMC,162129,A,4612.853,N,00610.001,E,02.0,161,200814,,,A*44
$IIVHW,,,163,M,01.7,N,,*66
$IIVLW,53462,N,000.1,N*54
$IIVWR,075,R,04.9,N,,,,*6E
$IIDPT,005.6,+0.7,*43
$IIGLL,4612.853,N,00610.001,E,162129,A,A*56
$IIHDG,164,,,,*54
$IIMTW,+17.0,C*3E
$IIMWV,077,R,04.8,N,A*1F
$IIMWV,097,T,04.7,N,A*18
$IIRMC,162129,A,4612.853,N,00610.001,E,02.0,161,200814,,,A*44
$IIVHW,,,164,M,01.7,N,,*61
$IIVLW,53462,N,000.1,N*54
$IIVWR,073,R,04.8,N,,,,*69
$IIDPT,005.6,+0.7,*43
$IIGLL,4612.852,N,00610.002,E,162131,A,A*5D
$IIHDG,164,,,,*54
$IIMTW,+17.0,C*3E
$IIMWV,073,R,04.8,N,A*1B
$IIMWV,099,T,04.6,N,A*17
$IIRMC,162131,A,4612.852,N,00610.002,E,02.0,162,200814,,,A*4C
$IIVHW,,,164,M,01.6,N,,*60
$IIVLW,53462,N,000.1,N*54
$IIVWR,070,R,04.6,N,,,,*64
$IIDPT,005.6,+0.7,*43
$IIGLL,4612.851,N,00610.002,E,162132,A,A*5D
$IIHDG,165,,,,*55
$IIMTW,+17.0,C*3E
$IIMWV,070,R,04.6,N,A*16
$IIMWV,095,T,04.6,N,A*1B
$IIRMC,162132,A,4612.851,N,00610.002,E,01.8,161,200814,,,A*44
$IIVHW,,,168,M,01.6,N,,*6C
$IIVLW,53462,N,000.1,N*54
$IIVWR,065,R,04.6,N,,,,*60
$IIDPT,005.6,+0.7,*43
$IIGLL,4612.851,N,00610.002,E,162133,A,A*5C
$IIHDG,168,,,,*58
$IIMTW,+17.0,C*3E
$IIMWV,065,R,04.6,N,A*12
$IIMWV,093,T,04.3,N,A*18
$IIRMC,162134,A,4612.851,N,00610.002,E,01.6,166,200814,,,A*4B
$IIVHW,,,168,M,01.6,N,,*6C
$IIVLW,53462,N,000.1,N*54
$IIVWR,058,R,04.5,N,,,,*6D
$IIDPT,005.6,+0.7,*43
$IIGLL,4612.851,N,00610.002,E,162134,A,A*5B
$IIHDG,168,,,,*58
$IIMTW,+17.0,C*3E
$IIMWV,058,R,04.5,N,A*1F
$IIMWV,080,T,03.8,N,A*16
$IIRMC,162135,A,4612.850,N,00610.002,E,01.8,164,200814,,,A*47
$IIVHW,,,166,M,01.6,N,,*62
$IIVLW,53462,N,000.1,N*54
$IIVWR,053,R,04.9,N,,,,*6A
$IIDPT,005.6,+0.7,*43
$IIGLL,4612.850,N,00610.002,E,162135,A,A*5B
$IIHDG,166,,,,*56
$IIMTW,+17.0,C*3E
$IIMWV,049,R,05.2,N,A*19
$IIMWV,072,T,04.1,N,A*15
$IIRMC,162136,A,4612.850,N,00610.002,E,01.8,166,200814,,,A*46
$IIVHW,,,167,M,01.6,N,,*63
$IIVLW,53462,N,000.1,N*54
$IIVWR,049,R,05.2,N,,,,*6B
$IIDPT,005.6,+0.7,*43
$IIGLL,4612.850,N,00610.002,E,162136,A,A*58
$IIHDG,167,,,,*57
$IIMTW,+17.0,C*3E
$IIMWV,041,R,05.3,N,A*10
$IIMWV,065,T,04.2,N,A*10
$IIRMC,162137,A,4612.849,N,00610.002,E,01.9,166,200814,,,A*4E
$IIVHW,,,167,M,01.5,N,,*60
$IIVLW,53462,N,000.1,N*54
$IIVWR,041,R,05.3,N,,,,*62
$IIDPT,005.6,+0.7,*43
$IIGLL,4612.849,N,00610.002,E,162137,A,A*51
$IIHDG,166,,,,*56
$IIMTW,+17.0,C*3E
$IIMWV,038,R,05.3,N,A*1E
$IIMWV,054,T,04.2,N,A*12
$IIRMC,162139,A,4612.848,N,00610.002,E,01.8,166,200814,,,A*40
$IIVHW,,,166,M,01.6,N,,*62
$IIVLW,53462,N,000.1,N*54
$IIVWR,038,R,05.3,N,,,,*6C
$IIDPT,005.5,+0.7,*40
$IIGLL,4612.848,N,00610.003,E,162140,A,A*51
$IIHDG,165,,,,*55
$IIMTW,+17.0,C*3E
$IIMWV,037,R,05.4,N,A*16
$IIMWV,052,T,04.0,N,A*16
$IIRMC,162140,A,4612.848,N,00610.003,E,01.9,164,200814,,,A*4C
$IIVHW,,,165,M,01.6,N,,*61
$IIVLW,53462,N,000.1,N*54
$IIVWR,037,R,05.4,N,,,,*64
$IIDPT,005.5,+0.7,*40
$IIGLL,4612.848,N,00610.003,E,162141,A,A*50
$IIHDG,167,,,,*57
$IIMTW,+17.0,C*3E
$IIMWV,037,R,05.5,N,A*17
$IIMWV,050,T,04.1,N,A*15
$IIRMC,162141,A,4612.848,N,00610.003,E,01.4,166,200814,,,A*42
$IIVHW,,,167,M,01.6,N,,*63
$IIVLW,53462,N,000.1,N*54
$IIVWR,041,R,05.7,N,,,,*66
$IIDPT,005.5,+0.7,*40
$IIGLL,4612.847,N,00610.003,E,162142,A,A*5C
$IIHDG,168,,,,*58
$IIMTW,+17.0,C*3E
$IIMWV,041,R,05.7,N,A*14
$IIMWV,050,T,04.3,N,A*17
$IIRMC,162142,A,4612.847,N,00610.003,E,02.0,164,200814,,,A*4B
$IIVHW,,,168,M,01.6,N,,*6C
$IIVLW,53462,N,000.1,N*54
$IIVWR,047,R,05.7,N,,,,*60
$IIDPT,005.5,+0.7,*40
$IIGLL,4612.846,N,00610.004,E,162143,A,A*5B
$IIHDG,169,,,,*59
$IIMTW,+17.0,C*3E
$IIMWV,047,R,05.7,N,A*12
$IIMWV,055,T,04.5,N,A*14
$IIRMC,162143,A,4612.846,N,00610.004,E,01.4,168,200814,,,A*47
$IIVHW,,,170,M,01.5,N,,*66
$IIVLW,53462,N,000.1,N*54
$IIVWR,051,R,05.8,N,,,,*68
$IIDPT,005.5,+0.7,*40
$IIGLL,4612.846,N,00610.004,E,162144,A,A*5C
$IIHDG,170,,,,*51
$IIMTW,+17.0,C*3E
$IIMWV,051,R,05.8,N,A*1A
$IIMWV,062,T,04.6,N,A*13
$IIRMC,162145,A,4612.846,N,00610.004,E,01.4,172,200814,,,A*4A
$IIVHW,,,171,M,01.5,N,,*67
$IIVLW,53462,N,000.1,N*54
$IIVWR,053,R,05.8,N,,,,*6A
$IIDPT,005.5,+0.7,*40
$IIGLL,4612.846,N,00610.004,E,162145,A,A*5D
$IIHDG,171,,,,*50
$IIMTW,+17.0,C*3E
$IIMWV,053,R,05.8,N,A*18
$IIMWV,068,T,04.9,N,A*16
$IIRMC,162146,A,4612.845,N,00610.004,E,01.6,173,200814,,,A*49
$IIVHW,,,173,M,01.5,N,,*65
$IIVLW,53462,N,000.1,N*54
$IIVWR,052,R,05.5,N,,,,*66
$IIDPT,005.5,+0.7,*40
$IIGLL,4612.845,N,00610.004,E,162146,A,A*5D
$IIHDG,173,,,,*52
$IIMTW,+17.0,C*3E
$IIMWV,055,R,05.9,N,A*1F
$IIMWV,066,T,04.7,N,A*16
$IIRMC,162147,A,4612.845,N,00610.004,E,01.8,175,200814,,,A*40
$IIVHW,,,175,M,01.5,N,,*63
$IIVLW,53462,N,000.1,N*54
$IIVWR,055,R,05.9,N,,,,*6D
$IIDPT,005.5,+0.7,*40
$IIGLL,4612.845,N,00610.004,E,162147,A,A*5C
$IIHDG,175,,,,*54
$IIMTW,+17.0,C*3E
$IIMWV,057,R,05.9,N,A*1D
$IIMWV,069,T,05.1,N,A*1E
$IIRMC,162148,A,4612.845,N,00610.004,E,01.7,175,200814,,,A*40
$IIVHW,,,175,M,01.5,N,,*63
$IIVLW,53462,N,000.1,N*54
$IIVWR,057,R,05.9,N,,,,*6F
$IIDPT,005.5,+0.7,*40
$IIGLL,4612.845,N,00610.004,E,162148,A,A*53
$IIHDG,177,,,,*56
$IIMTW,+17.0,C*3E
$IIMWV,052,R,05.9,N,A*18
$IIMWV,072,T,05.1,N,A*14
$IIRMC,162149,A,4612.844,N,00610.004,E,01.8,177,200814,,,A*4D
$IIVHW,,,177,M,01.5,N,,*61
$IIVLW,53462,N,000.1,N*54
$IIVWR,052,R,05.9,N,,,,*6A
$IIDPT,005.5,+0.7,*40
$IIGLL,4612.844,N,00610.005,E,162150,A,A*5A
$IIHDG,176,,,,*57
$IIMTW,+17.0,C*3E
$IIMWV,054,R,05.9,N,A*1E
$IIMWV,065,T,05.0,N,A*13
$IIRMC,162150,A,4612.844,N,00610.005,E,01.8,176,200814,,,A*45
$IIVHW,,,176,M,01.5,N,,*60
$IIVLW,53462,N,000.1,N*54
$IIVWR,054,R,05.9,N,,,,*6C
$IIDPT,005.5,+0.7,*40
$IIGLL,4612.843,N,00610.005,E,162151,A,A*5C
$IIHDG,176,,,,*57
$IIMTW,+17.0,C*3E
$IIMWV,057,R,06.2,N,A*15
$IIMWV,068,T,05.0,N,A*1E
$IIRMC,162151,A,4612.843,N,00610.005,E,01.4,177,200814,,,A*4E
$IIVHW,,,176,M,01.6,N,,*63
$IIVLW,53462,N,000.1,N*54
$IIVWR,057,R,06.2,N,,,,*67
$IIDPT,005.5,+0.7,*40
$IIGLL,4612.843,N,00610.005,E,162152,A,A*5F
$IIHDG,175,,,,*54
$IIMTW,+17.0,C*3E
$IIMWV,057,R,06.2,N,A*15
$IIMWV,072,T,05.4,N,A*11
$IIRMC,162152,A,4612.843,N,00610.005,E,01.7,176,200814,,,A*4F
$IIVHW,,,175,M,01.6,N,,*60
$IIVLW,53462,N,000.1,N*54
$IIVWR,058,R,06.5,N,,,,*6F
$IIDPT,005.5,+0.7,*40
$IIGLL,4612.842,N,00610.005,E,162153,A,A*5F
$IIHDG,175,,,,*54
$IIMTW,+17.0,C*3E
$IIMWV,058,R,06.5,N,A*1D
$IIMWV,072,T,05.4,N,A*11
$IIRMC,162153,A,4612.842,N,00610.005,E,01.7,177,200814,,,A*4E
$IIVHW,,,175,M,01.6,N,,*60
$IIVLW,53462,N,000.1,N*54
$IIVWR,060,R,06.6,N,,,,*67
$IIDPT,005.5,+0.7,*40
$IIGLL,4612.842,N,00610.005,E,162154,A,A*58
$IIHDG,175,,,,*54
$IIMTW,+17.0,C*3E
$IIMWV,060,R,06.6,N,A*15
$IIMWV,072,T,05.7,N,A*12
$IIRMC,162155,A,4612.841,N,00610.006,E,01.5,173,200814,,,A*4E
$IIVHW,,,174,M,01.6,N,,*61
$IIVLW,53462,N,000.1,N*54
$IIVWR,060,R,06.5,N,,,,*64
$IIDPT,005.5,+0.7,*40
$IIGLL,4612.841,N,00610.006,E,162155,A,A*59
$IIHDG,174,,,,*55
$IIMTW,+17.0,C*3E
$IIMWV,060,R,06.5,N,A*16
$IIMWV,074,T,05.8,N,A*1B
$IIRMC,162156,A,4612.841,N,00610.006,E,01.5,170,200814,,,A*4E
$IIVHW,,,174,M,01.6,N,,*61
$IIVLW,53462,N,000.1,N*54
$IIVWR,060,R,06.3,N,,,,*62
$IIDPT,005.5,+0.7,*40
$IIGLL,4612.841,N,00610.006,E,162156,A,A*5A
$IIHDG,174,,,,*55
$IIMTW,+17.0,C*3E
$IIMWV,060,R,06.2,N,A*11
$IIMWV,075,T,05.6,N,A*14
$IIRMC,162157,A,4612.841,N,00610.006,E,01.5,171,200814,,,A*4E
$IIVHW,,,174,M,01.6,N,,*61
$IIVLW,53462,N,000.1,N*54
$IIVWR,060,R,06.2,N,,,,*63
$IIDPT,005.5,+0.7,*40
$IIGLL,4612.841,N,00610.006,E,162157,A,A*5B
$IIHDG,174,,,,*55
$IIMTW,+17.0,C*3E
$IIMWV,060,R,06.2,N,A*11
$IIMWV,074,T,05.5,N,A*16
$IIRMC,162158,A,4612.840,N,00610.006,E,01.8,173,200814,,,A*4F
$IIVHW,,,174,M,01.6,N,,*61
$IIVLW,53462,N,000.1,N*54
$IIVWR,060,R,06.2,N,,,,*63
$IIDPT,005.5,+0.7,*40
$IIGLL,4612.840,N,00610.006,E,162158,A,A*55
$IIHDG,174,,,,*55
$IIMTW,+17.0,C*3E
$IIMWV,062,R,06.1,N,A*10
$IIMWV,076,T,05.4,N,A*15
$IIRMC,162200,A,4612.839,N,00610.007,E,01.7,174,200814,,,A*46
$IIVHW,,,174,M,01.6,N,,*61
$IIVLW,53462,N,000.1,N*54
$IIVWR,062,R,06.1,N,,,,*62
$IIDPT,005.5,+0.7,*40
$IIGLL,4612.839,N,00610.007,E,162201,A,A*55
$IIHDG,174,,,,*55
$IIMTW,+17.0,C*3E
$IIMWV,061,R,06.1,N,A*13
$IIMWV,077,T,05.4,N,A*14
$IIRMC,162201,A,4612.839,N,00610.007,E,01.7,175,200814,,,A*46
$IIVHW,,,174,M,01.6,N,,*61
$IIVLW,53462,N,000.1,N*54
$IIVWR,061,R,06.1,N,,,,*61
$IIDPT,005.3,+0.7,*46
$IIGLL,4612.839,N,00610.007,E,162201,A,A*55
$IIHDG,175,,,,*54
$IIMTW,+17.0,C*3E
$IIMWV,061,R,06.1,N,A*13
$IIMWV,076,T,05.4,N,A*15
$IIRMC,162201,A,4612.839,N,00610.007,E,01.7,175,200814,,,A*46
$IIVHW,,,175,M,01.5,N,,*63
$IIVLW,53462,N,000.1,N*54
$IIVWR,061,R,05.9,N,,,,*6A
$IIDPT,005.3,+0.7,*46
$IIGLL,4612.838,N,00610.007,E,162203,A,A*56
$IIHDG,175,,,,*54
$IIMTW,+17.0,C*3E
$IIMWV,061,R,05.9,N,A*18
$IIMWV,076,T,05.4,N,A*15
$IIRMC,162203,A,4612.838,N,00610.007,E,01.6,174,200814,,,A*45
$IIVHW,,,175,M,01.6,N,,*60
$IIVLW,53462,N,000.1,N*54
$IIVWR,062,R,05.9,N,,,,*69
$IIDPT,005.3,+0.7,*46
$IIGLL,4612.838,N,00610.008,E,162204,A,A*5E
$IIHDG,175,,,,*54
$IIMTW,+17.0,C*3E
$IIMWV,062,R,05.9,N,A*1B
$IIMWV,077,T,05.2,N,A*12
$IIRMC,162204,A,4612.838,N,00610.008,E,01.8,175,200814,,,A*42
$IIVHW,,,175,M,01.6,N,,*60
$IIVLW,53462,N,000.1,N*54
$IIVWR,064,R,06.2,N,,,,*67
$IIDPT,005.3,+0.7,*46
$IIGLL,4612.837,N,00610.007,E,162205,A,A*5F
$IIHDG,175,,,,*54
$IIMTW,+17.0,C*3E
$IIMWV,064,R,06.2,N,A*15
$IIMWV,078,T,05.2,N,A*1D
