$IIMWV,004,R,04.6,N,A*15
$IIRMC,160856,A,4612.909,N,00610.158,E,03.7,003,220814,,,A*45
$IIVHW,,,244,M,,,,*36
$IIVWR,004,R,04.6,N,,,,*67
$IIGLL,4612.909,N,00610.158,E,160856,A,A*56
$IIHDG,244,,,,*55
$IIMWV,315,R,09.7,N,A*1A
$IIMWV,018,T,00.9,N,A*15
$IIRMC,160857,A,4612.910,N,00610.158,E,03.3,009,220814,,,A*42
$IIVHW,,,354,M,00.0,N,,*66
$IIVLW,53474,N,000.0,N*52
$IIVWR,045,L,09.7,N,,,,*70
$IIGLL,4612.910,N,00610.158,E,160857,A,A*5F
$IIHDG,354,,,,*55
$IIMTW,+00.0,C*38
$IIMWV,306,R,11.7,N,A*11
$IIMWV,315,T,09.7,N,A*1C
$IIRMC,160858,A,4612.911,N,00610.159,E,03.3,012,220814,,,A*47
$IIVHW,,,002,M,01.5,N,,*62
$IIVLW,53474,N,000.0,N*52
$IIVWR,054,L,11.7,N,,,,*79
$IIGLL,4612.911,N,00610.159,E,160858,A,A*50
$IIHDG,002,,,,*55
$IIMTW,+17.5,C*3B
$IIMWV,274,R,12.2,N,A*13
$IIMWV,300,T,10.7,N,A*10
$IIRMC,160859,A,4612.912,N,00610.159,E,03.3,005,220814,,,A*43
$IIVHW,,,006,M,02.2,N,,*62
$IIVLW,53474,N,000.0,N*52
$IIVWR,086,L,12.2,N,,,,*70
$IIGLL,4612.912,N,00610.159,E,160859,A,A*52
$IIHDG,006,,,,*51
$IIMTW,+17.5,C*3B
$IIMWV,266,R,11.9,N,A*18
$IIMWV,263,T,12.2,N,A*13
$IIRMC,160900,A,4612.913,N,00610.159,E,03.1,003,220814,,,A*4B
$IIVHW,,,008,M,02.8,N,,*66
$IIVLW,53474,N,000.0,N*52
$IIVWR,094,L,11.9,N,,,,*7B
$IIDPT,007.4,+0.7,*43
$IIGLL,4612.913,N,00610.159,E,160900,A,A*5E
$IIHDG,008,,,,*5F
$IIMTW,+17.5,C*3B
$IIMWV,264,R,11.4,N,A*17
$IIMWV,253,T,12.4,N,A*16
$IIRMC,160901,A,4612.914,N,00610.159,E,03.1,006,220814,,,A*48
$IIVHW,,,009,M,03.2,N,,*6C
$IIVLW,53474,N,000.0,N*52
$IIVWR,096,L,11.4,N,,,,*74
$IIDPT,007.4,+0.7,*43
$IIGLL,4612.914,N,00610.159,E,160901,A,A*58
$IIHDG,010,,,,*56
$IIMTW,+17.5,C*3B
$IIMWV,272,R,10.4,N,A*11
$IIMWV,249,T,12.0,N,A*19
$IIRMC,160902,A,4612.915,N,00610.160,E,04.0,017,220814,,,A*46
$IIVHW,,,010,M,03.4,N,,*62
$IIVLW,53474,N,000.0,N*52
$IIVWR,088,L,10.4,N,,,,*7A
$IIDPT,007.4,+0.7,*43
$IIGLL,4612.916,N,00610.160,E,160903,A,A*52
$IIHDG,011,,,,*57
$IIMTW,+17.5,C*3B
$IIMWV,283,R,10.9,N,A*12
$IIMWV,253,T,10.8,N,A*18
$IIRMC,160903,A,4612.916,N,00610.160,E,03.3,011,220814,,,A*46
$IIVHW,,,011,M,03.4,N,,*63
$IIVLW,53474,N,000.0,N*52
$IIVWR,077,L,10.9,N,,,,*77
$IIDPT,007.4,+0.7,*43
$IIGLL,4612.917,N,00610.160,E,160904,A,A*54
$IIHDG,012,,,,*54
$IIMTW,+17.5,C*3B
$IIMWV,286,R,12.2,N,A*1E
$IIMWV,264,T,10.5,N,A*11
$IIRMC,160904,A,4612.917,N,00610.160,E,03.3,013,220814,,,A*42
$IIVHW,,,012,M,03.4,N,,*60
$IIVLW,53474,N,000.0,N*52
$IIVWR,075,L,11.5,N,,,,*78
$IIDPT,007.4,+0.7,*43
$IIGLL,4612.917,N,00610.160,E,160904,A,A*54
$IIHDG,012,,,,*54
$IIMTW,+17.5,C*3B
$IIMWV,285,R,11.5,N,A*19
$IIMWV,270,T,11.7,N,A*17
$IIRMC,160904,A,4612.917,N,00610.160,E,03.3,013,220814,,,A*42
$IIVHW,,,012,M,03.3,N,,*67
$IIVLW,53474,N,000.0,N*52
$IIVWR,073,L,11.8,N,,,,*73
$IIDPT,007.4,+0.7,*43
$IIGLL,4612.919,N,00610.161,E,160906,A,A*59
$IIHDG,012,,,,*54
$IIMTW,+17.5,C*3B
$IIMWV,287,R,11.8,N,A*16
$IIMWV,268,T,11.1,N,A*18
$IIRMC,160906,A,4612.919,N,00610.161,E,03.4,017,220814,,,A*4C
$IIVHW,,,013,M,03.3,N,,*66
$IIVLW,53474,N,000.0,N*52
$IIVWR,073,L,12.2,N,,,,*7A
$IIDPT,007.4,+0.7,*43
$IIGLL,4612.919,N,00610.161,E,160907,A,A*58
$IIHDG,013,,,,*55
$IIMTW,+17.5,C*3B
$IIMWV,287,R,12.2,N,A*1F
$IIMWV,270,T,11.3,N,A*13
$IIRMC,160908,A,4612.920,N,00610.162,E,03.4,015,220814,,,A*49
$IIVHW,,,014,M,03.3,N,,*61
$IIVLW,53474,N,000.0,N*52
$IIVWR,069,L,13.0,N,,,,*72
$IIDPT,007.4,+0.7,*43
$IIGLL,4612.920,N,00610.162,E,160908,A,A*5E
$IIHDG,014,,,,*52
$IIMTW,+17.5,C*3B
$IIMWV,291,R,13.0,N,A*1B
$IIMWV,276,T,12.0,N,A*15
$IIRMC,160909,A,4612.921,N,00610.162,E,03.4,017,220814,,,A*4B
$IIVHW,,,015,M,03.3,N,,*60
$IIVLW,53474,N,000.0,N*52
$IIVWR,066,L,13.2,N,,,,*7F
$IIDPT,007.4,+0.7,*43
$IIGLL,4612.921,N,00610.162,E,160909,A,A*5E
$IIHDG,015,,,,*53
$IIMTW,+17.5,C*3B
$IIMWV,297,R,14.3,N,A*19
$IIMWV,280,T,12.1,N,A*1D
$IIRMC,160910,A,4612.922,N,00610.162,E,03.4,019,220814,,,A*4E
$IIVHW,,,015,M,03.3,N,,*60
$IIVLW,53474,N,000.0,N*52
$IIVWR,063,L,14.3,N,,,,*7C
$IIDPT,007.4,+0.7,*43
$IIGLL,4612.922,N,00610.162,E,160910,A,A*55
$IIHDG,015,,,,*53
$IIMTW,+17.5,C*3B
$IIMWV,293,R,13.2,N,A*1B
$IIMWV,282,T,11.9,N,A*14
$IIRMC,160912,A,4612.924,N,00610.163,E,03.4,020,220814,,,A*41
$IIVHW,,,016,M,03.2,N,,*62
$IIVLW,53474,N,000.0,N*52
$IIVWR,067,L,13.2,N,,,,*7E
$IIDPT,007.4,+0.7,*43
$IIGLL,4612.924,N,00610.163,E,160912,A,A*50
$IIHDG,017,,,,*51
$IIMTW,+17.5,C*3B
$IIMWV,292,R,12.6,N,A*1F
$IIMWV,279,T,12.2,N,A*18
$IIRMC,160913,A,4612.925,N,00610.164,E,03.4,017,220814,,,A*42
$IIVHW,,,017,M,03.2,N,,*63
$IIVLW,53474,N,000.0,N*52
$IIVWR,068,L,12.6,N,,,,*74
$IIDPT,007.4,+0.7,*43
$IIGLL,4612.926,N,00610.164,E,160914,A,A*53
$IIHDG,017,,,,*51
$IIMTW,+17.5,C*3B
$IIMWV,289,R,12.2,N,A*11
$IIMWV,277,T,11.7,N,A*10
$IIRMC,160914,A,4612.926,N,00610.164,E,03.4,016,220814,,,A*47
$IIVHW,,,017,M,03.2,N,,*63
$IIVLW,53474,N,000.0,N*52
$IIVWR,071,L,12.2,N,,,,*78
$IIDPT,007.4,+0.7,*43
$IIGLL,4612.927,N,00610.165,E,160915,A,A*52
$IIHDG,016,,,,*50
$IIMTW,+17.5,C*3B
$IIMWV,295,R,11.7,N,A*1A
$IIMWV,274,T,11.5,N,A*11
$IIRMC,160915,A,4612.927,N,00610.165,E,03.4,018,220814,,,A*48
$IIVHW,,,016,M,03.2,N,,*62
$IIVLW,53474,N,000.0,N*52
$IIVWR,065,L,10.4,N,,,,*79
$IIDPT,007.4,+0.7,*43
$IIGLL,4612.927,N,00610.165,E,160916,A,A*51
$IIHDG,017,,,,*51
$IIMTW,+17.5,C*3B
$IIMWV,295,R,10.4,N,A*18
$IIMWV,279,T,10.7,N,A*1F
$IIRMC,160916,A,4612.927,N,00610.165,E,03.4,017,220814,,,A*44
$IIVHW,,,017,M,03.2,N,,*63
$IIVLW,53474,N,000.0,N*52
$IIVWR,070,L,10.7,N,,,,*7E
$IIDPT,007.4,+0.7,*43
$IIGLL,4612.928,N,00610.166,E,160917,A,A*5C
$IIHDG,017,,,,*51
$IIMTW,+17.5,C*3B
$IIMWV,290,R,10.7,N,A*1E
$IIMWV,277,T,09.4,N,A*1A
$IIRMC,160917,A,4612.928,N,00610.166,E,03.5,020,220814,,,A*4C
$IIVHW,,,017,M,03.2,N,,*63
$IIVLW,53474,N,000.0,N*52
$IIVWR,077,L,11.7,N,,,,*78
$IIDPT,007.4,+0.7,*43
$IIGLL,4612.929,N,00610.166,E,160918,A,A*52
$IIHDG,017,,,,*51
$IIMTW,+17.5,C*3B
$IIMWV,283,R,11.7,N,A*1D
$IIMWV,272,T,10.0,N,A*13
$IIRMC,160918,A,4612.929,N,00610.166,E,03.1,020,220814,,,A*46
$IIVHW,,,018,M,03.1,N,,*6F
$IIVLW,53474,N,000.0,N*52
$IIVWR,081,L,11.4,N,,,,*72
$IIDPT,007.4,+0.7,*43
$IIGLL,4612.929,N,00610.166,E,160918,A,A*52
$IIHDG,018,,,,*5E
$IIMTW,+17.5,C*3B
$IIMWV,279,R,11.4,N,A*1B
$IIMWV,263,T,11.2,N,A*10
$IIRMC,160920,A,4612.931,N,00610.168,E,03.2,020,220814,,,A*49
$IIVHW,,,018,M,03.1,N,,*6F
$IIVLW,53474,N,000.0,N*52
$IIVWR,083,L,11.3,N,,,,*77
$IIDPT,007.4,+0.7,*43
$IIGLL,4612.931,N,00610.168,E,160920,A,A*5E
$IIHDG,018,,,,*5E
$IIMTW,+17.5,C*3B
$IIMWV,275,R,11.1,N,A*12
$IIMWV,260,T,11.2,N,A*13
$IIRMC,160921,A,4612.932,N,00610.168,E,03.2,022,220814,,,A*49
$IIVHW,,,018,M,03.1,N,,*6F
$IIVLW,53474,N,000.0,N*52
$IIVWR,085,L,11.1,N,,,,*73
$IIDPT,007.4,+0.7,*43
$IIGLL,4612.932,N,00610.168,E,160921,A,A*5C
$IIHDG,018,,,,*5E
$IIMTW,+17.5,C*3B
$IIMWV,269,R,11.1,N,A*1F
$IIMWV,258,T,11.3,N,A*19
$IIRMC,160922,A,4612.933,N,00610.169,E,03.6,020,220814,,,A*4C
$IIVHW,,,018,M,03.1,N,,*6F
$IIVLW,53474,N,000.0,N*52
$IIVWR,091,L,11.1,N,,,,*76
$IIDPT,007.3,+0.7,*44
$IIGLL,4612.933,N,00610.169,E,160922,A,A*5F
$IIHDG,017,,,,*51
$IIMTW,+17.5,C*3B
$IIMWV,265,R,11.7,N,A*15
$IIMWV,253,T,11.6,N,A*17
$IIRMC,160923,A,4612.934,N,00610.169,E,03.4,020,220814,,,A*48
$IIVHW,,,017,M,03.2,N,,*63
$IIVLW,53474,N,000.0,N*52
$IIVWR,095,L,11.7,N,,,,*74
$IIDPT,007.3,+0.7,*44
$IIGLL,4612.934,N,00610.170,E,160924,A,A*56
$IIHDG,017,,,,*51
$IIMTW,+17.5,C*3B
$IIMWV,264,R,11.4,N,A*17
$IIMWV,250,T,12.4,N,A*15
$IIRMC,160924,A,4612.934,N,00610.170,E,03.3,017,220814,,,A*44
$IIVHW,,,017,M,03.2,N,,*63
$IIVLW,53474,N,000.0,N*52
$IIVWR,096,L,11.4,N,,,,*74
$IIDPT,007.3,+0.7,*44
$IIGLL,4612.935,N,00610.170,E,160925,A,A*56
$IIHDG,016,,,,*50
$IIMTW,+17.5,C*3B
$IIMWV,262,R,11.8,N,A*1D
$IIMWV,249,T,11.9,N,A*13
$IIRMC,160925,A,4612.935,N,00610.170,E,03.6,019,220814,,,A*4F
$IIVHW,,,016,M,03.2,N,,*62
$IIVLW,53474,N,000.0,N*52
$IIVWR,107,L,11.9,N,,,,*70
$IIDPT,007.3,+0.7,*44
$IIGLL,4612.936,N,00610.170,E,160926,A,A*56
$IIHDG,015,,,,*53
$IIMTW,+17.5,C*3B
$IIMWV,253,R,11.9,N,A*1E
$IIMWV,247,T,12.5,N,A*12
$IIRMC,160926,A,4612.936,N,00610.170,E,03.2,018,220814,,,A*4A
$IIVHW,,,015,M,03.2,N,,*61
$IIVLW,53474,N,000.0,N*52
$IIVWR,109,L,12.0,N,,,,*74
$IIDPT,007.4,+0.7,*43
$IIGLL,4612.937,N,00610.171,E,160927,A,A*57
$IIHDG,015,,,,*53
$IIMTW,+17.5,C*3B
$IIMWV,251,R,12.0,N,A*16
$IIMWV,240,T,13.1,N,A*10
$IIRMC,160927,A,4612.937,N,00610.171,E,03.3,025,220814,,,A*44
$IIVHW,,,015,M,03.2,N,,*61
$IIVLW,53474,N,000.0,N*52
$IIVWR,108,L,12.2,N,,,,*77
$IIDPT,007.5,+0.7,*42
$IIGLL,4612.938,N,00610.171,E,160928,A,A*57
$IIHDG,015,,,,*53
$IIMTW,+17.5,C*3B
$IIMWV,252,R,12.2,N,A*17
$IIMWV,238,T,13.4,N,A*1A
$IIRMC,160929,A,4612.938,N,00610.172,E,03.4,016,220814,,,A*41
$IIVHW,,,014,M,03.2,N,,*60
$IIVLW,53474,N,000.0,N*52
$IIVWR,107,L,13.0,N,,,,*7B
$IIDPT,007.5,+0.7,*42
$IIGLL,4612.938,N,00610.172,E,160929,A,A*55
$IIHDG,014,,,,*52
$IIMTW,+17.5,C*3B
$IIMWV,253,R,13.0,N,A*15
$IIMWV,240,T,14.2,N,A*14
$IIRMC,160930,A,4612.939,N,00610.172,E,03.1,006,220814,,,A*4C
$IIVHW,,,011,M,03.3,N,,*64
$IIVLW,53474,N,000.0,N*52
$IIVWR,111,L,12.7,N,,,,*7A
$IIDPT,007.5,+0.7,*42
$IIGLL,4612.939,N,00610.172,E,160930,A,A*5C
$IIHDG,011,,,,*57
$IIMTW,+17.5,C*3B
$IIMWV,257,R,12.3,N,A*13
$IIMWV,237,T,14.1,N,A*17
$IIRMC,160931,A,4612.940,N,00610.172,E,03.8,009,220814,,,A*45
$IIVHW,,,010,M,03.3,N,,*65
$IIVLW,53474,N,000.0,N*52
$IIVWR,103,L,12.3,N,,,,*7D
$IIDPT,007.5,+0.7,*42
$IIGLL,4612.940,N,00610.172,E,160931,A,A*53
$IIHDG,010,,,,*56
$IIMTW,+17.5,C*3B
$IIMWV,254,R,12.2,N,A*11
$IIMWV,243,T,13.3,N,A*11
$IIRMC,160932,A,4612.941,N,00610.172,E,03.8,014,220814,,,A*4B
$IIVHW,,,010,M,03.3,N,,*65
$IIVLW,53474,N,000.0,N*52
$IIVWR,106,L,12.2,N,,,,*79
$IIDPT,007.5,+0.7,*42
$IIGLL,4612.941,N,00610.172,E,160932,A,A*51
$IIHDG,009,,,,*5E
$IIMTW,+17.5,C*3B
$IIMWV,255,R,12.3,N,A*11
$IIMWV,240,T,13.5,N,A*14
$IIRMC,160933,A,4612.942,N,00610.173,E,03.5,015,220814,,,A*44
$IIVHW,,,009,M,03.3,N,,*6D
$IIVLW,53474,N,000.0,N*52
$IIVWR,105,L,12.3,N,,,,*7B
$IIDPT,007.5,+0.7,*42
$IIGLL,4612.943,N,00610.173,E,160934,A,A*54
$IIHDG,009,,,,*5E
$IIMTW,+17.5,C*3B
$IIMWV,256,R,13.2,N,A*12
$IIMWV,241,T,13.5,N,A*15
$IIRMC,160934,A,4612.943,N,00610.173,E,03.5,013,220814,,,A*44
$IIVHW,,,009,M,03.3,N,,*6D
$IIVLW,53474,N,000.0,N*52
$IIVWR,104,L,13.2,N,,,,*7A
$IIDPT,007.5,+0.7,*42
$IIGLL,4612.944,N,00610.173,E,160935,A,A*52
$IIHDG,010,,,,*56
$IIMTW,+17.5,C*3B
$IIMWV,255,R,13.0,N,A*13
$IIMWV,243,T,14.3,N,A*16
$IIRMC,160935,A,4612.944,N,00610.173,E,03.5,012,220814,,,A*43
$IIVHW,,,010,M,03.3,N,,*65
$IIVLW,53474,N,000.0,N*52
$IIVWR,108,L,12.7,N,,,,*72
$IIDPT,007.5,+0.7,*42
$IIGLL,4612.945,N,00610.173,E,160936,A,A*50
$IIHDG,010,,,,*56
$IIMTW,+17.5,C*3B
$IIMWV,252,R,12.7,N,A*12
$IIMWV,242,T,14.2,N,A*16
$IIRMC,160936,A,4612.945,N,00610.173,E,03.5,014,220814,,,A*47
$IIVHW,,,010,M,03.3,N,,*65
$IIVLW,53474,N,000.0,N*52
$IIVWR,109,L,12.6,N,,,,*72
$IIDPT,007.5,+0.7,*42
$IIGLL,4612.946,N,00610.174,E,160937,A,A*55
$IIHDG,011,,,,*57
$IIMTW,+17.5,C*3B
$IIMWV,251,R,12.6,N,A*10
$IIMWV,239,T,13.9,N,A*16
$IIRMC,160937,A,4612.946,N,00610.174,E,03.9,017,220814,,,A*4D
$IIVHW,,,011,M,03.3,N,,*64
$IIVLW,53474,N,000.0,N*52
$IIVWR,110,L,12.4,N,,,,*78
$IIDPT,007.5,+0.7,*42
$IIGLL,4612.947,N,00610.174,E,160938,A,A*5B
$IIHDG,011,,,,*57
$IIMTW,+17.5,C*3B
$IIMWV,250,R,12.4,N,A*13
$IIMWV,238,T,14.0,N,A*19
$IIRMC,160938,A,4612.947,N,00610.174,E,03.4,012,220814,,,A*4B
$IIVHW,,,012,M,03.3,N,,*67
$IIVLW,53474,N,000.0,N*52
$IIVWR,107,L,12.3,N,,,,*79
$IIDPT,007.5,+0.7,*42
$IIGLL,4612.947,N,00610.174,E,160938,A,A*5B
$IIHDG,012,,,,*54
$IIMTW,+17.5,C*3B
$IIMWV,253,R,12.3,N,A*17
$IIMWV,240,T,13.6,N,A*17
$IIRMC,160940,A,4612.949,N,00610.174,E,03.6,013,220814,,,A*49
$IIVHW,,,011,M,03.3,N,,*64
$IIVLW,53474,N,000.0,N*52
$IIVWR,105,L,11.9,N,,,,*72
$IIDPT,007.5,+0.7,*42
$IIGLL,4612.949,N,00610.174,E,160940,A,A*5A
$IIHDG,011,,,,*57
$IIMTW,+17.5,C*3B
$IIMWV,256,R,12.0,N,A*11
$IIMWV,241,T,13.1,N,A*11
$IIRMC,160941,A,4612.950,N,00610.175,E,03.6,014,220814,,,A*46
$IIVHW,,,011,M,03.3,N,,*64
$IIVLW,53474,N,000.0,N*52
$IIVWR,104,L,12.0,N,,,,*79
$IIDPT,007.5,+0.7,*42
$IIGLL,4612.950,N,00610.175,E,160941,A,A*52
$IIHDG,011,,,,*57
$IIMTW,+17.5,C*3B
$IIMWV,258,R,12.4,N,A*1B
$IIMWV,242,T,13.1,N,A*12
$IIRMC,160942,A,4612.951,N,00610.175,E,03.6,012,220814,,,A*42
$IIVHW,,,012,M,03.3,N,,*67
$IIVLW,53474,N,000.0,N*52
$IIVWR,102,L,12.4,N,,,,*7B
$IIDPT,007.5,+0.7,*42
$IIGLL,4612.951,N,00610.175,E,160942,A,A*50
$IIHDG,012,,,,*54
$IIMTW,+17.5,C*3B
$IIMWV,262,R,13.9,N,A*1E
$IIMWV,244,T,13.4,N,A*11
$IIRMC,160943,A,4612.952,N,00610.175,E,03.7,014,220814,,,A*47
$IIVHW,,,012,M,03.3,N,,*67
$IIVLW,53474,N,000.0,N*52
$IIVWR,098,L,13.9,N,,,,*75
$IIDPT,007.6,+0.7,*41
$IIGLL,4612.952,N,00610.175,E,160943,A,A*52
$IIHDG,012,,,,*54
$IIMTW,+17.5,C*3B
$IIMWV,267,R,14.6,N,A*13
$IIMWV,249,T,14.6,N,A*19
$IIRMC,160943,A,4612.952,N,00610.175,E,03.7,014,220814,,,A*47
$IIVHW,,,012,M,03.4,N,,*60
$IIVLW,53474,N,000.0,N*52
$IIVWR,093,L,14.6,N,,,,*76
$IIDPT,007.6,+0.7,*41
$IIGLL,4612.954,N,00610.176,E,160945,A,A*51
$IIHDG,012,,,,*54
$IIMTW,+17.5,C*3B
$IIMWV,266,R,14.3,N,A*17
$IIMWV,254,T,15.1,N,A*13
$IIRMC,160945,A,4612.954,N,00610.176,E,03.6,013,220814,,,A*42
$IIVHW,,,012,M,03.3,N,,*67
$IIVLW,53474,N,000.1,N*53
$IIVWR,092,L,14.3,N,,,,*72
$IIDPT,007.7,+0.7,*40
$IIGLL,4612.955,N,00610.176,E,160946,A,A*53
$IIHDG,012,,,,*54
$IIMTW,+17.5,C*3B
$IIMWV,268,R,14.3,N,A*19
$IIMWV,253,T,14.9,N,A*1D
$IIRMC,160946,A,4612.955,N,00610.176,E,03.6,014,220814,,,A*47
$IIVHW,,,012,M,03.4,N,,*60
$IIVLW,53474,N,000.1,N*53
$IIVWR,093,L,14.4,N,,,,*74
$IIDPT,007.7,+0.7,*40
$IIGLL,4612.956,N,00610.176,E,160947,A,A*51
$IIHDG,013,,,,*55
$IIMTW,+17.5,C*3B
$IIMWV,267,R,14.4,N,A*11
$IIMWV,255,T,14.7,N,A*15
$IIRMC,160947,A,4612.956,N,00610.176,E,03.4,013,220814,,,A*40
$IIVHW,,,013,M,03.3,N,,*66
$IIVLW,53474,N,000.1,N*53
$IIVWR,095,L,14.5,N,,,,*73
$IIDPT,007.7,+0.7,*40
$IIGLL,4612.957,N,00610.176,E,160948,A,A*5F
$IIHDG,013,,,,*55
$IIMTW,+17.5,C*3B
$IIMWV,265,R,14.5,N,A*12
$IIMWV,254,T,14.9,N,A*1A
$IIRMC,160949,A,4612.958,N,00610.177,E,03.5,011,220814,,,A*42
$IIVHW,,,013,M,03.3,N,,*66
$IIVLW,53474,N,000.1,N*53
$IIVWR,095,L,15.4,N,,,,*73
$IIDPT,007.7,+0.7,*40
$IIGLL,4612.958,N,00610.177,E,160949,A,A*50
$IIHDG,013,,,,*55
$IIMTW,+17.5,C*3B
$IIMWV,265,R,15.4,N,A*12
$IIMWV,253,T,16.0,N,A*16
$IIRMC,160950,A,4612.959,N,00610.177,E,03.1,020,220814,,,A*4D
$IIVHW,,,015,M,03.3,N,,*60
$IIVLW,53474,N,000.1,N*53
$IIVWR,097,L,15.7,N,,,,*72
$IIDPT,007.7,+0.7,*40
$IIGLL,4612.959,N,00610.177,E,160950,A,A*59
$IIHDG,015,,,,*53
$IIMTW,+17.5,C*3B
$IIMWV,262,R,15.7,N,A*16
$IIMWV,252,T,16.3,N,A*14
$IIRMC,160950,A,4612.959,N,00610.177,E,03.1,020,220814,,,A*4D
$IIVHW,,,016,M,03.3,N,,*63
$IIVLW,53474,N,000.1,N*53
$IIVWR,098,L,15.7,N,,,,*7D
$IIDPT,007.7,+0.7,*40
$IIGLL,4612.959,N,00610.177,E,160950,A,A*59
$IIHDG,016,,,,*50
$IIMTW,+17.5,C*3B
$IIMWV,261,R,16.2,N,A*13
$IIMWV,251,T,16.4,N,A*10
$IIRMC,160952,A,4612.961,N,00610.178,E,03.4,018,220814,,,A*45
$IIVHW,,,016,M,03.3,N,,*63
$IIVLW,53474,N,000.1,N*53
$IIVWR,099,L,16.2,N,,,,*7A
$IIDPT,007.7,+0.7,*40
$IIGLL,4612.961,N,00610.178,E,160952,A,A*5F
$IIHDG,017,,,,*51
$IIMTW,+17.5,C*3B
$IIMWV,262,R,16.6,N,A*14
$IIMWV,250,T,17.0,N,A*14
$IIRMC,160953,A,4612.961,N,00610.179,E,03.6,020,220814,,,A*4C
$IIVHW,,,017,M,03.3,N,,*62
$IIVLW,53474,N,000.1,N*53
$IIVWR,098,L,16.6,N,,,,*7F
$IIDPT,007.7,+0.7,*40
$IIGLL,4612.962,N,00610.179,E,160954,A,A*5B
$IIHDG,016,,,,*50
$IIMTW,+17.5,C*3B
$IIMWV,263,R,16.9,N,A*1A
$IIMWV,251,T,17.3,N,A*16
$IIRMC,160954,A,4612.962,N,00610.179,E,03.1,019,220814,,,A*45
$IIVHW,,,016,M,03.4,N,,*64
$IIVLW,53474,N,000.1,N*53
$IIVWR,097,L,16.9,N,,,,*7F
$IIDPT,007.7,+0.7,*40
$IIGLL,4612.963,N,00610.180,E,160955,A,A*5D
$IIHDG,014,,,,*52
$IIMTW,+17.5,C*3B
$IIMWV,266,R,16.5,N,A*13
$IIMWV,252,T,17.5,N,A*13
$IIRMC,160955,A,4612.963,N,00610.180,E,03.5,017,220814,,,A*49
$IIVHW,,,014,M,03.4,N,,*66
$IIVLW,53474,N,000.1,N*53
$IIVWR,089,L,16.6,N,,,,*7F
$IIDPT,007.7,+0.7,*40
$IIGLL,4612.964,N,00610.180,E,160956,A,A*59
$IIHDG,012,,,,*54
$IIMTW,+17.5,C*3B
$IIMWV,271,R,16.6,N,A*16
$IIMWV,255,T,17.1,N,A*10
$IIRMC,160956,A,4612.964,N,00610.180,E,03.2,358,220814,,,A*42
$IIVHW,,,012,M,03.4,N,,*60
$IIVLW,53474,N,000.1,N*53
$IIVWR,086,L,16.2,N,,,,*74
$IIDPT,007.7,+0.7,*40
$IIGLL,4612.965,N,00610.180,E,160957,A,A*59
$IIHDG,007,,,,*50
$IIMTW,+17.5,C*3B
$IIMWV,274,R,16.2,N,A*17
$IIMWV,259,T,16.8,N,A*14
$IIRMC,160957,A,4612.965,N,00610.180,E,04.1,351,220814,,,A*4F
$IIVHW,,,004,M,03.5,N,,*66
$IIVLW,53474,N,000.1,N*53
$IIVWR,081,L,16.1,N,,,,*70
$IIDPT,007.7,+0.7,*40
$IIGLL,4612.966,N,00610.179,E,160958,A,A*53
$IIHDG,004,,,,*53
$IIMTW,+17.5,C*3B
$IIMWV,279,R,16.1,N,A*19
$IIMWV,261,T,16.3,N,A*14
$IIRMC,160959,A,4612.967,N,00610.179,E,03.5,358,220814,,,A*4F
$IIVHW,,,359,M,03.6,N,,*6E
$IIVLW,53474,N,000.1,N*53
$IIVWR,080,L,15.3,N,,,,*70
$IIDPT,007.7,+0.7,*40
$IIGLL,4612.967,N,00610.179,E,160959,A,A*53
$IIHDG,359,,,,*58
$IIMTW,+17.5,C*3B
$IIMWV,280,R,15.3,N,A*1E
$IIMWV,266,T,14.9,N,A*1B
$IIRMC,161000,A,4612.968,N,00610.179,E,03.7,347,220814,,,A*48
$IIVHW,,,355,M,03.6,N,,*62
$IIVLW,53474,N,000.1,N*53
$IIVWR,077,L,15.6,N,,,,*7D
$IIDPT,007.7,+0.7,*40
$IIGLL,4612.968,N,00610.179,E,161000,A,A*58
$IIHDG,355,,,,*54
$IIMTW,+17.5,C*3B
$IIMWV,286,R,15.7,N,A*1C
$IIMWV,269,T,15.1,N,A*1D
$IIRMC,161001,A,4612.969,N,00610.179,E,03.1,355,220814,,,A*4D
$IIVHW,,,351,M,03.5,N,,*65
$IIVLW,53474,N,000.1,N*53
$IIVWR,074,L,15.7,N,,,,*7F
$IIDPT,007.7,+0.7,*40
$IIGLL,4612.969,N,00610.179,E,161001,A,A*58
$IIHDG,351,,,,*50
$IIMTW,+17.5,C*3B
$IIMWV,289,R,17.0,N,A*16
$IIMWV,273,T,15.0,N,A*17
$IIRMC,161002,A,4612.970,N,00610.179,E,03.1,354,220814,,,A*47
$IIVHW,,,346,M,03.4,N,,*62
$IIVLW,53474,N,000.1,N*53
$IIVWR,071,L,17.0,N,,,,*7F
$IIDPT,007.7,+0.7,*40
$IIGLL,4612.970,N,00610.179,E,161002,A,A*53
$IIHDG,343,,,,*53
$IIMTW,+17.5,C*3B
$IIMWV,293,R,17.0,N,A*1D
$IIMWV,278,T,16.2,N,A*1D
$IIRMC,161003,A,4612.971,N,00610.179,E,03.1,348,220814,,,A*4A
$IIVHW,,,343,M,03.4,N,,*67
$IIVLW,53474,N,000.1,N*53
$IIVWR,067,L,17.0,N,,,,*78
$IIDPT,007.7,+0.7,*40
$IIGLL,4612.972,N,00610.179,E,161004,A,A*57
$IIHDG,337,,,,*50
$IIMTW,+17.5,C*3B
$IIMWV,293,R,18.0,N,A*12
$IIMWV,282,T,15.9,N,A*10
$IIRMC,161004,A,4612.972,N,00610.179,E,03.2,337,220814,,,A*45
$IIVHW,,,337,M,03.3,N,,*63
$IIVLW,53474,N,000.1,N*53
$IIVWR,067,L,18.0,N,,,,*77
$IIDPT,007.8,+0.7,*4F
$IIGLL,4612.972,N,00610.178,E,161005,A,A*57
$IIHDG,330,,,,*57
$IIMTW,+17.5,C*3B
$IIMWV,296,R,18.7,N,A*10
$IIMWV,282,T,16.8,N,A*12
$IIRMC,161005,A,4612.972,N,00610.178,E,03.0,312,220814,,,A*40
$IIVHW,,,330,M,03.3,N,,*64
$IIVLW,53474,N,000.1,N*53
$IIVWR,061,L,19.1,N,,,,*71
$IIDPT,007.8,+0.7,*4F
$IIGLL,4612.973,N,00610.177,E,161006,A,A*5A
$IIHDG,326,,,,*50
$IIMTW,+17.5,C*3B
$IIMWV,299,R,19.1,N,A*18
$IIMWV,286,T,17.5,N,A*1A
$IIRMC,161006,A,4612.973,N,00610.177,E,02.1,315,220814,,,A*4A
$IIVHW,,,326,M,03.3,N,,*63
$IIVLW,53474,N,000.1,N*53
$IIVWR,057,L,19.2,N,,,,*77
$IIDPT,007.9,+0.7,*4E
$IIGLL,4612.973,N,00610.177,E,161007,A,A*5B
$IIHDG,322,,,,*54
$IIMTW,+17.5,C*3B
$IIMWV,303,R,19.2,N,A*19
$IIMWV,289,T,17.5,N,A*15
$IIRMC,161007,A,4612.973,N,00610.177,E,03.6,333,220814,,,A*49
$IIVHW,,,317,M,03.2,N,,*60
$IIVLW,53474,N,000.1,N*53
$IIVWR,052,L,19.2,N,,,,*72
$IIDPT,007.9,+0.7,*4E
$IIGLL,4612.974,N,00610.176,E,161008,A,A*52
$IIHDG,317,,,,*52
$IIMTW,+17.5,C*3B
$IIMWV,308,R,19.2,N,A*12
$IIMWV,293,T,17.5,N,A*1E
$IIRMC,161009,A,4612.974,N,00610.175,E,02.7,319,220814,,,A*4A
$IIVHW,,,312,M,03.1,N,,*66
$IIVLW,53474,N,000.1,N*53
$IIVWR,048,L,19.3,N,,,,*78
$IIDPT,007.9,+0.7,*4E
$IIGLL,4612.974,N,00610.175,E,161009,A,A*50
$IIHDG,312,,,,*57
$IIMTW,+17.5,C*3B
$IIMWV,312,R,19.3,N,A*18
$IIMWV,304,T,17.1,N,A*15
$IIRMC,161009,A,4612.974,N,00610.175,E,02.7,319,220814,,,A*4A
$IIVHW,,,308,M,03.0,N,,*6C
$IIVLW,53474,N,000.1,N*53
$IIVWR,043,L,18.2,N,,,,*73
$IIDPT,007.9,+0.7,*4E
$IIGLL,4612.974,N,00610.175,E,161009,A,A*50
$IIHDG,308,,,,*5C
$IIMTW,+17.5,C*3B
$IIMWV,319,R,18.2,N,A*13
$IIMWV,310,T,15.9,N,A*1A
$IIRMC,161011,A,4612.976,N,00610.174,E,03.2,301,220814,,,A*4D
$IIVHW,,,303,M,02.9,N,,*6F
$IIVLW,53474,N,000.1,N*53
$IIVWR,041,L,18.2,N,,,,*71
$IIDPT,007.9,+0.7,*4E
$IIGLL,4612.976,N,00610.174,E,161011,A,A*5A
$IIHDG,303,,,,*57
$IIMTW,+17.5,C*3B
$IIMWV,319,R,17.6,N,A*18
$IIMWV,312,T,16.0,N,A*12
$IIRMC,161012,A,4612.976,N,00610.173,E,02.8,304,220814,,,A*47
$IIVHW,,,300,M,02.8,N,,*6D
$IIVLW,53474,N,000.1,N*53
$IIVWR,041,L,17.6,N,,,,*7A
$IIDPT,007.9,+0.7,*4E
$IIGLL,4612.976,N,00610.173,E,161012,A,A*5E
$IIHDG,297,,,,*5B
$IIMTW,+17.5,C*3B
$IIMWV,321,R,16.7,N,A*13
$IIMWV,312,T,15.5,N,A*14
$IIRMC,161013,A,4612.976,N,00610.172,E,02.1,273,220814,,,A*4F
$IIVHW,,,297,M,02.7,N,,*6D
$IIVLW,53474,N,000.1,N*53
$IIVWR,039,L,16.7,N,,,,*75
$IIDPT,007.9,+0.7,*4E
$IIGLL,4612.976,N,00610.172,E,161014,A,A*59
$IIHDG,295,,,,*59
$IIMTW,+17.5,C*3B
$IIMWV,324,R,16.3,N,A*12
$IIMWV,315,T,14.7,N,A*10
$IIRMC,161014,A,4612.976,N,00610.172,E,02.4,301,220814,,,A*49
$IIVHW,,,295,M,02.6,N,,*6E
$IIVLW,53474,N,000.1,N*53
$IIVWR,036,L,16.3,N,,,,*7E
$IIDPT,007.9,+0.7,*4E
$IIGLL,4612.976,N,00610.171,E,161015,A,A*5B
$IIHDG,294,,,,*58
$IIMTW,+17.5,C*3B
$IIMWV,326,R,16.1,N,A*12
$IIMWV,318,T,14.2,N,A*18
$IIRMC,161015,A,4612.976,N,00610.171,E,02.6,294,220814,,,A*44
$IIVHW,,,294,M,02.6,N,,*6F
$IIVLW,53474,N,000.1,N*53
$IIVWR,034,L,16.5,N,,,,*7A
$IIDPT,007.9,+0.7,*4E
$IIGLL,4612.977,N,00610.171,E,161016,A,A*59
$IIHDG,293,,,,*5F
$IIMTW,+17.5,C*3B
$IIMWV,326,R,16.5,N,A*16
$IIMWV,320,T,13.9,N,A*1F
$IIRMC,161016,A,4612.977,N,00610.171,E,03.0,305,220814,,,A*48
$IIVHW,,,293,M,02.6,N,,*68
$IIVLW,53474,N,000.1,N*53
$IIVWR,031,L,17.2,N,,,,*79
$IIDPT,007.9,+0.7,*4E
$IIGLL,4612.978,N,00610.170,E,161017,A,A*56
$IIHDG,291,,,,*5D
$IIMTW,+17.5,C*3B
$IIMWV,329,R,17.2,N,A*1F
$IIMWV,320,T,14.3,N,A*12
$IIRMC,161017,A,4612.978,N,00610.170,E,03.0,309,220814,,,A*4B
$IIVHW,,,288,M,02.6,N,,*62
$IIVLW,53474,N,000.1,N*53
$IIVWR,028,L,17.8,N,,,,*7B
$IIDPT,007.9,+0.7,*4E
$IIGLL,4612.978,N,00610.170,E,161018,A,A*59
$IIHDG,288,,,,*55
$IIMTW,+17.5,C*3B
$IIMWV,332,R,17.8,N,A*1F
$IIMWV,324,T,15.0,N,A*14
$IIRMC,161019,A,4612.978,N,00610.168,E,02.6,287,220814,,,A*4C
$IIVHW,,,285,M,02.6,N,,*6F
$IIVLW,53474,N,000.1,N*53
$IIVWR,022,L,18.0,N,,,,*76
$IIDPT,007.9,+0.7,*4E
$IIGLL,4612.978,N,00610.168,E,161019,A,A*51
$IIHDG,285,,,,*58
$IIMTW,+17.5,C*3B
$IIMWV,338,R,18.0,N,A*12
$IIMWV,335,T,15.5,N,A*11
$IIRMC,161020,A,4612.978,N,00610.167,E,03.0,297,220814,,,A*4F
$IIVHW,,,280,M,02.6,N,,*6A
$IIVLW,53474,N,000.1,N*53
$IIVWR,017,L,17.5,N,,,,*7A
$IIDPT,007.9,+0.7,*4E
$IIGLL,4612.978,N,00610.167,E,161020,A,A*54
$IIHDG,280,,,,*5D
$IIMTW,+17.5,C*3B
$IIMWV,347,R,18.4,N,A*1E
$IIMWV,340,T,15.0,N,A*16
$IIRMC,161021,A,4612.978,N,00610.166,E,02.6,285,220814,,,A*4B
$IIVHW,,,275,M,02.5,N,,*63
$IIVLW,53474,N,000.1,N*53
$IIVWR,013,L,18.4,N,,,,*70
$IIDPT,007.9,+0.7,*4E
$IIGLL,4612.978,N,00610.166,E,161021,A,A*54
$IIHDG,275,,,,*57
$IIMTW,+17.5,C*3B
$IIMWV,350,R,18.2,N,A*1E
$IIMWV,345,T,15.7,N,A*14
$IIRMC,161022,A,4612.978,N,00610.165,E,02.3,270,220814,,,A*44
$IIVHW,,,270,M,02.4,N,,*67
$IIVLW,53474,N,000.1,N*53
$IIVWR,010,L,18.2,N,,,,*75
$IIDPT,007.9,+0.7,*4E
$IIGLL,4612.978,N,00610.165,E,161022,A,A*54
$IIHDG,264,,,,*57
$IIMTW,+17.5,C*3B
$IIMWV,357,R,18.7,N,A*1C
$IIMWV,349,T,15.5,N,A*1A
$IIRMC,161023,A,4612.978,N,00610.164,E,02.7,250,220814,,,A*42
$IIVHW,,,264,M,02.4,N,,*62
$IIVLW,53474,N,000.1,N*53
$IIVWR,003,L,18.7,N,,,,*72
$IIDPT,007.9,+0.7,*4E
$IIGLL,4612.978,N,00610.163,E,161024,A,A*54
$IIHDG,260,,,,*53
$IIMTW,+17.5,C*3B
$IIMWV,000,R,19.2,N,A*19
$IIMWV,357,T,16.3,N,A*10
$IIRMC,161024,A,4612.978,N,00610.163,E,02.0,252,220814,,,A*47
$IIVHW,,,260,M,02.3,N,,*61
$IIVLW,53474,N,000.1,N*53
$IIVWR,000,R,19.2,N,,,,*6B
$IIDPT,007.9,+0.7,*4E
$IIGLL,4612.978,N,00610.162,E,161025,A,A*54
$IIHDG,258,,,,*58
$IIMTW,+17.5,C*3B
$IIMWV,003,R,19.2,N,A*1A
$IIMWV,000,T,16.9,N,A*1B
$IIRMC,161025,A,4612.978,N,00610.162,E,02.5,257,220814,,,A*47
$IIVHW,,,258,M,02.2,N,,*6B
$IIVLW,53474,N,000.1,N*53
$IIVWR,002,R,18.8,N,,,,*62
$IIDPT,007.9,+0.7,*4E
$IIGLL,4612.977,N,00610.161,E,161026,A,A*5B
$IIHDG,256,,,,*56
$IIMTW,+17.5,C*3B
$IIMWV,002,R,18.8,N,A*10
$IIMWV,003,T,17.0,N,A*10
$IIRMC,161026,A,4612.977,N,00610.161,E,02.5,244,220814,,,A*4A
$IIVHW,,,256,M,02.1,N,,*66
$IIVLW,53474,N,000.1,N*53
$IIVWR,001,R,18.5,N,,,,*6C
$IIDPT,008.0,+0.7,*48
$IIGLL,4612.977,N,00610.160,E,161027,A,A*5B
$IIHDG,254,,,,*54
$IIMTW,+17.5,C*3B
$IIMWV,001,R,18.5,N,A*1E
$IIMWV,002,T,16.6,N,A*16
$IIRMC,161027,A,4612.977,N,00610.160,E,02.9,232,220814,,,A*47
$IIVHW,,,253,M,02.0,N,,*62
$IIVLW,53474,N,000.1,N*53
$IIVWR,003,R,19.2,N,,,,*68
$IIDPT,008.0,+0.7,*48
$IIGLL,4612.977,N,00610.159,E,161028,A,A*5E
$IIHDG,253,,,,*53
$IIMTW,+17.5,C*3B
$IIMWV,003,R,19.2,N,A*1A
$IIMWV,001,T,16.4,N,A*17
$IIRMC,161029,A,4612.976,N,00610.158,E,02.0,256,220814,,,A*48
$IIVHW,,,253,M,02.0,N,,*62
$IIVLW,53474,N,000.1,N*53
$IIVWR,006,R,18.7,N,,,,*69
$IIDPT,008.0,+0.7,*48
$IIGLL,4612.976,N,00610.158,E,161029,A,A*5F
$IIHDG,253,,,,*53
$IIMTW,+17.5,C*3B
$IIMWV,006,R,18.7,N,A*1B
$IIMWV,006,T,16.5,N,A*11
$IIRMC,161030,A,4612.976,N,00610.157,E,02.0,250,220814,,,A*49
$IIVHW,,,252,M,02.0,N,,*63
$IIVLW,53474,N,000.1,N*53
$IIVWR,006,R,18.7,N,,,,*69
$IIDPT,008.0,+0.7,*48
$IIGLL,4612.976,N,00610.157,E,161030,A,A*58
$IIHDG,252,,,,*52
$IIMTW,+17.5,C*3B
$IIMWV,006,R,18.2,N,A*1E
$IIMWV,006,T,16.5,N,A*11
$IIRMC,161031,A,4612.976,N,00610.156,E,02.5,257,220814,,,A*4B
$IIVHW,,,252,M,01.9,N,,*69
$IIVLW,53474,N,000.1,N*53
$IIVWR,006,R,18.2,N,,,,*6C
$IIDPT,008.0,+0.7,*48
$IIGLL,4612.976,N,00610.156,E,161031,A,A*58
$IIHDG,252,,,,*52
$IIMTW,+17.5,C*3B
$IIMWV,004,R,17.1,N,A*10
$IIMWV,006,T,16.1,N,A*15
$IIRMC,161032,A,4612.976,N,00610.155,E,02.2,249,220814,,,A*43
$IIVHW,,,253,M,01.9,N,,*68
$IIVLW,53474,N,000.1,N*53
$IIVWR,004,R,17.1,N,,,,*62
$IIDPT,008.0,+0.7,*48
$IIGLL,4612.976,N,00610.155,E,161032,A,A*58
$IIHDG,252,,,,*52
$IIMTW,+17.5,C*3B
$IIMWV,002,R,17.6,N,A*11
$IIMWV,004,T,15.2,N,A*17
$IIRMC,161033,A,4612.975,N,00610.155,E,02.5,251,220814,,,A*4F
$IIVHW,,,252,M,01.9,N,,*69
$IIVLW,53474,N,000.1,N*53
$IIVWR,002,R,17.6,N,,,,*63
$IIDPT,008.0,+0.7,*48
$IIGLL,4612.975,N,00610.154,E,161034,A,A*5C
$IIHDG,253,,,,*53
$IIMTW,+17.5,C*3B
$IIMWV,000,R,18.0,N,A*1A
$IIMWV,002,T,15.7,N,A*14
$IIRMC,161034,A,4612.975,N,00610.154,E,02.7,234,220814,,,A*48
$IIVHW,,,253,M,01.8,N,,*69
$IIVLW,53474,N,000.1,N*53
$IIVWR,000,R,18.0,N,,,,*68
$IIDPT,008.0,+0.7,*48
$IIGLL,4612.975,N,00610.153,E,161035,A,A*5A
$IIHDG,253,,,,*53
$IIMTW,+17.5,C*3B
$IIMWV,357,R,17.2,N,A*16
$IIMWV,000,T,16.1,N,A*13
$IIRMC,161035,A,4612.975,N,00610.153,E,02.3,250,220814,,,A*48
$IIVHW,,,253,M,01.8,N,,*69
$IIVLW,53474,N,000.1,N*53
$IIVWR,003,R,16.7,N,,,,*62
$IIDPT,008.0,+0.7,*48
$IIGLL,4612.975,N,00610.153,E,161035,A,A*5A
$IIHDG,253,,,,*53
$IIMTW,+17.5,C*3B
$IIMWV,003,R,16.7,N,A*10
$IIMWV,357,T,15.4,N,A*14
$IIRMC,161035,A,4612.975,N,00610.153,E,02.3,250,220814,,,A*48
$IIVHW,,,253,M,01.8,N,,*69
$IIVLW,53474,N,000.1,N*53
$IIVWR,008,R,16.9,N,,,,*67
$IIDPT,008.0,+0.7,*48
$IIGLL,4612.974,N,00610.152,E,161037,A,A*58
$IIHDG,253,,,,*53
$IIMTW,+17.5,C*3B
$IIMWV,008,R,16.9,N,A*15
$IIMWV,003,T,14.9,N,A*1A
$IIRMC,161037,A,4612.974,N,00610.152,E,02.1,254,220814,,,A*4C
$IIVHW,,,253,M,01.7,N,,*66
$IIVLW,53474,N,000.1,N*53
$IIVWR,003,R,16.1,N,,,,*64
$IIDPT,008.1,+0.7,*49
$IIGLL,4612.974,N,00610.151,E,161038,A,A*54
$IIHDG,253,,,,*53
$IIMTW,+17.5,C*3B
$IIMWV,003,R,16.1,N,A*16
$IIMWV,009,T,15.0,N,A*18
$IIRMC,161039,A,4612.974,N,00610.150,E,01.8,248,220814,,,A*47
$IIVHW,,,254,M,01.7,N,,*61
$IIVLW,53474,N,000.1,N*53
$IIVWR,003,R,17.4,N,,,,*60
$IIDPT,008.1,+0.7,*49
$IIGLL,4612.974,N,00610.150,E,161039,A,A*54
$IIHDG,254,,,,*54
$IIMTW,+17.5,C*3B
$IIMWV,003,R,17.4,N,A*12
$IIMWV,003,T,15.7,N,A*15
$IIRMC,161040,A,4612.974,N,00610.150,E,01.8,246,220814,,,A*47
$IIVHW,,,255,M,01.7,N,,*60
$IIVLW,53474,N,000.1,N*53
$IIVWR,001,R,17.9,N,,,,*6F
$IIDPT,008.1,+0.7,*49
$IIGLL,4612.974,N,00610.150,E,161040,A,A*5A
$IIHDG,255,,,,*55
$IIMTW,+17.5,C*3B
$IIMWV,358,R,17.8,N,A*13
$IIMWV,001,T,16.2,N,A*11
$IIRMC,161041,A,4612.974,N,00610.149,E,02.2,245,220814,,,A*44
$IIVHW,,,258,M,01.6,N,,*6C
$IIVLW,53474,N,000.1,N*53
$IIVWR,002,L,17.8,N,,,,*73
$IIDPT,008.1,+0.7,*49
$IIGLL,4612.974,N,00610.149,E,161041,A,A*53
$IIHDG,258,,,,*58
$IIMTW,+17.5,C*3B
$IIMWV,355,R,17.8,N,A*1E
$IIMWV,358,T,16.1,N,A*1D
$IIRMC,161041,A,4612.974,N,00610.149,E,02.2,245,220814,,,A*44
$IIVHW,,,258,M,01.6,N,,*6C
$IIVLW,53474,N,000.1,N*53
$IIVWR,005,L,17.8,N,,,,*74
$IIDPT,008.1,+0.7,*49
$IIGLL,4612.974,N,00610.149,E,161041,A,A*53
$IIHDG,258,,,,*58
$IIMTW,+17.5,C*3B
$IIMWV,352,R,17.2,N,A*13
$IIMWV,354,T,16.2,N,A*12
$IIRMC,161043,A,4612.973,N,00610.147,E,01.7,263,220814,,,A*4D
$IIVHW,,,258,M,01.6,N,,*6C
$IIVLW,53474,N,000.1,N*53
$IIVWR,008,L,17.2,N,,,,*73
$IIDPT,008.1,+0.7,*49
$IIGLL,4612.973,N,00610.146,E,161044,A,A*5E
$IIHDG,259,,,,*59
$IIMTW,+17.5,C*3B
$IIMWV,350,R,17.8,N,A*1B
$IIMWV,351,T,15.5,N,A*13
$IIRMC,161044,A,4612.973,N,00610.146,E,01.5,249,220814,,,A*41
$IIVHW,,,259,M,01.6,N,,*6D
$IIVLW,53474,N,000.1,N*53
$IIVWR,010,L,17.8,N,,,,*70
$IIDPT,008.1,+0.7,*49
$IIGLL,4612.973,N,00610.145,E,161045,A,A*5C
$IIHDG,258,,,,*58
$IIMTW,+17.5,C*3B
$IIMWV,350,R,17.9,N,A*1A
$IIMWV,349,T,16.0,N,A*1C
$IIRMC,161045,A,4612.973,N,00610.145,E,01.3,270,220814,,,A*4F
$IIVHW,,,258,M,01.5,N,,*6F
$IIVLW,53474,N,000.1,N*53
$IIVWR,010,L,17.9,N,,,,*71
$IIDPT,008.1,+0.7,*49
$IIGLL,4612.973,N,00610.144,E,161046,A,A*5E
$IIHDG,258,,,,*58
$IIMTW,+17.5,C*3B
$IIMWV,350,R,17.9,N,A*1A
$IIMWV,349,T,16.1,N,A*1D
$IIRMC,161046,A,4612.973,N,00610.144,E,02.1,253,220814,,,A*4D
$IIVHW,,,258,M,01.5,N,,*6F
$IIVLW,53474,N,000.1,N*53
$IIVWR,009,L,17.9,N,,,,*79
$IIDPT,008.1,+0.7,*49
$IIGLL,4612.973,N,00610.143,E,161047,A,A*58
$IIHDG,258,,,,*58
$IIMTW,+17.5,C*3B
$IIMWV,351,R,17.9,N,A*1B
$IIMWV,349,T,16.2,N,A*1E
$IIRMC,161047,A,4612.973,N,00610.143,E,01.5,247,220814,,,A*49
$IIVHW,,,258,M,01.4,N,,*6E
$IIVLW,53474,N,000.1,N*53
$IIVWR,008,L,17.8,N,,,,*79
$IIDPT,008.1,+0.7,*49
$IIGLL,4612.973,N,00610.143,E,161048,A,A*57
$IIHDG,258,,,,*58
$IIMTW,+17.5,C*3B
$IIMWV,352,R,17.8,N,A*19
$IIMWV,350,T,16.4,N,A*10
$IIRMC,161049,A,4612.973,N,00610.142,E,01.3,257,220814,,,A*41
$IIVHW,,,257,M,01.3,N,,*66
$IIVLW,53474,N,000.1,N*53
$IIVWR,006,L,17.9,N,,,,*76
$IIDPT,008.1,+0.7,*49
$IIGLL,4612.973,N,00610.142,E,161049,A,A*57
$IIHDG,257,,,,*57
$IIMTW,+17.5,C*3B
$IIMWV,354,R,17.9,N,A*1E
$IIMWV,354,T,16.3,N,A*13
$IIRMC,161050,A,4612.973,N,00610.142,E,01.7,258,220814,,,A*42
$IIVHW,,,256,M,01.3,N,,*67
$IIVLW,53474,N,000.1,N*53
$IIVWR,003,L,17.6,N,,,,*7C
$IIDPT,008.1,+0.7,*49
$IIGLL,4612.973,N,00610.142,E,161050,A,A*5F
$IIHDG,256,,,,*56
$IIMTW,+17.5,C*3B
$IIMWV,358,R,17.4,N,A*1F
$IIMWV,357,T,16.3,N,A*10
$IIRMC,161051,A,4612.972,N,00610.142,E,01.3,272,220814,,,A*4E
$IIVHW,,,255,M,01.2,N,,*65
$IIVLW,53474,N,000.1,N*53
$IIVWR,002,L,17.4,N,,,,*7F
$IIDPT,008.1,+0.7,*49
$IIGLL,4612.972,N,00610.142,E,161051,A,A*5F
$IIHDG,255,,,,*55
$IIMTW,+17.5,C*3B
$IIMWV,359,R,16.6,N,A*1D
$IIMWV,358,T,16.1,N,A*1D
$IIRMC,161052,A,4612.973,N,00610.141,E,01.9,283,220814,,,A*4B
$IIVHW,,,255,M,01.2,N,,*65
$IIVLW,53474,N,000.1,N*53
$IIVWR,001,L,16.6,N,,,,*7F
$IIDPT,008.1,+0.7,*49
$IIGLL,4612.973,N,00610.141,E,161052,A,A*5E
$IIHDG,254,,,,*54
$IIMTW,+17.5,C*3B
$IIMWV,357,R,17.4,N,A*10
$IIMWV,359,T,15.4,N,A*1A
$IIRMC,161053,A,4612.972,N,00610.141,E,01.3,241,220814,,,A*4F
$IIVHW,,,254,M,01.1,N,,*67
$IIVLW,53474,N,000.1,N*53
$IIVWR,003,L,17.4,N,,,,*7E
$IIDPT,008.1,+0.7,*49
$IIGLL,4612.972,N,00610.140,E,161054,A,A*58
$IIHDG,255,,,,*55
$IIMTW,+17.5,C*3B
$IIMWV,355,R,17.2,N,A*14
$IIMWV,357,T,16.2,N,A*11
$IIRMC,161054,A,4612.972,N,00610.140,E,02.0,229,220814,,,A*47
$IIVHW,,,255,M,01.1,N,,*66
$IIVLW,53474,N,000.1,N*53
$IIVWR,005,L,17.2,N,,,,*7E
$IIDPT,008.1,+0.7,*49
$IIGLL,4612.972,N,00610.139,E,161055,A,A*57
$IIHDG,254,,,,*54
$IIMTW,+17.5,C*3B
$IIMWV,352,R,17.8,N,A*19
$IIMWV,355,T,16.1,N,A*10
$IIRMC,161055,A,4612.972,N,00610.139,E,01.7,251,220814,,,A*43
$IIVHW,,,254,M,01.1,N,,*67
$IIVLW,53474,N,000.1,N*53
$IIVWR,010,L,17.9,N,,,,*71
$IIDPT,008.1,+0.7,*49
$IIGLL,4612.972,N,00610.139,E,161056,A,A*54
$IIHDG,255,,,,*55
$IIMTW,+17.5,C*3B
$IIMWV,350,R,17.9,N,A*1A
$IIMWV,352,T,16.6,N,A*10
$IIRMC,161056,A,4612.972,N,00610.139,E,01.9,253,220814,,,A*4C
$IIVHW,,,255,M,01.0,N,,*67
$IIVLW,53474,N,000.1,N*53
$IIVWR,007,L,18.0,N,,,,*71
$IIDPT,008.1,+0.7,*49
$IIGLL,4612.972,N,00610.138,E,161057,A,A*54
$IIHDG,255,,,,*55
$IIMTW,+17.5,C*3B
$IIMWV,353,R,18.0,N,A*1F
$IIMWV,350,T,16.6,N,A*12
$IIRMC,161057,A,4612.972,N,00610.138,E,01.9,253,220814,,,A*4C
$IIVHW,,,256,M,01.0,N,,*64
$IIVLW,53474,N,000.1,N*53
$IIVWR,006,L,17.5,N,,,,*7A
$IIDPT,008.1,+0.7,*49
$IIGLL,4612.972,N,00610.137,E,161058,A,A*54
$IIHDG,256,,,,*56
$IIMTW,+17.5,C*3B
$IIMWV,354,R,17.5,N,A*12
$IIMWV,353,T,16.8,N,A*1F
$IIRMC,161059,A,4612.972,N,00610.137,E,01.3,254,220814,,,A*40
$IIVHW,,,257,M,01.0,N,,*65
$IIVLW,53474,N,000.1,N*53
$IIVWR,004,L,17.8,N,,,,*75
$IIDPT,008.1,+0.7,*49
$IIGLL,4612.972,N,00610.137,E,161059,A,A*55
$IIHDG,257,,,,*57
$IIMTW,+17.5,C*3B
$IIMWV,356,R,17.8,N,A*1D
$IIMWV,356,T,16.7,N,A*15
$IIRMC,161100,A,4612.972,N,00610.136,E,01.4,263,220814,,,A*4F
$IIVHW,,,258,M,01.0,N,,*6A
$IIVLW,53474,N,000.1,N*53
$IIVWR,007,L,17.5,N,,,,*7B
$IIDPT,008.1,+0.7,*49
$IIGLL,4612.972,N,00610.136,E,161100,A,A*59
$IIHDG,258,,,,*58
$IIMTW,+17.5,C*3B
$IIMWV,354,R,16.7,N,A*11
$IIMWV,353,T,16.4,N,A*13
$IIRMC,161101,A,4612.972,N,00610.136,E,00.8,256,220814,,,A*45
$IIVHW,,,258,M,01.0,N,,*6A
$IIVLW,53474,N,000.1,N*53
$IIVWR,006,L,16.7,N,,,,*79
$IIDPT,008.1,+0.7,*49
$IIGLL,4612.972,N,00610.136,E,161101,A,A*58
$IIHDG,258,,,,*58
$IIMTW,+17.5,C*3B
$IIMWV,351,R,16.7,N,A*14
$IIMWV,354,T,15.5,N,A*16
$IIRMC,161102,A,4612.972,N,00610.136,E,01.3,261,220814,,,A*48
$IIVHW,,,258,M,01.0,N,,*6A
$IIVLW,53474,N,000.1,N*53
$IIVWR,009,L,16.7,N,,,,*76
$IIDPT,008.1,+0.7,*49
$IIGLL,4612.972,N,00610.136,E,161102,A,A*5B
$IIHDG,258,,,,*58
$IIMTW,+17.5,C*3B
$IIMWV,348,R,17.5,N,A*1F
$IIMWV,351,T,15.7,N,A*11
$IIRMC,161103,A,4612.972,N,00610.136,E,01.3,247,220814,,,A*4D
$IIVHW,,,258,M,01.0,N,,*6A
$IIVLW,53474,N,000.1,N*53
$IIVWR,012,L,17.5,N,,,,*7F
$IIDPT,008.1,+0.7,*49
$IIGLL,4612.972,N,00610.135,E,161104,A,A*5E
$IIHDG,258,,,,*58
$IIMTW,+17.5,C*3B
$IIMWV,345,R,16.7,N,A*11
$IIMWV,348,T,16.4,N,A*19
$IIRMC,161104,A,4612.972,N,00610.135,E,01.5,270,220814,,,A*4B
$IIVHW,,,258,M,01.0,N,,*6A
$IIVLW,53474,N,000.1,N*53
$IIVWR,015,L,16.7,N,,,,*7B
$IIDPT,008.1,+0.7,*49
$IIGLL,4612.972,N,00610.135,E,161105,A,A*5F
$IIHDG,259,,,,*59
$IIMTW,+17.5,C*3B
$IIMWV,344,R,16.2,N,A*15
$IIMWV,344,T,15.7,N,A*15
$IIRMC,161105,A,4612.972,N,00610.135,E,00.8,292,220814,,,A*4A
$IIVHW,,,259,M,01.0,N,,*6B
$IIVLW,53474,N,000.1,N*53
$IIVWR,017,L,15.3,N,,,,*7E
$IIDPT,008.1,+0.7,*49
$IIGLL,4612.972,N,00610.134,E,161106,A,A*5D
$IIHDG,258,,,,*58
$IIMTW,+17.5,C*3B
$IIMWV,343,R,15.3,N,A*10
$IIMWV,343,T,15.1,N,A*14
$IIRMC,161106,A,4612.972,N,00610.134,E,01.3,261,220814,,,A*4E
$IIVHW,,,258,M,01.0,N,,*6A
$IIVLW,53474,N,000.1,N*53
$IIVWR,020,L,15.6,N,,,,*7F
$IIDPT,008.1,+0.7,*49
$IIGLL,4612.972,N,00610.134,E,161107,A,A*5C
$IIHDG,259,,,,*59
$IIMTW,+17.5,C*3B
$IIMWV,340,R,15.6,N,A*16
$IIMWV,342,T,14.2,N,A*17
$IIRMC,161107,A,4612.972,N,00610.134,E,01.3,266,220814,,,A*48
$IIVHW,,,258,M,01.0,N,,*6A
$IIVLW,53475,N,000.1,N*52
$IIVWR,013,L,15.9,N,,,,*70
$IIDPT,008.1,+0.7,*49
$IIGLL,4612.972,N,00610.133,E,161108,A,A*54
$IIHDG,258,,,,*58
$IIMTW,+17.5,C*3B
$IIMWV,347,R,15.9,N,A*1E
$IIMWV,339,T,14.5,N,A*1C
$IIRMC,161109,A,4612.972,N,00610.133,E,01.4,262,220814,,,A*42
$IIVHW,,,258,M,01.1,N,,*6B
$IIVLW,53475,N,000.1,N*52
$IIVWR,014,L,15.9,N,,,,*77
$IIDPT,008.1,+0.7,*49
$IIGLL,4612.972,N,00610.133,E,161109,A,A*55
$IIHDG,258,,,,*58
$IIMTW,+17.5,C*3B
$IIMWV,346,R,15.9,N,A*1F
$IIMWV,345,T,14.7,N,A*15
$IIRMC,161110,A,4612.972,N,00610.132,E,01.3,260,220814,,,A*4E
$IIVHW,,,257,M,01.1,N,,*64
$IIVLW,53475,N,000.1,N*52
$IIVWR,015,L,15.8,N,,,,*77
$IIDPT,008.1,+0.7,*49
$IIGLL,4612.972,N,00610.132,E,161110,A,A*5C
$IIHDG,257,,,,*57
$IIMTW,+17.5,C*3B
$IIMWV,349,R,15.0,N,A*19
$IIMWV,344,T,14.6,N,A*15
$IIRMC,161111,A,4612.972,N,00610.132,E,01.6,256,220814,,,A*4F
$IIVHW,,,256,M,01.2,N,,*66
$IIVLW,53475,N,000.1,N*52
$IIVWR,011,L,15.0,N,,,,*7B
$IIDPT,008.1,+0.7,*49
$IIGLL,4612.972,N,00610.132,E,161111,A,A*5D
$IIHDG,256,,,,*56
$IIMTW,+17.5,C*3B
$IIMWV,351,R,16.1,N,A*12
$IIMWV,348,T,13.7,N,A*1F
$IIRMC,161112,A,4612.972,N,00610.131,E,01.0,253,220814,,,A*4C
$IIVHW,,,255,M,01.2,N,,*65
$IIVLW,53475,N,000.1,N*52
$IIVWR,009,L,16.1,N,,,,*70
$IIDPT,008.1,+0.7,*49
$IIGLL,4612.972,N,00610.131,E,161112,A,A*5D
$IIHDG,255,,,,*55
$IIMTW,+17.5,C*3B
$IIMWV,350,R,16.6,N,A*14
$IIMWV,350,T,14.9,N,A*1F
$IIRMC,161113,A,4612.972,N,00610.131,E,01.3,262,220814,,,A*4C
$IIVHW,,,255,M,01.1,N,,*66
$IIVLW,53475,N,000.1,N*52
$IIVWR,010,L,16.6,N,,,,*7F
$IIDPT,008.1,+0.7,*49
$IIGLL,4612.972,N,00610.130,E,161114,A,A*5A
$IIHDG,254,,,,*54
$IIMTW,+17.5,C*3B
$IIMWV,349,R,16.9,N,A*13
$IIMWV,349,T,15.2,N,A*1D
$IIRMC,161114,A,4612.972,N,00610.130,E,01.3,252,220814,,,A*49
$IIVHW,,,254,M,01.1,N,,*67
$IIVLW,53475,N,000.1,N*52
$IIVWR,011,L,16.9,N,,,,*71
$IIDPT,008.1,+0.7,*49
$IIGLL,4612.973,N,00610.129,E,161115,A,A*52
$IIHDG,255,,,,*55
$IIMTW,+17.5,C*3B
$IIMWV,350,R,16.9,N,A*1B
$IIMWV,348,T,15.7,N,A*19
$IIRMC,161115,A,4612.973,N,00610.129,E,01.4,259,220814,,,A*4D
$IIVHW,,,255,M,01.1,N,,*66
$IIVLW,53475,N,000.1,N*52
$IIVWR,012,L,17.0,N,,,,*7A
$IIDPT,008.1,+0.7,*49
$IIGLL,4612.973,N,00610.128,E,161116,A,A*50
$IIHDG,256,,,,*56
$IIMTW,+17.5,C*3B
$IIMWV,348,R,17.0,N,A*1A
$IIMWV,350,T,15.6,N,A*11
$IIRMC,161116,A,4612.973,N,00610.128,E,01.4,256,220814,,,A*40
$IIVHW,,,256,M,01.1,N,,*65
$IIVLW,53475,N,000.1,N*52
$IIVWR,014,L,17.0,N,,,,*7C
$IIDPT,008.1,+0.7,*49
$IIGLL,4612.973,N,00610.128,E,161117,A,A*51
$IIHDG,256,,,,*56
$IIMTW,+17.5,C*3B
$IIMWV,346,R,17.0,N,A*14
$IIMWV,347,T,15.8,N,A*19
$IIRMC,161117,A,4612.973,N,00610.128,E,00.9,281,220814,,,A*47
$IIVHW,,,255,M,01.2,N,,*65
$IIVLW,53475,N,000.1,N*52
$IIVWR,016,L,18.2,N,,,,*73
$IIDPT,008.1,+0.7,*49
$IIGLL,4612.973,N,00610.127,E,161118,A,A*51
$IIHDG,255,,,,*55
$IIMTW,+17.5,C*3B
$IIMWV,344,R,18.2,N,A*1B
$IIMWV,345,T,15.7,N,A*14
$IIRMC,161119,A,4612.973,N,00610.127,E,01.5,261,220814,,,A*45
$IIVHW,,,257,M,01.2,N,,*67
$IIVLW,53475,N,000.1,N*52
$IIVWR,015,L,19.8,N,,,,*7B
$IIDPT,008.1,+0.7,*49
$IIGLL,4612.973,N,00610.127,E,161119,A,A*50
$IIHDG,257,,,,*57
$IIMTW,+17.5,C*3B
$IIMWV,345,R,19.8,N,A*11
$IIMWV,344,T,18.7,N,A*18
$IIRMC,161120,A,4612.973,N,00610.126,E,01.3,267,220814,,,A*4E
$IIVHW,,,257,M,01.1,N,,*64
$IIVLW,53475,N,000.1,N*52
$IIVWR,013,L,19.8,N,,,,*7D
$IIDPT,008.1,+0.7,*49
$IIGLL,4612.973,N,00610.126,E,161120,A,A*5B
$IIHDG,257,,,,*57
$IIMTW,+17.5,C*3B
$IIMWV,350,R,20.8,N,A*1F
$IIMWV,347,T,18.6,N,A*1A
$IIRMC,161121,A,4612.973,N,00610.126,E,01.3,262,220814,,,A*4A
$IIVHW,,,257,M,01.0,N,,*65
$IIVLW,53475,N,000.1,N*52
$IIVWR,010,L,20.8,N,,,,*74
$IIDPT,008.1,+0.7,*49
$IIGLL,4612.973,N,00610.126,E,161121,A,A*5A
$IIHDG,257,,,,*57
$IIMTW,+17.5,C*3B
$IIMWV,350,R,21.3,N,A*15
$IIMWV,350,T,19.5,N,A*1E
$IIRMC,161122,A,4612.973,N,00610.125,E,01.3,262,220814,,,A*4A
$IIVHW,,,259,M,01.0,N,,*6B
$IIVLW,53475,N,000.1,N*52
$IIVWR,010,L,21.3,N,,,,*7E
$IIDPT,008.1,+0.7,*49
$IIGLL,4612.973,N,00610.125,E,161122,A,A*5A
$IIHDG,258,,,,*58
$IIMTW,+17.5,C*3B
$IIMWV,348,R,22.6,N,A*1A
$IIMWV,350,T,20.1,N,A*10
$IIRMC,161123,A,4612.973,N,00610.125,E,00.7,210,220814,,,A*4B
$IIVHW,,,258,M,00.0,N,,*6B
$IIVLW,53475,N,000.1,N*52
$IIVWR,012,L,22.6,N,,,,*7A
$IIDPT,008.1,+0.7,*49
$IIGLL,4612.972,N,00610.125,E,161124,A,A*5D
$IIHDG,259,,,,*59
$IIMTW,+17.5,C*3B
$IIMWV,352,R,23.0,N,A*16
$IIMWV,348,T,22.6,N,A*1C
$IIRMC,161124,A,4612.972,N,00610.125,E,01.4,255,220814,,,A*4E
$IIVHW,,,259,M,00.0,N,,*6A
$IIVLW,53475,N,000.1,N*52
$IIVWR,008,L,23.0,N,,,,*76
$IIDPT,008.1,+0.7,*49
$IIGLL,4612.972,N,00610.124,E,161125,A,A*5D
$IIHDG,260,,,,*53
$IIMTW,+17.5,C*3B
$IIMWV,350,R,23.5,N,A*11
$IIMWV,352,T,23.0,N,A*10
$IIRMC,161125,A,4612.972,N,00610.124,E,01.2,272,220814,,,A*4D
$IIVHW,,,260,M,00.0,N,,*60
$IIVLW,53475,N,000.1,N*52
$IIVWR,011,L,23.2,N,,,,*7C
$IIDPT,008.1,+0.7,*49
$IIGLL,4612.972,N,00610.123,E,161126,A,A*59
$IIHDG,261,,,,*52
$IIMTW,+17.5,C*3B
$IIMWV,349,R,23.2,N,A*1E
$IIMWV,350,T,23.5,N,A*17
$IIRMC,161126,A,4612.972,N,00610.123,E,01.6,266,220814,,,A*48
$IIVHW,,,261,M,00.0,N,,*61
$IIVLW,53475,N,000.1,N*52
$IIVWR,009,L,23.1,N,,,,*76
$IIDPT,008.1,+0.7,*49
$IIGLL,4612.972,N,00610.123,E,161126,A,A*59
$IIHDG,261,,,,*52
$IIMTW,+17.5,C*3B
$IIMWV,351,R,23.1,N,A*14
$IIMWV,349,T,23.2,N,A*18
$IIRMC,161126,A,4612.972,N,00610.123,E,01.6,266,220814,,,A*48
$IIVHW,,,263,M,00.0,N,,*63
$IIVLW,53475,N,000.1,N*52
$IIVWR,011,L,22.6,N,,,,*79
$IIDPT,008.1,+0.7,*49
$IIGLL,4612.972,N,00610.122,E,161128,A,A*56
$IIHDG,263,,,,*50
$IIMTW,+17.5,C*3B
$IIMWV,349,R,22.6,N,A*1B
$IIMWV,351,T,23.1,N,A*12
$IIRMC,161129,A,4612.972,N,00610.122,E,00.8,281,220814,,,A*40
$IIVHW,,,264,M,00.0,N,,*64
$IIVLW,53475,N,000.1,N*52
$IIVWR,012,L,22.2,N,,,,*7E
$IIDPT,008.1,+0.7,*49
$IIGLL,4612.972,N,00610.122,E,161129,A,A*57
$IIHDG,264,,,,*57
$IIMTW,+17.5,C*3B
$IIMWV,348,R,22.2,N,A*1E
$IIMWV,348,T,22.2,N,A*18
$IIRMC,161130,A,4612.972,N,00610.122,E,01.0,277,220814,,,A*48
$IIVHW,,,265,M,00.0,N,,*65
$IIVLW,53475,N,000.1,N*52
$IIVWR,012,L,22.1,N,,,,*7D
$IIDPT,008.1,+0.7,*49
$IIGLL,4612.972,N,00610.122,E,161130,A,A*5F
$IIHDG,265,,,,*56
$IIMTW,+17.5,C*3B
$IIMWV,345,R,22.3,N,A*12
$IIMWV,348,T,22.1,N,A*1B
$IIRMC,161131,A,4612.972,N,00610.121,E,01.0,284,220814,,,A*46
$IIVHW,,,266,M,00.0,N,,*66
$IIVLW,53475,N,000.1,N*52
$IIVWR,015,L,22.3,N,,,,*78
$IIDPT,008.1,+0.7,*49
$IIGLL,4612.972,N,00610.121,E,161131,A,A*5D
$IIHDG,266,,,,*55
$IIMTW,+17.5,C*3B
$IIMWV,344,R,21.7,N,A*14
$IIMWV,345,T,22.3,N,A*14
$IIRMC,161132,A,4612.973,N,00610.121,E,01.0,294,220814,,,A*45
$IIVHW,,,267,M,00.0,N,,*67
$IIVLW,53475,N,000.1,N*52
$IIVWR,016,L,21.7,N,,,,*7C
$IIDPT,008.1,+0.7,*49
$IIGLL,4612.973,N,00610.121,E,161132,A,A*5F
$IIHDG,269,,,,*5A
$IIMTW,+17.5,C*3B
$IIMWV,342,R,21.7,N,A*12
$IIMWV,344,T,21.7,N,A*12
$IIRMC,161133,A,4612.973,N,00610.120,E,01.0,300,220814,,,A*49
$IIVHW,,,269,M,00.0,N,,*69
$IIVLW,53475,N,000.1,N*52
$IIVWR,018,L,21.7,N,,,,*72
$IIDPT,008.1,+0.7,*49
$IIGLL,4612.973,N,00610.120,E,161134,A,A*58
$IIHDG,270,,,,*52
$IIMTW,+17.5,C*3B
$IIMWV,342,R,20.9,N,A*1D
$IIMWV,342,T,21.7,N,A*14
$IIRMC,161134,A,4612.973,N,00610.120,E,02.0,316,220814,,,A*4A
$IIVHW,,,270,M,00.0,N,,*61
$IIVLW,53475,N,000.1,N*52
$IIVWR,018,L,20.9,N,,,,*7D
$IIDPT,008.1,+0.7,*49
$IIGLL,4612.973,N,00610.119,E,161135,A,A*53
$IIHDG,272,,,,*50
$IIMTW,+17.5,C*3B
$IIMWV,342,R,20.8,N,A*1C
$IIMWV,342,T,20.9,N,A*1B
$IIRMC,161135,A,4612.973,N,00610.119,E,01.5,308,220814,,,A*48
$IIVHW,,,272,M,00.0,N,,*63
$IIVLW,53475,N,000.1,N*52
$IIVWR,017,L,20.5,N,,,,*7E
$IIDPT,008.1,+0.7,*49
$IIGLL,4612.974,N,00610.119,E,161136,A,A*57
$IIHDG,274,,,,*56
$IIMTW,+17.5,C*3B
$IIMWV,343,R,20.5,N,A*10
$IIMWV,342,T,20.8,N,A*1A
$IIRMC,161136,A,4612.974,N,00610.119,E,01.1,296,220814,,,A*4E
$IIVHW,,,274,M,01.1,N,,*65
$IIVLW,53475,N,000.1,N*52
$IIVWR,018,L,19.8,N,,,,*76
$IIDPT,008.1,+0.7,*49
$IIGLL,4612.974,N,00610.119,E,161137,A,A*56
$IIHDG,276,,,,*54
$IIMTW,+17.5,C*3B
$IIMWV,342,R,19.8,N,A*16
$IIMWV,342,T,19.4,N,A*1C
$IIRMC,161137,A,4612.974,N,00610.119,E,02.4,002,220814,,,A*46
$IIVHW,,,279,M,01.4,N,,*6D
$IIVLW,53475,N,000.1,N*52
$IIVWR,019,L,19.6,N,,,,*79
$IIDPT,008.1,+0.7,*49
$IIGLL,4612.975,N,00610.119,E,161138,A,A*58
$IIHDG,279,,,,*5B
$IIMTW,+17.5,C*3B
$IIMWV,341,R,19.6,N,A*1B
$IIMWV,341,T,18.5,N,A*1F
$IIRMC,161139,A,4612.975,N,00610.118,E,01.6,313,220814,,,A*4A
$IIVHW,,,282,M,01.6,N,,*6B
$IIVLW,53475,N,000.1,N*52
$IIVWR,020,L,19.5,N,,,,*70
$IIDPT,008.1,+0.7,*49
$IIGLL,4612.975,N,00610.118,E,161139,A,A*58
$IIHDG,282,,,,*5F
$IIMTW,+17.5,C*3B
$IIMWV,340,R,19.5,N,A*19
$IIMWV,339,T,17.8,N,A*12
$IIRMC,161140,A,4612.975,N,00610.118,E,01.7,322,220814,,,A*47
$IIVHW,,,282,M,01.8,N,,*65
$IIVLW,53475,N,000.1,N*52
$IIVWR,023,L,18.9,N,,,,*7E
$IIDPT,008.1,+0.7,*49
$IIGLL,4612.975,N,00610.118,E,161140,A,A*56
$IIHDG,282,,,,*5F
$IIMTW,+17.5,C*3B
$IIMWV,337,R,19.2,N,A*1E
$IIMWV,335,T,17.1,N,A*17
$IIRMC,161141,A,4612.976,N,00610.117,E,01.7,302,220814,,,A*48
$IIVHW,,,282,M,01.9,N,,*64
$IIVLW,53475,N,000.1,N*52
$IIVWR,023,L,19.2,N,,,,*74
$IIDPT,008.1,+0.7,*49
$IIGLL,4612.976,N,00610.117,E,161141,A,A*5B
$IIHDG,282,,,,*5F
$IIMTW,+17.5,C*3B
$IIMWV,336,R,18.7,N,A*1B
$IIMWV,335,T,17.3,N,A*15
$IIRMC,161142,A,4612.976,N,00610.117,E,01.7,306,220814,,,A*4F
$IIVHW,,,279,M,01.9,N,,*60
$IIVLW,53475,N,000.1,N*52
$IIVWR,024,L,18.7,N,,,,*77
$IIDPT,008.1,+0.7,*49
$IIGLL,4612.976,N,00610.117,E,161142,A,A*58
$IIHDG,277,,,,*55
$IIMTW,+17.5,C*3B
$IIMWV,337,R,19.1,N,A*1D
$IIMWV,333,T,16.9,N,A*18
$IIRMC,161143,A,4612.976,N,00610.116,E,01.7,286,220814,,,A*46
$IIVHW,,,277,M,01.8,N,,*6F
$IIVLW,53475,N,000.1,N*52
$IIVWR,023,L,19.1,N,,,,*77
$IIDPT,008.1,+0.7,*49
$IIGLL,4612.976,N,00610.116,E,161144,A,A*5F
$IIHDG,275,,,,*57
$IIMTW,+17.5,C*3B
$IIMWV,342,R,18.7,N,A*18
$IIMWV,335,T,17.3,N,A*15
$IIRMC,161144,A,4612.976,N,00610.116,E,02.0,330,220814,,,A*49
$IIVHW,,,275,M,01.7,N,,*62
$IIVLW,53475,N,000.1,N*52
$IIVWR,018,L,18.7,N,,,,*78
$IIDPT,008.1,+0.7,*49
$IIGLL,4612.977,N,00610.115,E,161145,A,A*5C
$IIHDG,275,,,,*57
$IIMTW,+17.5,C*3B
$IIMWV,340,R,18.0,N,A*1D
$IIMWV,340,T,16.9,N,A*1C
$IIRMC,161145,A,4612.977,N,00610.115,E,01.9,298,220814,,,A*43
$IIVHW,,,275,M,01.7,N,,*62
$IIVLW,53475,N,000.1,N*52
$IIVWR,023,L,18.7,N,,,,*70
$IIDPT,008.1,+0.7,*49
$IIGLL,4612.977,N,00610.115,E,161146,A,A*5F
$IIHDG,275,,,,*57
$IIMTW,+17.5,C*3B
$IIMWV,337,R,18.7,N,A*1A
$IIMWV,338,T,16.3,N,A*19
$IIRMC,161146,A,4612.977,N,00610.115,E,02.6,309,220814,,,A*45
$IIVHW,,,275,M,01.6,N,,*63
$IIVLW,53475,N,000.1,N*52
$IIVWR,025,L,18.5,N,,,,*74
$IIDPT,008.1,+0.7,*49
$IIGLL,4612.978,N,00610.114,E,161147,A,A*50
$IIHDG,275,,,,*57
$IIMTW,+17.5,C*3B
$IIMWV,335,R,18.5,N,A*1A
$IIMWV,335,T,17.0,N,A*16
$IIRMC,161147,A,4612.978,N,00610.114,E,02.0,302,220814,,,A*47
$IIVHW,,,275,M,01.7,N,,*62
$IIVLW,53475,N,000.1,N*52
$IIVWR,025,L,18.4,N,,,,*75
$IIDPT,008.1,+0.7,*49
$IIGLL,4612.978,N,00610.113,E,161148,A,A*58
$IIHDG,275,,,,*57
$IIMTW,+17.5,C*3B
$IIMWV,335,R,18.4,N,A*1B
$IIMWV,333,T,16.9,N,A*18
$IIRMC,161149,A,4612.978,N,00610.113,E,01.7,301,220814,,,A*49
$IIVHW,,,276,M,01.6,N,,*60
$IIVLW,53475,N,000.1,N*52
$IIVWR,025,L,18.4,N,,,,*75
$IIDPT,008.1,+0.7,*49
$IIGLL,4612.978,N,00610.113,E,161149,A,A*59
$IIHDG,276,,,,*54
$IIMTW,+17.5,C*3B
$IIMWV,335,R,18.4,N,A*1B
$IIMWV,333,T,16.8,N,A*19
$IIRMC,161150,A,4612.978,N,00610.113,E,01.4,306,220814,,,A*45
$IIVHW,,,277,M,01.6,N,,*61
$IIVLW,53475,N,000.1,N*52
$IIVWR,026,L,17.9,N,,,,*74
$IIDPT,008.1,+0.7,*49
$IIGLL,4612.978,N,00610.113,E,161150,A,A*51
$IIHDG,277,,,,*55
$IIMTW,+17.5,C*3B
$IIMWV,334,R,17.4,N,A*15
$IIMWV,332,T,16.4,N,A*14
$IIRMC,161151,A,4612.979,N,00610.112,E,01.0,310,220814,,,A*47
$IIVHW,,,277,M,01.5,N,,*62
$IIVLW,53475,N,000.1,N*52
$IIVWR,026,L,17.4,N,,,,*79
$IIDPT,008.1,+0.7,*49
$IIGLL,4612.979,N,00610.112,E,161151,A,A*50
$IIHDG,277,,,,*55
$IIMTW,+17.5,C*3B
$IIMWV,332,R,17.1,N,A*16
$IIMWV,331,T,15.6,N,A*16
$IIRMC,161153,A,4612.979,N,00610.111,E,00.9,321,220814,,,A*4C
$IIVHW,,,279,M,01.4,N,,*6D
$IIVLW,53475,N,000.1,N*52
$IIVWR,028,L,17.1,N,,,,*72
$IIDPT,008.1,+0.7,*49
$IIGLL,4612.979,N,00610.111,E,161153,A,A*51
$IIHDG,280,,,,*5D
$IIMTW,+17.5,C*3B
$IIMWV,332,R,17.6,N,A*11
$IIMWV,329,T,15.6,N,A*1F
$IIRMC,161154,A,4612.980,N,00610.111,E,01.3,329,220814,,,A*4E
$IIVHW,,,280,M,01.5,N,,*6A
$IIVLW,53475,N,000.1,N*52
$IIVWR,028,L,17.6,N,,,,*75
$IIDPT,008.1,+0.7,*49
$IIGLL,4612.980,N,00610.110,E,161155,A,A*50
$IIHDG,280,,,,*5D
$IIMTW,+17.5,C*3B
$IIMWV,331,R,17.4,N,A*10
$IIMWV,329,T,16.0,N,A*1A
$IIRMC,161155,A,4612.980,N,00610.110,E,01.1,315,220814,,,A*43
$IIVHW,,,280,M,01.6,N,,*69
$IIVLW,53475,N,000.1,N*52
$IIVWR,029,L,17.4,N,,,,*76
$IIDPT,008.3,+0.7,*4B
$IIGLL,4612.980,N,00610.110,E,161156,A,A*53
$IIHDG,279,,,,*5B
$IIMTW,+17.5,C*3B
$IIMWV,330,R,17.9,N,A*1C
$IIMWV,328,T,15.8,N,A*10
$IIRMC,161156,A,4612.980,N,00610.110,E,01.4,318,220814,,,A*48
$IIVHW,,,279,M,01.7,N,,*6E
$IIVLW,53475,N,000.1,N*52
$IIVWR,029,L,18.2,N,,,,*7F
$IIDPT,008.3,+0.7,*4B
$IIGLL,4612.981,N,00610.110,E,161157,A,A*53
$IIHDG,280,,,,*5D
$IIMTW,+17.5,C*3B
$IIMWV,331,R,18.2,N,A*19
$IIMWV,327,T,16.4,N,A*10
$IIRMC,161157,A,4612.981,N,00610.110,E,01.4,320,220814,,,A*43
$IIVHW,,,280,M,01.7,N,,*68
$IIVLW,53475,N,000.1,N*52
$IIVWR,028,L,19.2,N,,,,*7F
$IIDPT,008.3,+0.7,*4B
$IIGLL,4612.981,N,00610.109,E,161158,A,A*54
$IIHDG,279,,,,*5B
$IIMTW,+17.5,C*3B
$IIMWV,332,R,19.2,N,A*1B
$IIMWV,328,T,16.5,N,A*1E
$IIRMC,161158,A,4612.981,N,00610.109,E,01.8,307,220814,,,A*4D
$IIVHW,,,280,M,01.8,N,,*67
$IIVLW,53475,N,000.1,N*52
$IIVWR,028,L,20.0,N,,,,*77
$IIDPT,008.3,+0.7,*4B
$IIGLL,4612.981,N,00610.109,E,161159,A,A*55
$IIHDG,280,,,,*5D
$IIMTW,+17.5,C*3B
$IIMWV,332,R,20.0,N,A*13
$IIMWV,329,T,17.4,N,A*1F
$IIRMC,161200,A,4612.982,N,00610.108,E,01.4,324,220814,,,A*4C
$IIVHW,,,280,M,01.8,N,,*67
$IIVLW,53475,N,000.1,N*52
$IIVWR,027,L,20.4,N,,,,*7C
$IIDPT,008.3,+0.7,*4B
$IIGLL,4612.982,N,00610.108,E,161200,A,A*58
$IIHDG,280,,,,*5D
$IIMTW,+17.5,C*3B
$IIMWV,333,R,20.4,N,A*16
$IIMWV,331,T,18.5,N,A*18
$IIRMC,161201,A,4612.982,N,00610.108,E,01.7,313,220814,,,A*4A
$IIVHW,,,280,M,01.9,N,,*66
$IIVLW,53475,N,000.1,N*52
$IIVWR,028,L,20.5,N,,,,*72
$IIDPT,008.3,+0.7,*4B
$IIGLL,4612.982,N,00610.108,E,161201,A,A*59
$IIHDG,280,,,,*5D
$IIMTW,+17.5,C*3B
$IIMWV,331,R,20.0,N,A*10
$IIMWV,329,T,18.6,N,A*12
$IIRMC,161202,A,4612.982,N,00610.108,E,01.6,326,220814,,,A*4E
$IIVHW,,,282,M,01.9,N,,*64
$IIVLW,53475,N,000.1,N*52
$IIVWR,029,L,20.0,N,,,,*76
$IIDPT,008.3,+0.7,*4B
$IIGLL,4612.982,N,00610.108,E,161202,A,A*5A
$IIHDG,282,,,,*5F
$IIMTW,+17.5,C*3B
$IIMWV,331,R,19.1,N,A*1B
$IIMWV,327,T,18.0,N,A*1A
$IIRMC,161204,A,4612.983,N,00610.107,E,01.7,315,220814,,,A*47
$IIVHW,,,285,M,01.9,N,,*63
$IIVLW,53475,N,000.1,N*52
$IIVWR,029,L,19.1,N,,,,*7D
$IIDPT,008.3,+0.7,*4B
$IIGLL,4612.983,N,00610.107,E,161204,A,A*52
$IIHDG,286,,,,*5B
$IIMTW,+17.5,C*3B
$IIMWV,330,R,18.8,N,A*12
$IIMWV,328,T,17.2,N,A*18
$IIRMC,161205,A,4612.983,N,00610.106,E,01.7,316,220814,,,A*44
$IIVHW,,,286,M,01.9,N,,*60
$IIVLW,53475,N,000.1,N*52
$IIVWR,030,L,18.8,N,,,,*7D
$IIDPT,008.3,+0.7,*4B
$IIGLL,4612.984,N,00610.106,E,161206,A,A*56
$IIHDG,287,,,,*5A
$IIMTW,+17.5,C*3B
$IIMWV,328,R,19.2,N,A*10
$IIMWV,327,T,17.1,N,A*14
$IIRMC,161206,A,4612.984,N,00610.106,E,02.0,330,220814,,,A*40
$IIVHW,,,287,M,02.0,N,,*6B
$IIVLW,53475,N,000.1,N*52
$IIVWR,032,L,19.2,N,,,,*74
$IIDPT,008.3,+0.7,*4B
$IIGLL,4612.984,N,00610.105,E,161207,A,A*54
$IIHDG,288,,,,*55
$IIMTW,+17.5,C*3B
$IIMWV,327,R,19.2,N,A*1F
$IIMWV,325,T,17.4,N,A*13
$IIRMC,161207,A,4612.984,N,00610.105,E,01.9,320,220814,,,A*49
$IIVHW,,,288,M,02.1,N,,*65
$IIVLW,53475,N,000.1,N*52
$IIVWR,031,L,18.8,N,,,,*7C
$IIDPT,008.3,+0.7,*4B
$IIGLL,4612.984,N,00610.105,E,161208,A,A*5B
$IIHDG,288,,,,*55
$IIMTW,+17.5,C*3B
$IIMWV,329,R,18.8,N,A*1A
$IIMWV,323,T,17.3,N,A*12
$IIRMC,161208,A,4612.984,N,00610.105,E,02.2,321,220814,,,A*4F
$IIVHW,,,288,M,02.3,N,,*67
$IIVLW,53475,N,000.1,N*52
$IIVWR,030,L,18.4,N,,,,*71
$IIDPT,008.3,+0.7,*4B
$IIGLL,4612.985,N,00610.104,E,161209,A,A*5A
$IIHDG,288,,,,*55
$IIMTW,+17.5,C*3B
$IIMWV,330,R,18.4,N,A*1E
$IIMWV,325,T,16.8,N,A*1E
$IIRMC,161209,A,4612.985,N,00610.104,E,02.2,320,220814,,,A*4F
$IIVHW,,,286,M,02.5,N,,*6F
$IIVLW,53475,N,000.1,N*52
$IIVWR,032,L,18.8,N,,,,*7F
$IIDPT,008.3,+0.7,*4B
$IIGLL,4612.985,N,00610.104,E,161210,A,A*52
$IIHDG,286,,,,*5B
$IIMTW,+17.5,C*3B
$IIMWV,328,R,18.8,N,A*1B
$IIMWV,326,T,16.4,N,A*11
$IIRMC,161211,A,4612.986,N,00610.103,E,02.2,312,220814,,,A*43
$IIVHW,,,284,M,02.6,N,,*6E
$IIVLW,53475,N,000.1,N*52
$IIVWR,033,L,19.6,N,,,,*71
$IIDPT,008.3,+0.7,*4B
$IIGLL,4612.986,N,00610.103,E,161211,A,A*57
$IIHDG,284,,,,*59
$IIMTW,+17.5,C*3B
$IIMWV,327,R,19.6,N,A*1B
$IIMWV,323,T,17.3,N,A*12
$IIRMC,161212,A,4612.986,N,00610.103,E,02.4,307,220814,,,A*42
$IIVHW,,,282,M,02.6,N,,*68
$IIVLW,53475,N,000.1,N*52
$IIVWR,035,L,20.6,N,,,,*7D
$IIDPT,008.3,+0.7,*4B
$IIGLL,4612.986,N,00610.103,E,161212,A,A*54
$IIHDG,282,,,,*5F
$IIMTW,+17.5,C*3B
$IIMWV,325,R,20.6,N,A*13
$IIMWV,320,T,18.3,N,A*1E
$IIRMC,161213,A,4612.987,N,00610.101,E,02.6,302,220814,,,A*47
$IIVHW,,,282,M,02.5,N,,*6B
$IIVLW,53475,N,000.1,N*52
$IIVWR,035,L,20.6,N,,,,*7D
$IIDPT,008.3,+0.7,*4B
$IIGLL,4612.987,N,00610.101,E,161213,A,A*56
$IIHDG,282,,,,*5F
$IIMTW,+17.5,C*3B
$IIMWV,327,R,20.6,N,A*11
$IIMWV,320,T,18.3,N,A*1E
$IIRMC,161214,A,4612.987,N,00610.100,E,02.5,299,220814,,,A*41
$IIVHW,,,284,M,02.6,N,,*6E
$IIVLW,53475,N,000.1,N*52
$IIVWR,033,L,20.6,N,,,,*7B
$IIDPT,008.3,+0.7,*4B
$IIGLL,4612.987,N,00610.100,E,161214,A,A*50
$IIHDG,286,,,,*5B
$IIMTW,+17.5,C*3B
$IIMWV,331,R,20.6,N,A*16
$IIMWV,323,T,18.4,N,A*1A
$IIRMC,161215,A,4612.987,N,00610.099,E,02.6,304,220814,,,A*47
$IIVHW,,,286,M,02.6,N,,*6C
$IIVLW,53475,N,000.1,N*52
$IIVWR,029,L,20.6,N,,,,*70
$IIDPT,008.3,+0.7,*4B
$IIGLL,4612.988,N,00610.098,E,161216,A,A*5D
$IIHDG,288,,,,*55
$IIMTW,+17.5,C*3B
$IIMWV,330,R,20.6,N,A*17
$IIMWV,327,T,18.1,N,A*1B
$IIRMC,161216,A,4612.988,N,00610.098,E,02.7,298,220814,,,A*4F
$IIVHW,,,288,M,02.6,N,,*62
$IIVLW,53475,N,000.1,N*52
$IIVWR,030,L,20.6,N,,,,*78
$IIDPT,008.3,+0.7,*4B
$IIGLL,4612.988,N,00610.097,E,161217,A,A*53
$IIHDG,287,,,,*5A
$IIMTW,+17.5,C*3B
$IIMWV,330,R,21.5,N,A*15
$IIMWV,326,T,18.3,N,A*18
$IIRMC,161217,A,4612.988,N,00610.097,E,02.6,298,220814,,,A*40
$IIVHW,,,287,M,02.7,N,,*6C
$IIVLW,53475,N,000.1,N*52
$IIVWR,032,L,21.7,N,,,,*7A
$IIDPT,008.3,+0.7,*4B
$IIGLL,4612.988,N,00610.096,E,161218,A,A*5D
$IIHDG,288,,,,*55
$IIMTW,+17.5,C*3B
$IIMWV,328,R,21.7,N,A*1E
$IIMWV,326,T,19.1,N,A*1B
$IIRMC,161218,A,4612.988,N,00610.096,E,03.0,291,220814,,,A*40
$IIVHW,,,288,M,02.8,N,,*6C
$IIVLW,53475,N,000.1,N*52
$IIVWR,032,L,22.1,N,,,,*7F
$IIDPT,008.3,+0.7,*4B
$IIGLL,4612.989,N,00610.095,E,161219,A,A*5E
$IIHDG,288,,,,*55
$IIMTW,+17.5,C*3B
$IIMWV,328,R,22.1,N,A*1B
$IIMWV,323,T,19.3,N,A*1C
$IIRMC,161219,A,4612.989,N,00610.095,E,03.3,294,220814,,,A*45
$IIVHW,,,288,M,03.1,N,,*64
$IIVLW,53475,N,000.1,N*52
$IIVWR,031,L,21.3,N,,,,*7D
$IIDPT,008.3,+0.7,*4B
$IIGLL,4612.989,N,00610.094,E,161220,A,A*55
$IIHDG,288,,,,*55
$IIMTW,+17.5,C*3B
$IIMWV,329,R,21.3,N,A*1B
$IIMWV,323,T,19.5,N,A*1A
$IIRMC,161221,A,4612.989,N,00610.093,E,03.5,295,220814,,,A*4F
$IIVHW,,,289,M,03.3,N,,*67
$IIVLW,53475,N,000.1,N*52
$IIVWR,031,L,21.8,N,,,,*76
$IIDPT,008.3,+0.7,*4B
$IIGLL,4612.989,N,00610.093,E,161221,A,A*53
$IIHDG,289,,,,*54
$IIMTW,+17.5,C*3B
$IIMWV,329,R,21.8,N,A*10
$IIMWV,323,T,19.0,N,A*1F
$IIRMC,161222,A,4612.989,N,00610.092,E,03.8,295,220814,,,A*40
$IIVHW,,,289,M,03.5,N,,*61
$IIVLW,53475,N,000.1,N*52
$IIVWR,032,L,21.8,N,,,,*75
$IIDPT,008.3,+0.7,*4B
$IIGLL,4612.989,N,00610.092,E,161222,A,A*51
$IIHDG,289,,,,*54
$IIMTW,+17.5,C*3B
$IIMWV,327,R,22.3,N,A*16
$IIMWV,323,T,18.9,N,A*17
$IIRMC,161223,A,4612.990,N,00610.090,E,04.0,296,220814,,,A*47
$IIVHW,,,289,M,03.6,N,,*62
$IIVLW,53475,N,000.1,N*52
$IIVWR,033,L,22.3,N,,,,*7C
$IIDPT,008.3,+0.7,*4B
$IIGLL,4612.990,N,00610.090,E,161223,A,A*5A
$IIHDG,289,,,,*54
$IIMTW,+17.5,C*3B
$IIMWV,325,R,23.0,N,A*16
$IIMWV,320,T,19.7,N,A*1B
$IIRMC,161225,A,4612.990,N,00610.087,E,04.4,290,220814,,,A*45
$IIVHW,,,289,M,04.0,N,,*63
$IIVLW,53475,N,000.1,N*52
$IIVWR,035,L,23.0,N,,,,*78
$IIDPT,008.3,+0.7,*4B
$IIGLL,4612.990,N,00610.087,E,161225,A,A*5A
$IIHDG,290,,,,*5C
$IIMTW,+17.5,C*3B
$IIMWV,324,R,22.6,N,A*10
$IIMWV,318,T,19.6,N,A*11
$IIRMC,161226,A,4612.991,N,00610.086,E,04.5,295,220814,,,A*42
$IIVHW,,,290,M,04.1,N,,*6A
$IIVLW,53475,N,000.1,N*52
$IIVWR,036,L,22.6,N,,,,*7C
$IIDPT,008.3,+0.7,*4B
$IIGLL,4612.991,N,00610.084,E,161227,A,A*5A
$IIHDG,293,,,,*5F
$IIMTW,+17.5,C*3B
$IIMWV,323,R,22.3,N,A*12
$IIMWV,317,T,19.3,N,A*1B
$IIRMC,161227,A,4612.991,N,00610.084,E,04.8,295,220814,,,A*4C
$IIVHW,,,293,M,04.3,N,,*6B
$IIVLW,53475,N,000.1,N*52
$IIVWR,037,L,22.3,N,,,,*78
$IIDPT,008.3,+0.7,*4B
$IIGLL,4612.992,N,00610.082,E,161228,A,A*50
$IIHDG,295,,,,*59
$IIMTW,+17.5,C*3B
$IIMWV,323,R,22.8,N,A*19
$IIMWV,315,T,18.8,N,A*13
$IIRMC,161228,A,4612.992,N,00610.082,E,04.8,298,220814,,,A*4B
$IIVHW,,,295,M,04.5,N,,*6B
$IIVLW,53475,N,000.1,N*52
$IIVWR,039,L,22.2,N,,,,*77
$IIDPT,008.3,+0.7,*4B
$IIGLL,4612.993,N,00610.081,E,161229,A,A*53
$IIHDG,295,,,,*59
$IIMTW,+17.5,C*3B
$IIMWV,321,R,22.2,N,A*11
$IIMWV,315,T,19.3,N,A*19
$IIRMC,161229,A,4612.993,N,00610.081,E,05.0,297,220814,,,A*4E
$IIVHW,,,295,M,04.6,N,,*68
$IIVLW,53475,N,000.1,N*52
$IIVWR,041,L,22.8,N,,,,*72
$IIDPT,008.3,+0.7,*4B
$IIGLL,4612.993,N,00610.079,E,161230,A,A*5C
$IIHDG,295,,,,*59
$IIMTW,+17.5,C*3B
$IIMWV,319,R,22.8,N,A*10
$IIMWV,312,T,18.7,N,A*1B
$IIRMC,161230,A,4612.993,N,00610.079,E,05.1,301,220814,,,A*4E
$IIVHW,,,295,M,04.8,N,,*66
$IIVLW,53475,N,000.1,N*52
$IIVWR,044,L,23.4,N,,,,*7A
$IIDPT,008.3,+0.7,*4B
$IIGLL,4612.994,N,00610.077,E,161231,A,A*54
$IIHDG,295,,,,*59
$IIMTW,+17.5,C*3B
$IIMWV,316,R,23.4,N,A*12
$IIMWV,309,T,19.3,N,A*14
$IIRMC,161232,A,4612.995,N,00610.075,E,05.3,290,220814,,,A*4D
$IIVHW,,,293,M,04.8,N,,*60
$IIVLW,53475,N,000.1,N*52
$IIVWR,045,L,23.6,N,,,,*79
$IIDPT,008.3,+0.7,*4B
$IIGLL,4612.995,N,00610.075,E,161232,A,A*54
$IIHDG,293,,,,*5F
$IIMTW,+17.5,C*3B
$IIMWV,315,R,23.6,N,A*13
$IIMWV,305,T,20.5,N,A*14
$IIRMC,161233,A,4612.995,N,00610.074,E,04.9,296,220814,,,A*40
$IIVHW,,,293,M,04.8,N,,*60
$IIVLW,53475,N,000.1,N*52
$IIVWR,044,L,23.1,N,,,,*7F
$IIDPT,008.3,+0.7,*4B
$IIGLL,4612.995,N,00610.074,E,161233,A,A*54
$IIHDG,293,,,,*5F
$IIMTW,+17.5,C*3B
$IIMWV,318,R,22.2,N,A*1B
$IIMWV,307,T,19.8,N,A*11
$IIRMC,161234,A,4612.996,N,00610.072,E,04.7,300,220814,,,A*42
$IIVHW,,,296,M,04.7,N,,*6A
$IIVLW,53475,N,000.1,N*52
$IIVWR,042,L,22.2,N,,,,*7B
$IIDPT,008.3,+0.7,*4B
$IIGLL,4612.996,N,00610.072,E,161234,A,A*56
$IIHDG,296,,,,*5A
$IIMTW,+17.5,C*3B
$IIMWV,319,R,21.5,N,A*1E
$IIMWV,308,T,18.8,N,A*1F
$IIRMC,161235,A,4612.997,N,00610.070,E,05.1,300,220814,,,A*47
$IIVHW,,,297,M,04.6,N,,*6A
$IIVLW,53475,N,000.1,N*52
$IIVWR,041,L,21.5,N,,,,*7C
$IIDPT,008.3,+0.7,*4B
$IIGLL,4612.997,N,00610.070,E,161235,A,A*54
$IIHDG,297,,,,*5B
$IIMTW,+17.5,C*3B
$IIMWV,317,R,22.4,N,A*12
$IIMWV,309,T,18.1,N,A*17
$IIRMC,161236,A,4612.998,N,00610.069,E,06.1,301,220814,,,A*41
$IIVHW,,,297,M,04.6,N,,*6A
$IIVLW,53475,N,000.2,N*51
$IIVWR,043,L,22.4,N,,,,*7C
$IIDPT,008.3,+0.7,*4B
$IIGLL,4612.999,N,00610.067,E,161237,A,A*5E
$IIHDG,300,,,,*54
$IIMTW,+17.5,C*3B
$IIMWV,319,R,24.0,N,A*1E
$IIMWV,308,T,19.1,N,A*17
$IIRMC,161237,A,4612.999,N,00610.067,E,05.3,302,220814,,,A*4D
$IIVHW,,,300,M,04.6,N,,*65
$IIVLW,53475,N,000.2,N*51
$IIVWR,041,L,24.0,N,,,,*7C
$IIDPT,008.3,+0.7,*4B
$IIGLL,4613.000,N,00610.065,E,161238,A,A*5B
$IIHDG,300,,,,*54
$IIMTW,+17.5,C*3B
$IIMWV,321,R,24.1,N,A*14
$IIMWV,310,T,20.6,N,A*13
$IIRMC,161238,A,4613.000,N,00610.065,E,05.1,307,220814,,,A*4F
$IIVHW,,,300,M,04.7,N,,*64
$IIVLW,53475,N,000.2,N*51
$IIVWR,039,L,26.3,N,,,,*72
$IIDPT,008.3,+0.7,*4B
$IIGLL,4613.000,N,00610.065,E,161238,A,A*5B
$IIHDG,295,,,,*59
$IIMTW,+17.5,C*3B
$IIMWV,321,R,26.3,N,A*14
$IIMWV,313,T,20.5,N,A*13
$IIRMC,161238,A,4613.000,N,00610.065,E,05.1,307,220814,,,A*4F
$IIVHW,,,295,M,04.9,N,,*67
$IIVLW,53475,N,000.2,N*51
$IIVWR,039,L,28.0,N,,,,*7F
$IIDPT,008.3,+0.7,*4B
$IIGLL,4613.001,N,00610.062,E,161240,A,A*52
$IIHDG,290,,,,*5C
$IIMTW,+17.5,C*3B
$IIMWV,321,R,28.0,N,A*19
$IIMWV,313,T,22.7,N,A*13
$IIRMC,161240,A,4613.001,N,00610.062,E,05.7,296,220814,,,A*49
$IIVHW,,,287,M,05.1,N,,*6D
$IIVLW,53475,N,000.2,N*51
$IIVWR,039,L,28.9,N,,,,*76
$IIDPT,008.3,+0.7,*4B
$IIGLL,4613.002,N,00610.060,E,161241,A,A*52
$IIHDG,287,,,,*5A
$IIMTW,+17.5,C*3B
$IIMWV,321,R,28.9,N,A*10
$IIMWV,314,T,24.2,N,A*17
$IIRMC,161242,A,4613.003,N,00610.058,E,06.2,299,220814,,,A*49
$IIVHW,,,287,M,05.2,N,,*6E
$IIVLW,53475,N,000.2,N*51
$IIVWR,037,L,29.1,N,,,,*71
$IIDPT,008.4,+0.7,*4C
$IIGLL,4613.003,N,00610.058,E,161242,A,A*5B
$IIHDG,287,,,,*5A
$IIMTW,+17.5,C*3B
$IIMWV,323,R,29.1,N,A*1B
$IIMWV,316,T,25.0,N,A*16
$IIRMC,161243,A,4613.003,N,00610.055,E,06.8,283,220814,,,A*44
$IIVHW,,,285,M,05.2,N,,*6C
$IIVLW,53475,N,000.2,N*51
$IIVWR,036,L,28.7,N,,,,*77
$IIDPT,008.5,+0.7,*4D
$IIGLL,4613.003,N,00610.055,E,161243,A,A*57
$IIHDG,285,,,,*58
$IIMTW,+17.5,C*3B
$IIMWV,325,R,28.3,N,A*1E
$IIMWV,317,T,24.6,N,A*10
$IIRMC,161244,A,4613.004,N,00610.053,E,04.9,304,220814,,,A*4F
$IIVHW,,,288,M,05.1,N,,*62
$IIVLW,53475,N,000.2,N*51
$IIVWR,035,L,28.3,N,,,,*70
$IIDPT,008.5,+0.7,*4D
$IIGLL,4613.004,N,00610.053,E,161244,A,A*51
$IIHDG,288,,,,*55
$IIMTW,+17.5,C*3B
$IIMWV,326,R,28.2,N,A*1C
$IIMWV,318,T,24.2,N,A*1B
$IIRMC,161245,A,4613.005,N,00610.050,E,05.4,293,220814,,,A*4F
$IIVHW,,,286,M,05.0,N,,*6D
$IIVLW,53475,N,000.2,N*51
$IIVWR,034,L,28.2,N,,,,*70
$IIDPT,008.5,+0.7,*4D
$IIGLL,4613.005,N,00610.050,E,161245,A,A*52
$IIHDG,287,,,,*5A
$IIMTW,+18.0,C*31
$IIMWV,326,R,28.0,N,A*1E
$IIMWV,320,T,24.1,N,A*13
$IIRMC,161246,A,4613.006,N,00610.048,E,05.4,291,220814,,,A*44
$IIVHW,,,287,M,04.9,N,,*64
$IIVLW,53475,N,000.2,N*51
