$IIVHW,,,271,M,,,,*30
$IIHDG,271,,,,*53
$IIVHW,,,271,M,00.0,N,,*60
$IIHDG,271,,,,*53
$IIMTW,+00.0,C*38
$IIVHW,,,271,M,00.0,N,,*60
$IIHDG,271,,,,*53
$IIMTW,+07.5,C*3A
$IIVHW,,,271,M,00.0,N,,*60
$IIVWR,133,R,01.8,N,,,,*69
$IIDPT,001.7,-1.0,*46
$IIHDG,271,,,,*53
$IIMTW,+07.5,C*3A
$IIMWV,133,R,01.8,N,A*1B
$IIVHW,,,271,M,00.0,N,,*60
$IIVWR,097,R,04.7,N,,,,*6C
$IIDPT,001.7,-1.0,*46
$IIHDG,271,,,,*53
$IIMTW,+08.0,C*30
$IIMWV,097,R,04.7,N,A*1E
$IIMWV,133,T,01.8,N,A*1D
$IIVHW,,,271,M,00.0,N,,*60
$IIVWR,098,R,05.5,N,,,,*60
$IIDPT,001.7,-1.0,*46
$IIHDG,271,,,,*53
$IIMTW,+08.0,C*30
$IIMWV,098,R,05.5,N,A*12
$IIMWV,097,T,04.7,N,A*18
$IIVHW,,,271,M,00.0,N,,*60
$IIVWR,088,R,06.4,N,,,,*63
$IIDPT,001.7,-1.0,*46
$IIHDG,271,,,,*53
$IIMTW,+08.0,C*30
$IIMWV,088,R,06.4,N,A*11
$IIMWV,098,T,05.5,N,A*14
$IIVHW,,,272,M,00.0,N,,*63
$IIVWR,084,R,06.1,N,,,,*6A
$IIDPT,001.7,-1.0,*46
$IIHDG,272,,,,*50
$IIMTW,+08.0,C*30
$IIMWV,084,R,06.1,N,A*18
$IIMWV,088,T,06.4,N,A*17
$IIVHW,,,272,M,00.0,N,,*63
$IIVWR,079,R,05.9,N,,,,*63
$IIDPT,001.7,-1.0,*46
$IIHDG,272,,,,*50
$IIMTW,+08.0,C*30
$IIMWV,079,R,05.9,N,A*11
$IIMWV,084,T,06.1,N,A*1E
$IIVHW,,,271,M,00.0,N,,*60
$IIVWR,082,R,06.5,N,,,,*68
$IIDPT,001.7,-1.0,*46
$IIHDG,271,,,,*53
$IIMTW,+08.0,C*30
$IIMWV,082,R,06.5,N,A*1A
$IIMWV,079,T,05.9,N,A*17
$IIVHW,,,271,M,00.0,N,,*60
$IIVWR,083,R,06.7,N,,,,*6B
$IIDPT,001.7,-1.0,*46
$IIHDG,271,,,,*53
$IIMTW,+08.0,C*30
$IIMWV,083,R,06.7,N,A*19
$IIMWV,082,T,06.5,N,A*1C
$IIVHW,,,271,M,00.0,N,,*60
$IIVWR,082,R,06.5,N,,,,*68
$IIDPT,001.7,-1.0,*46
$IIHDG,271,,,,*53
$IIMTW,+08.0,C*30
$IIMWV,082,R,06.5,N,A*1A
$IIMWV,083,T,06.7,N,A*1F
$IIVHW,,,271,M,00.0,N,,*60
$IIVWR,104,R,06.5,N,,,,*67
$IIDPT,001.7,-1.0,*46
$IIHDG,271,,,,*53
$IIMTW,+08.0,C*30
$IIMWV,104,R,06.5,N,A*15
$IIMWV,082,T,06.5,N,A*1C
$IIVHW,,,271,M,00.0,N,,*60
$IIVWR,100,R,07.1,N,,,,*66
$IIDPT,001.7,-1.0,*46
$IIHDG,271,,,,*53
$IIMTW,+08.0,C*30
$IIMWV,100,R,07.1,N,A*14
$IIMWV,104,T,06.5,N,A*13
$IIVHW,,,271,M,00.0,N,,*60
$IIVWR,085,R,08.4,N,,,,*60
$IIDPT,001.7,-1.0,*46
$IIHDG,271,,,,*53
$IIMTW,+08.0,C*30
$IIMWV,085,R,08.4,N,A*12
$IIMWV,100,T,07.1,N,A*12
$IIVHW,,,271,M,00.0,N,,*60
$IIVWR,082,R,09.1,N,,,,*63
$IIDPT,001.7,-1.0,*46
$IIHDG,271,,,,*53
$IIMTW,+08.0,C*30
$IIMWV,082,R,09.1,N,A*11
$IIMWV,085,T,08.4,N,A*14
$IIVHW,,,271,M,00.0,N,,*60
$IIVWR,090,R,09.4,N,,,,*65
$IIDPT,001.7,-1.0,*46
$IIHDG,271,,,,*53
$IIMTW,+08.0,C*30
$IIMWV,090,R,09.4,N,A*17
$IIMWV,082,T,09.1,N,A*17
$IIVHW,,,271,M,00.0,N,,*60
$IIVWR,112,R,09.0,N,,,,*6A
$IIDPT,001.7,-1.0,*46
$IIHDG,271,,,,*53
$IIMTW,+08.0,C*30
$IIMWV,112,R,09.0,N,A*18
$IIMWV,090,T,09.4,N,A*11
$IIVHW,,,271,M,00.0,N,,*60
$IIVWR,153,R,08.2,N,,,,*6C
$IIDPT,001.7,-1.0,*46
$IIHDG,271,,,,*53
$IIMTW,+08.0,C*30
$IIMWV,153,R,08.2,N,A*1E
$IIMWV,112,T,09.0,N,A*1E
$IIVHW,,,271,M,00.0,N,,*60
$IIVWR,138,R,07.4,N,,,,*68
$IIDPT,001.7,-1.0,*46
$IIHDG,271,,,,*53
$IIMTW,+08.0,C*30
$IIMWV,138,R,07.4,N,A*1A
$IIMWV,153,T,08.2,N,A*18
$IIVHW,,,271,M,00.0,N,,*60
$IIVWR,122,R,06.2,N,,,,*64
$IIDPT,001.7,-1.0,*46
$IIHDG,271,,,,*53
$IIMTW,+09.0,C*31
$IIMWV,122,R,06.2,N,A*16
$IIMWV,138,T,07.4,N,A*1C
$IIVHW,,,272,M,00.0,N,,*63
$IIVWR,133,R,06.8,N,,,,*6E
$IIDPT,001.7,-1.0,*46
$IIHDG,272,,,,*50
$IIMTW,+08.5,C*35
$IIMWV,133,R,06.8,N,A*1C
$IIMWV,122,T,06.2,N,A*10
$IIVHW,,,272,M,00.0,N,,*63
$IIVWR,129,R,07.1,N,,,,*6D
$IIDPT,001.7,-1.0,*46
$IIHDG,272,,,,*50
$IIMTW,+08.5,C*35
$IIMWV,129,R,07.1,N,A*1F
$IIMWV,133,T,06.8,N,A*1A
$IIVHW,,,272,M,00.0,N,,*63
$IIVWR,125,R,07.7,N,,,,*67
$IIDPT,001.7,-1.0,*46
$IIHDG,272,,,,*50
$IIMTW,+08.0,C*30
$IIMWV,125,R,07.7,N,A*15
$IIMWV,129,T,07.1,N,A*19
$IIVHW,,,273,M,00.0,N,,*62
$IIVWR,120,R,08.0,N,,,,*6A
$IIDPT,001.7,-1.0,*46
$IIHDG,273,,,,*51
$IIMTW,+08.0,C*30
$IIMWV,120,R,08.0,N,A*18
$IIMWV,125,T,07.7,N,A*13
$IIVHW,,,274,M,00.0,N,,*65
$IIVWR,123,R,08.9,N,,,,*60
$IIDPT,001.7,-1.0,*46
$IIHDG,274,,,,*56
$IIMTW,+08.0,C*30
$IIMWV,123,R,08.9,N,A*12
$IIMWV,120,T,08.0,N,A*1E
$IIVHW,,,274,M,00.0,N,,*65
$IIVWR,121,R,10.1,N,,,,*63
$IIDPT,001.7,-1.0,*46
$IIHDG,274,,,,*56
$IIMTW,+09.0,C*31
$IIMWV,121,R,10.1,N,A*11
$IIMWV,123,T,08.9,N,A*14
$IIVHW,,,274,M,00.0,N,,*65
$IIVWR,124,R,10.5,N,,,,*62
$IIDPT,001.7,-1.0,*46
$IIHDG,274,,,,*56
$IIMTW,+08.5,C*35
$IIMWV,124,R,10.5,N,A*10
$IIMWV,121,T,10.1,N,A*17
$IIVHW,,,274,M,00.0,N,,*65
$IIVWR,122,R,10.7,N,,,,*66
$IIDPT,001.7,-1.0,*46
$IIHDG,274,,,,*56
$IIMTW,+08.5,C*35
$IIMWV,122,R,10.7,N,A*14
$IIMWV,124,T,10.5,N,A*16
$IIVHW,,,275,M,00.0,N,,*64
$IIVWR,118,R,11.2,N,,,,*6B
$IIDPT,001.7,-1.0,*46
$IIHDG,275,,,,*57
$IIMTW,+08.5,C*35
$IIMWV,118,R,11.2,N,A*19
$IIMWV,122,T,10.7,N,A*12
$IIVHW,,,274,M,00.0,N,,*65
$IIVWR,102,R,11.5,N,,,,*67
$IIDPT,001.7,-1.0,*46
$IIHDG,274,,,,*56
$IIMTW,+08.5,C*35
$IIMWV,102,R,11.5,N,A*15
$IIMWV,118,T,11.2,N,A*1F
$IIVHW,,,274,M,00.0,N,,*65
$IIVWR,087,R,11.7,N,,,,*69
$IIDPT,001.7,-1.0,*46
$IIHDG,274,,,,*56
$IIMTW,+08.5,C*35
$IIMWV,087,R,11.7,N,A*1B
$IIMWV,102,T,11.5,N,A*13
$IIVHW,,,274,M,00.0,N,,*65
$IIVWR,081,R,11.8,N,,,,*60
$IIDPT,001.7,-1.0,*46
$IIHDG,274,,,,*56
$IIMTW,+08.5,C*35
$IIMWV,081,R,11.8,N,A*12
$IIMWV,087,T,11.7,N,A*1D
$IIVHW,,,273,M,00.0,N,,*62
$IIVWR,089,R,11.4,N,,,,*64
$IIDPT,001.7,-1.0,*46
$IIHDG,273,,,,*51
$IIMTW,+08.5,C*35
$IIMWV,089,R,11.4,N,A*16
$IIMWV,081,T,11.8,N,A*14
$IIVHW,,,273,M,00.0,N,,*62
$IIVWR,101,R,10.9,N,,,,*69
$IIDPT,001.7,-1.0,*46
$IIHDG,273,,,,*51
$IIMTW,+08.5,C*35
$IIMWV,101,R,10.9,N,A*1B
$IIMWV,089,T,11.4,N,A*10
$IIVHW,,,273,M,00.0,N,,*62
$IIVWR,108,R,10.7,N,,,,*6E
$IIDPT,001.7,-1.0,*46
$IIHDG,273,,,,*51
$IIMTW,+08.5,C*35
$IIMWV,108,R,10.7,N,A*1C
$IIMWV,101,T,10.9,N,A*1D
$IIVHW,,,273,M,00.0,N,,*62
$IIVWR,115,R,10.7,N,,,,*62
$IIDPT,001.7,-1.0,*46
$IIHDG,273,,,,*51
$IIMTW,+08.5,C*35
$IIMWV,115,R,10.7,N,A*10
$IIMWV,108,T,10.7,N,A*1A
$IIVHW,,,273,M,00.0,N,,*62
$IIVWR,118,R,10.8,N,,,,*60
$IIDPT,001.7,-1.0,*46
$IIHDG,273,,,,*51
$IIMTW,+08.5,C*35
$IIMWV,118,R,10.8,N,A*12
$IIMWV,115,T,10.7,N,A*16
$IIVHW,,,274,M,00.0,N,,*65
$IIVWR,109,R,10.9,N,,,,*61
$IIDPT,001.7,-1.0,*46
$IIHDG,274,,,,*56
$IIMTW,+08.5,C*35
$IIMWV,109,R,10.9,N,A*13
$IIMWV,118,T,10.8,N,A*14
$IIVHW,,,274,M,00.0,N,,*65
$IIVWR,112,R,10.6,N,,,,*64
$IIDPT,001.7,-1.0,*46
$IIHDG,274,,,,*56
$IIMTW,+08.5,C*35
$IIMWV,112,R,10.6,N,A*16
$IIMWV,109,T,10.9,N,A*15
$IIVHW,,,273,M,00.0,N,,*62
$IIVWR,114,R,09.7,N,,,,*6B
$IIDPT,001.7,-1.0,*46
$IIHDG,273,,,,*51
$IIMTW,+08.5,C*35
$IIMWV,114,R,09.7,N,A*19
$IIMWV,112,T,10.6,N,A*10
$IIVHW,,,274,M,00.0,N,,*65
$IIVWR,116,R,09.0,N,,,,*6E
$IIDPT,001.7,-1.0,*46
$IIHDG,274,,,,*56
$IIMTW,+08.5,C*35
$IIMWV,116,R,09.0,N,A*1C
$IIMWV,114,T,09.7,N,A*1F
$IIVHW,,,274,M,00.0,N,,*65
$IIVWR,121,R,08.3,N,,,,*68
$IIDPT,001.7,-1.0,*46
$IIHDG,274,,,,*56
$IIMTW,+08.5,C*35
$IIMWV,121,R,08.3,N,A*1A
$IIMWV,116,T,09.0,N,A*1A
$IIRMB,A,0.00,L,,VIDY,,,,,003.16,281,,V,A*7A
$IIRMC,171832,A,4630.083,N,00641.037,E,00.0,000,200508,,,A*45
$IIVHW,,,274,M,00.0,N,,*65
$IIVWR,114,R,07.8,N,,,,*6A
$IIDPT,001.7,-1.0,*46
$IIGLL,4630.083,N,00641.037,E,171832,A,A*53
$IIHDG,274,,,,*56
$IIMTW,+08.5,C*35
$IIMWV,121,R,07.9,N,A*1F
$IIMWV,114,T,07.8,N,A*1E
$IIRMC,171832,A,4630.083,N,00641.037,E,00.0,000,200508,,,A*45
$IIVHW,,,274,M,00.0,N,,*65
$IIVWR,121,R,07.9,N,,,,*6D
$IIDPT,001.7,-1.0,*46
$IIGLL,4630.083,N,00641.037,E,171832,A,A*53
$IIHDG,274,,,,*56
$IIMTW,+08.5,C*35
$IIMWV,121,R,08.3,N,A*1A
$IIMWV,121,T,07.9,N,A*19
$IIRMB,A,0.00,L,,VIDY,,,,,003.15,281,,V,A*79
$IIRMC,171834,A,4630.083,N,00641.035,E,00.0,000,200508,,,A*41
$IIVHW,,,274,M,00.0,N,,*65
$IIVWR,121,R,08.3,N,,,,*68
$IIDPT,001.7,-1.0,*46
$IIGLL,4630.083,N,00641.035,E,171834,A,A*57
$IIHDG,274,,,,*56
$IIMTW,+08.0,C*30
$IIMWV,119,R,08.2,N,A*10
$IIMWV,121,T,08.3,N,A*1C
$IIRMC,171834,A,4630.083,N,00641.035,E,00.0,000,200508,,,A*41
$IIVHW,,,274,M,00.0,N,,*65
$IIVWR,119,R,08.2,N,,,,*62
$IIDPT,001.7,-1.0,*46
$IIGLL,4630.083,N,00641.037,E,171836,A,A*57
$IIHDG,275,,,,*57
$IIMTW,+08.0,C*30
$IIMWV,119,R,08.0,N,A*12
$IIMWV,119,T,08.2,N,A*16
$IIRMB,A,0.00,L,,VIDY,,,,,003.16,281,,V,A*7A
$IIRMC,171836,A,4630.083,N,00641.037,E,00.0,000,200508,,,A*41
$IIVHW,,,275,M,00.0,N,,*64
$IIVWR,112,R,07.4,N,,,,*60
$IIDPT,001.7,-1.0,*46
$IIGLL,4630.083,N,00641.037,E,171836,A,A*57
$IIHDG,275,,,,*57
$IIMTW,+08.0,C*30
$IIMWV,112,R,07.4,N,A*12
$IIMWV,119,T,08.0,N,A*14
$IIRMC,171836,A,4630.083,N,00641.037,E,00.0,000,200508,,,A*41
$IIVHW,,,275,M,00.0,N,,*64
$IIVWR,120,R,06.7,N,,,,*63
$IIDPT,001.7,-1.0,*46
$IIGLL,4630.082,N,00641.037,E,171838,A,A*58
$IIHDG,275,,,,*57
$IIMTW,+08.0,C*30
$IIMWV,120,R,06.7,N,A*11
$IIMWV,112,T,07.4,N,A*14
$IIRMB,A,0.00,L,,VIDY,,,,,003.16,281,,V,A*7A
$IIRMC,171838,A,4630.082,N,00641.037,E,00.0,000,200508,,,A*4E
$IIVHW,,,275,M,00.0,N,,*64
$IIVWR,130,R,06.0,N,,,,*65
$IIDPT,001.7,-1.0,*46
$IIGLL,4630.082,N,00641.037,E,171838,A,A*58
$IIHDG,275,,,,*57
$IIMTW,+08.0,C*30
$IIMWV,130,R,06.0,N,A*17
$IIMWV,130,T,06.0,N,A*11
$IIRMB,A,0.00,L,,VIDY,,,,,003.16,281,,V,A*7A
$IIRMC,171840,A,4630.083,N,00641.037,E,00.0,000,200508,,,A*40
$IIVHW,,,275,M,00.0,N,,*64
$IIVWR,137,R,05.6,N,,,,*67
$IIDPT,001.7,-1.0,*46
$IIGLL,4630.083,N,00641.037,E,171840,A,A*56
$IIHDG,275,,,,*57
$IIMTW,+08.0,C*30
$IIMWV,133,R,05.5,N,A*12
$IIMWV,137,T,05.6,N,A*13
$IIRMC,171840,A,4630.083,N,00641.037,E,00.0,000,200508,,,A*40
$IIVHW,,,275,M,00.0,N,,*64
$IIVWR,133,R,05.5,N,,,,*60
$IIDPT,001.7,-1.0,*46
$IIGLL,4630.083,N,00641.035,E,171842,A,A*56
$IIHDG,275,,,,*57
$IIMTW,+08.0,C*30
$IIMWV,126,R,05.3,N,A*10
$IIMWV,133,T,05.5,N,A*14
$IIRMB,A,0.00,L,,VIDY,,,,,003.16,281,,V,A*7A
$IIRMC,171842,A,4630.083,N,00641.035,E,00.0,000,200508,,,A*40
$IIVHW,,,275,M,00.0,N,,*64
$IIVWR,127,R,05.2,N,,,,*62
$IIDPT,001.7,-1.0,*46
$IIGLL,4630.083,N,00641.035,E,171842,A,A*56
$IIHDG,275,,,,*57
$IIMTW,+08.0,C*30
$IIMWV,127,R,05.2,N,A*10
$IIMWV,126,T,05.3,N,A*16
$IIRMC,171842,A,4630.083,N,00641.035,E,00.0,000,200508,,,A*40
$IIVHW,,,275,M,00.0,N,,*64
$IIVWR,131,R,05.0,N,,,,*67
$IIDPT,001.7,-1.0,*46
$IIGLL,4630.084,N,00641.034,E,171844,A,A*56
$IIHDG,275,,,,*57
$IIMTW,+08.0,C*30
$IIMWV,131,R,05.0,N,A*15
$IIMWV,127,T,05.2,N,A*16
$IIRMB,A,0.00,L,,VIDY,,,,,003.15,281,,V,A*79
$IIRMC,171844,A,4630.084,N,00641.034,E,00.0,000,200508,,,A*40
$IIVHW,,,274,M,00.0,N,,*65
$IIVWR,139,R,05.1,N,,,,*6E
$IIDPT,001.7,-1.0,*46
$IIGLL,4630.084,N,00641.034,E,171844,A,A*56
$IIHDG,274,,,,*56
$IIMTW,+08.0,C*30
$IIMWV,139,R,05.1,N,A*1C
$IIMWV,139,T,05.1,N,A*1A
$IIRMB,A,0.00,L,,VIDY,,,,,003.15,281,,V,A*79
$IIRMC,171846,A,4630.084,N,00641.033,E,00.0,000,200508,,,A*45
$IIVHW,,,275,M,00.0,N,,*64
$IIVWR,149,R,05.3,N,,,,*6B
$IIDPT,001.7,-1.0,*46
$IIGLL,4630.084,N,00641.033,E,171846,A,A*53
$IIHDG,275,,,,*57
$IIMTW,+08.0,C*30
$IIMWV,150,R,06.0,N,A*11
$IIMWV,149,T,05.3,N,A*1F
$IIRMC,171846,A,4630.084,N,00641.033,E,00.0,000,200508,,,A*45
$IIVHW,,,275,M,00.0,N,,*64
$IIVWR,150,R,06.0,N,,,,*63
$IIDPT,001.7,-1.0,*46
$IIGLL,4630.084,N,00641.033,E,171848,A,A*5D
$IIHDG,274,,,,*56
$IIMTW,+08.0,C*30
$IIMWV,148,R,06.0,N,A*18
$IIMWV,150,T,06.0,N,A*17
$IIRMB,A,0.00,L,,VIDY,,,,,003.15,281,,V,A*79
$IIRMC,171848,A,4630.084,N,00641.033,E,00.0,000,200508,,,A*4B
$IIVHW,,,274,M,00.0,N,,*65
$IIVWR,144,R,06.3,N,,,,*65
$IIDPT,001.7,-1.0,*46
$IIGLL,4630.084,N,00641.033,E,171848,A,A*5D
$IIHDG,274,,,,*56
$IIMTW,+08.0,C*30
$IIMWV,144,R,06.3,N,A*17
$IIMWV,148,T,06.0,N,A*1E
$IIRMC,171848,A,4630.084,N,00641.033,E,00.0,000,200508,,,A*4B
$IIVHW,,,274,M,00.0,N,,*65
$IIVWR,140,R,06.6,N,,,,*64
$IIDPT,001.7,-1.0,*46
$IIGLL,4630.084,N,00641.033,E,171850,A,A*54
$IIHDG,274,,,,*56
$IIMTW,+08.0,C*30
$IIMWV,140,R,06.6,N,A*16
$IIMWV,144,T,06.3,N,A*11
$IIRMB,A,0.00,L,,VIDY,,,,,003.15,281,,V,A*79
$IIRMC,171850,A,4630.084,N,00641.033,E,00.0,000,200508,,,A*42
$IIVHW,,,274,M,00.0,N,,*65
$IIVWR,136,R,06.9,N,,,,*6A
$IIDPT,001.7,-1.0,*46
$IIGLL,4630.084,N,00641.033,E,171850,A,A*54
$IIHDG,274,,,,*56
$IIMTW,+08.0,C*30
$IIMWV,136,R,06.9,N,A*18
$IIMWV,136,T,06.9,N,A*1E
$IIRMB,A,0.00,L,,VIDY,,,,,003.15,281,,V,A*79
$IIRMC,171852,A,4630.084,N,00641.033,E,00.0,000,200508,,,A*40
$IIVHW,,,274,M,00.0,N,,*65
$IIVWR,131,R,07.3,N,,,,*66
$IIDPT,001.7,-1.0,*46
$IIGLL,4630.084,N,00641.033,E,171852,A,A*56
$IIHDG,274,,,,*56
$IIMTW,+08.0,C*30
$IIMWV,129,R,07.4,N,A*1A
$IIMWV,131,T,07.3,N,A*12
$IIRMC,171852,A,4630.084,N,00641.033,E,00.0,000,200508,,,A*40
$IIVHW,,,274,M,00.0,N,,*65
$IIVWR,129,R,07.4,N,,,,*68
$IIDPT,001.7,-1.0,*46
$IIGLL,4630.084,N,00641.033,E,171854,A,A*50
$IIHDG,274,,,,*56
$IIMTW,+08.0,C*30
$IIMWV,121,R,07.5,N,A*13
$IIMWV,129,T,07.4,N,A*1C
$IIRMB,A,0.00,L,,VIDY,,,,,003.15,281,,V,A*79
$IIRMC,171854,A,4630.084,N,00641.033,E,00.0,000,200508,,,A*46
$IIVHW,,,274,M,00.0,N,,*65
$IIVWR,118,R,07.7,N,,,,*69
$IIDPT,001.7,-1.0,*46
$IIGLL,4630.084,N,00641.033,E,171854,A,A*50
$IIHDG,273,,,,*51
$IIMTW,+08.0,C*30
$IIMWV,118,R,07.7,N,A*1B
$IIMWV,121,T,07.5,N,A*15
$IIRMC,171854,A,4630.084,N,00641.033,E,00.0,000,200508,,,A*46
$IIVHW,,,273,M,00.0,N,,*62
$IIVWR,122,R,08.2,N,,,,*6A
$IIDPT,001.7,-1.0,*46
$IIGLL,4630.084,N,00641.033,E,171856,A,A*52
$IIHDG,273,,,,*51
$IIMTW,+08.0,C*30
$IIMWV,122,R,08.2,N,A*18
$IIMWV,118,T,07.7,N,A*1D
$IIRMB,A,0.00,L,,VIDY,,,,,003.15,281,,V,A*79
$IIRMC,171856,A,4630.084,N,00641.033,E,00.0,000,200508,,,A*44
$IIVHW,,,273,M,00.0,N,,*62
$IIVWR,124,R,08.5,N,,,,*6B
$IIDPT,001.7,-1.0,*46
$IIGLL,4630.084,N,00641.033,E,171856,A,A*52
$IIHDG,273,,,,*51
$IIMTW,+08.0,C*30
$IIMWV,124,R,08.5,N,A*19
$IIMWV,124,T,08.5,N,A*1F
$IIRMB,A,0.00,L,,VIDY,,,,,003.15,281,,V,A*79
$IIRMC,171858,A,4630.085,N,00641.033,E,00.0,000,200508,,,A*4B
$IIVHW,,,272,M,00.0,N,,*63
$IIVWR,126,R,09.0,N,,,,*6D
$IIDPT,001.7,-1.0,*46
$IIGLL,4630.085,N,00641.033,E,171858,A,A*5D
$IIHDG,272,,,,*50
$IIMTW,+08.0,C*30
$IIMWV,128,R,09.1,N,A*10
$IIMWV,130,T,09.2,N,A*1C
$IIRMB,A,0.00,L,,VIDY,,,,,003.15,281,,V,A*79
$IIRMC,171900,A,4630.085,N,00641.032,E,00.0,000,200508,,,A*46
$IIVHW,,,272,M,00.0,N,,*63
$IIVWR,128,R,09.1,N,,,,*62
$IIDPT,001.7,-1.0,*46
$IIGLL,4630.085,N,00641.032,E,171900,A,A*50
$IIHDG,272,,,,*50
$IIMTW,+08.0,C*30
$IIMWV,119,R,08.4,N,A*16
$IIMWV,128,T,09.1,N,A*16
$IIRMC,171900,A,4630.085,N,00641.032,E,00.0,000,200508,,,A*46
$IIVHW,,,272,M,00.0,N,,*63
$IIVWR,114,R,07.9,N,,,,*6B
$IIDPT,001.7,-1.0,*46
$IIGLL,4630.085,N,00641.032,E,171902,A,A*52
$IIHDG,273,,,,*51
$IIMTW,+08.0,C*30
$IIMWV,114,R,07.9,N,A*19
$IIMWV,119,T,08.4,N,A*10
$IIRMB,A,0.00,L,,VIDY,,,,,003.15,281,,V,A*79
$IIRMC,171902,A,4630.085,N,00641.032,E,00.0,000,200508,,,A*44
$IIVHW,,,273,M,00.0,N,,*62
$IIVWR,112,R,07.3,N,,,,*67
$IIDPT,001.7,-1.0,*46
$IIGLL,4630.085,N,00641.032,E,171902,A,A*52
$IIHDG,273,,,,*51
$IIMTW,+08.0,C*30
$IIMWV,112,R,07.3,N,A*15
$IIMWV,114,T,07.9,N,A*1F
$IIRMC,171904,A,4630.085,N,00641.032,E,00.0,000,200508,,,A*42
$IIVHW,,,272,M,00.0,N,,*63
$IIVWR,107,R,07.1,N,,,,*61
$IIDPT,001.7,-1.0,*46
$IIGLL,4630.085,N,00641.032,E,171904,A,A*54
$IIHDG,272,,,,*50
$IIMTW,+08.0,C*30
$IIMWV,107,R,07.1,N,A*13
$IIMWV,107,T,07.1,N,A*15
$IIRMB,A,0.00,L,,VIDY,,,,,003.15,281,,V,A*79
$IIRMC,171904,A,4630.085,N,00641.032,E,00.0,000,200508,,,A*42
$IIVHW,,,272,M,00.0,N,,*63
$IIVWR,104,R,07.9,N,,,,*6A
$IIDPT,001.7,-1.0,*46
$IIGLL,4630.085,N,00641.032,E,171904,A,A*54
$IIHDG,272,,,,*50
$IIMTW,+08.0,C*30
$IIMWV,104,R,09.1,N,A*1E
$IIMWV,104,T,07.9,N,A*1E
$IIRMB,A,0.00,L,,VIDY,,,,,003.15,281,,V,A*79
$IIRMC,171906,A,4630.085,N,00641.032,E,00.0,000,200508,,,A*40
$IIVHW,,,272,M,00.0,N,,*63
$IIVWR,104,R,09.1,N,,,,*6C
$IIDPT,001.7,-1.0,*46
$IIGLL,4630.085,N,00641.032,E,171906,A,A*56
$IIHDG,272,,,,*50
$IIMTW,+08.0,C*30
$IIMWV,105,R,10.5,N,A*13
$IIMWV,104,T,09.1,N,A*18
$IIRMC,171906,A,4630.085,N,00641.032,E,00.0,000,200508,,,A*40
$IIVHW,,,272,M,00.0,N,,*63
$IIVWR,111,R,11.4,N,,,,*64
$IIDPT,001.7,-1.0,*46
$IIGLL,4630.085,N,00641.033,E,171908,A,A*59
$IIHDG,272,,,,*50
$IIMTW,+08.0,C*30
$IIMWV,111,R,11.4,N,A*16
$IIMWV,105,T,10.5,N,A*15
$IIRMB,A,0.00,L,,VIDY,,,,,003.15,281,,V,A*79
$IIRMC,171908,A,4630.085,N,00641.033,E,00.0,000,200508,,,A*4F
$IIVHW,,,273,M,00.0,N,,*62
$IIVWR,110,R,11.6,N,,,,*67
$IIDPT,001.7,-1.0,*46
$IIGLL,4630.085,N,00641.033,E,171908,A,A*59
$IIHDG,273,,,,*51
$IIMTW,+08.0,C*30
$IIMWV,110,R,11.6,N,A*15
$IIMWV,111,T,11.4,N,A*10
$IIRMC,171910,A,4630.085,N,00641.033,E,00.0,000,200508,,,A*46
$IIVHW,,,273,M,00.0,N,,*62
$IIVWR,107,R,11.3,N,,,,*64
$IIDPT,001.7,-1.0,*46
$IIGLL,4630.085,N,00641.033,E,171910,A,A*50
$IIHDG,273,,,,*51
$IIMTW,+08.0,C*30
$IIMWV,107,R,11.3,N,A*16
$IIMWV,107,T,11.3,N,A*10
$IIRMB,A,0.00,L,,VIDY,,,,,003.15,281,,V,A*79
$IIRMC,171910,A,4630.085,N,00641.033,E,00.0,000,200508,,,A*46
$IIVHW,,,273,M,00.0,N,,*62
$IIVWR,111,R,11.3,N,,,,*63
$IIDPT,001.7,-1.0,*46
$IIGLL,4630.085,N,00641.033,E,171910,A,A*50
$IIHDG,273,,,,*51
$IIMTW,+09.0,C*31
$IIMWV,116,R,11.3,N,A*16
$IIMWV,111,T,11.3,N,A*17
$IIRMB,A,0.00,L,,VIDY,,,,,003.15,281,,V,A*79
$IIRMC,171912,A,4630.085,N,00641.033,E,00.0,000,200508,,,A*44
$IIVHW,,,273,M,00.0,N,,*62
$IIVWR,116,R,11.3,N,,,,*64
$IIDPT,001.7,-1.0,*46
$IIGLL,4630.085,N,00641.033,E,171912,A,A*52
$IIHDG,273,,,,*51
$IIMTW,+09.0,C*31
$IIMWV,124,R,10.9,N,A*1C
$IIMWV,116,T,11.3,N,A*10
$IIRMC,171912,A,4630.085,N,00641.033,E,00.0,000,200508,,,A*44
$IIVHW,,,273,M,00.0,N,,*62
$IIVWR,128,R,10.5,N,,,,*6E
$IIDPT,001.7,-1.0,*46
$IIGLL,4630.085,N,00641.033,E,171914,A,A*54
$IIHDG,273,,,,*51
$IIMTW,+09.0,C*31
$IIMWV,128,R,10.5,N,A*1C
$IIMWV,124,T,10.9,N,A*1A
$IIRMB,A,0.00,L,,VIDY,,,,,003.15,281,,V,A*79
$IIRMC,171914,A,4630.085,N,00641.033,E,00.0,000,200508,,,A*42
$IIVHW,,,273,M,00.0,N,,*62
$IIVWR,132,R,10.7,N,,,,*67
$IIDPT,001.7,-1.0,*46
$IIGLL,4630.085,N,00641.033,E,171914,A,A*54
$IIHDG,273,,,,*51
$IIMTW,+08.0,C*30
$IIMWV,132,R,10.7,N,A*15
$IIMWV,128,T,10.5,N,A*1A
$IIRMC,171916,A,4630.085,N,00641.033,E,00.0,000,200508,,,A*40
$IIVHW,,,273,M,00.0,N,,*62
$IIVWR,135,R,10.6,N,,,,*61
$IIDPT,001.7,-1.0,*46
$IIGLL,4630.085,N,00641.033,E,171916,A,A*56
$IIHDG,273,,,,*51
$IIMTW,+08.0,C*30
$IIMWV,135,R,10.6,N,A*13
$IIMWV,135,T,10.6,N,A*15
$IIRMB,A,0.00,L,,VIDY,,,,,003.15,281,,V,A*79
$IIRMC,171916,A,4630.085,N,00641.033,E,00.0,000,200508,,,A*40
$IIVHW,,,273,M,00.0,N,,*62
$IIVWR,140,R,10.1,N,,,,*64
$IIDPT,001.7,-1.0,*46
$IIGLL,4630.085,N,00641.033,E,171916,A,A*56
$IIHDG,273,,,,*51
$IIMTW,+09.0,C*31
$IIMWV,140,R,09.7,N,A*18
$IIMWV,140,T,10.1,N,A*10
$IIRMB,A,0.00,L,,VIDY,,,,,003.15,281,,V,A*79
$IIRMC,171918,A,4630.085,N,00641.032,E,00.0,000,200508,,,A*4F
$IIVHW,,,273,M,00.0,N,,*62
$IIVWR,140,R,09.7,N,,,,*6A
$IIDPT,001.7,-1.0,*46
$IIGLL,4630.085,N,00641.032,E,171918,A,A*59
$IIHDG,272,,,,*50
$IIMTW,+09.0,C*31
$IIMWV,133,R,09.1,N,A*1A
$IIMWV,140,T,09.7,N,A*1E
$IIRMC,171918,A,4630.085,N,00641.032,E,00.0,000,200508,,,A*4F
$IIVHW,,,272,M,00.0,N,,*63
$IIVWR,123,R,08.4,N,,,,*6D
$IIDPT,001.7,-1.0,*46
$IIGLL,4630.085,N,00641.032,E,171920,A,A*52
$IIHDG,273,,,,*51
$IIMTW,+08.5,C*35
$IIMWV,123,R,08.4,N,A*1F
$IIMWV,133,T,09.1,N,A*1C
$IIRMB,A,0.00,L,,VIDY,,,,,003.15,281,,V,A*79
$IIRMC,171920,A,4630.085,N,00641.032,E,00.0,000,200508,,,A*44
$IIVHW,,,273,M,00.0,N,,*62
$IIVWR,118,R,08.4,N,,,,*65
$IIDPT,001.7,-1.0,*46
$IIGLL,4630.085,N,00641.032,E,171920,A,A*52
$IIHDG,273,,,,*51
$IIMTW,+08.5,C*35
$IIMWV,118,R,08.4,N,A*17
$IIMWV,123,T,08.4,N,A*19
$IIRMC,171922,A,4630.085,N,00641.033,E,00.0,000,200508,,,A*47
$IIVHW,,,273,M,00.0,N,,*62
$IIVWR,118,R,08.2,N,,,,*63
$IIDPT,001.7,-1.0,*46
$IIGLL,4630.085,N,00641.033,E,171922,A,A*51
$IIHDG,273,,,,*51
$IIMTW,+08.5,C*35
$IIMWV,118,R,08.2,N,A*11
$IIMWV,118,T,08.2,N,A*17
$IIRMB,A,0.00,L,,VIDY,,,,,003.15,281,,V,A*79
$IIRMC,171922,A,4630.085,N,00641.033,E,00.0,000,200508,,,A*47
$IIVHW,,,273,M,00.0,N,,*62
$IIVWR,117,R,07.8,N,,,,*69
$IIDPT,001.7,-1.0,*46
$IIGLL,4630.085,N,00641.033,E,171922,A,A*51
$IIHDG,274,,,,*56
$IIMTW,+08.5,C*35
$IIMWV,114,R,07.5,N,A*15
$IIMWV,117,T,07.8,N,A*1D
$IIRMB,A,0.00,L,,VIDY,,,,,003.15,281,,V,A*79
$IIRMC,171924,A,4630.085,N,00641.033,E,00.0,000,200508,,,A*41
$IIVHW,,,274,M,00.0,N,,*65
$IIVWR,114,R,07.5,N,,,,*67
$IIDPT,001.7,-1.0,*46
$IIGLL,4630.085,N,00641.033,E,171924,A,A*57
$IIHDG,274,,,,*56
$IIMTW,+08.5,C*35
$IIMWV,102,R,07.0,N,A*17
$IIMWV,114,T,07.5,N,A*13
$IIRMC,171924,A,4630.085,N,00641.033,E,00.0,000,200508,,,A*41
$IIVHW,,,274,M,00.0,N,,*65
$IIVWR,099,R,06.7,N,,,,*60
$IIDPT,001.7,-1.0,*46
$IIGLL,4630.085,N,00641.033,E,171926,A,A*55
$IIHDG,274,,,,*56
$IIMTW,+08.5,C*35
$IIMWV,099,R,06.7,N,A*12
$IIMWV,102,T,07.0,N,A*11
$IIRMB,A,0.00,L,,VIDY,,,,,003.15,281,,V,A*79
$IIRMC,171926,A,4630.085,N,00641.033,E,00.0,000,200508,,,A*43
$IIVHW,,,274,M,00.0,N,,*65
$IIVWR,100,R,06.9,N,,,,*6F
$IIDPT,001.7,-1.0,*46
$IIGLL,4630.085,N,00641.033,E,171926,A,A*55
$IIHDG,274,,,,*56
$IIMTW,+08.5,C*35
$IIMWV,100,R,06.9,N,A*1D
$IIMWV,099,T,06.7,N,A*14
$IIRMC,171928,A,4630.085,N,00641.033,E,00.0,000,200508,,,A*4D
$IIVHW,,,273,M,00.0,N,,*62
$IIVWR,097,R,07.1,N,,,,*69
$IIDPT,001.7,-1.0,*46
$IIGLL,4630.085,N,00641.033,E,171928,A,A*5B
$IIHDG,273,,,,*51
$IIMTW,+08.5,C*35
$IIMWV,097,R,07.1,N,A*1B
$IIMWV,097,T,07.1,N,A*1D
$IIRMB,A,0.00,L,,VIDY,,,,,003.15,281,,V,A*79
$IIRMC,171928,A,4630.085,N,00641.033,E,00.0,000,200508,,,A*4D
$IIVHW,,,273,M,00.0,N,,*62
$IIVWR,094,R,08.2,N,,,,*66
$IIDPT,001.7,-1.0,*46
$IIGLL,4630.085,N,00641.033,E,171928,A,A*5B
$IIHDG,273,,,,*51
$IIMTW,+08.5,C*35
$IIMWV,093,R,09.1,N,A*11
$IIMWV,094,T,08.2,N,A*12
$IIRMB,A,0.00,L,,VIDY,,,,,003.15,281,,V,A*79
$IIRMC,171930,A,4630.085,N,00641.032,E,00.0,000,200508,,,A*45
$IIVHW,,,273,M,00.0,N,,*62
$IIVWR,093,R,09.1,N,,,,*63
$IIDPT,001.7,-1.0,*46
$IIGLL,4630.085,N,00641.032,E,171930,A,A*53
$IIHDG,273,,,,*51
$IIMTW,+08.5,C*35
$IIMWV,092,R,09.7,N,A*16
$IIMWV,093,T,09.1,N,A*17
$IIRMC,171930,A,4630.085,N,00641.032,E,00.0,000,200508,,,A*45
$IIVHW,,,273,M,00.0,N,,*62
$IIVWR,094,R,10.1,N,,,,*6C
$IIDPT,001.7,-1.0,*46
$IIGLL,4630.085,N,00641.032,E,171932,A,A*51
$IIHDG,273,,,,*51
$IIMTW,+08.5,C*35
$IIMWV,094,R,10.1,N,A*1E
$IIMWV,092,T,09.7,N,A*10
$IIRMB,A,0.00,L,,VIDY,,,,,003.15,281,,V,A*79
$IIRMC,171932,A,4630.085,N,00641.032,E,00.0,000,200508,,,A*47
$IIVHW,,,273,M,00.0,N,,*62
$IIVWR,091,R,10.4,N,,,,*6C
$IIDPT,001.7,-1.0,*46
$IIGLL,4630.085,N,00641.032,E,171932,A,A*51
$IIHDG,273,,,,*51
$IIMTW,+08.5,C*35
$IIMWV,091,R,10.4,N,A*1E
$IIMWV,094,T,10.1,N,A*18
$IIRMC,171934,A,4630.085,N,00641.032,E,00.0,000,200508,,,A*41
$IIVHW,,,272,M,00.0,N,,*63
$IIVWR,096,R,10.6,N,,,,*69
$IIDPT,001.7,-1.0,*46
$IIGLL,4630.085,N,00641.032,E,171934,A,A*57
$IIHDG,272,,,,*50
$IIMTW,+08.5,C*35
$IIMWV,096,R,10.6,N,A*1B
$IIMWV,096,T,10.6,N,A*1D
$IIRMB,A,0.00,L,,VIDY,,,,,003.15,281,,V,A*79
$IIRMC,171934,A,4630.085,N,00641.032,E,00.0,000,200508,,,A*41
$IIVHW,,,272,M,00.0,N,,*63
$IIVWR,101,R,10.8,N,,,,*68
$IIDPT,001.7,-1.0,*46
$IIGLL,4630.085,N,00641.032,E,171934,A,A*57
$IIHDG,272,,,,*50
$IIMTW,+08.5,C*35
$IIMWV,104,R,10.6,N,A*11
$IIMWV,101,T,10.8,N,A*1C
$IIRMB,A,0.00,L,,VIDY,,,,,003.15,281,,V,A*79
$IIRMC,171936,A,4630.085,N,00641.032,E,00.0,000,200508,,,A*43
$IIVHW,,,272,M,00.0,N,,*63
$IIVWR,104,R,10.6,N,,,,*63
$IIDPT,001.7,-1.0,*46
$IIGLL,4630.085,N,00641.032,E,171936,A,A*55
$IIHDG,272,,,,*50
$IIMTW,+08.5,C*35
$IIMWV,106,R,10.5,N,A*10
$IIMWV,104,T,10.6,N,A*17
$IIRMC,171936,A,4630.085,N,00641.032,E,00.0,000,200508,,,A*43
$IIVHW,,,272,M,00.0,N,,*63
$IIVWR,103,R,10.3,N,,,,*61
$IIDPT,001.7,-1.0,*46
$IIGLL,4630.085,N,00641.032,E,171938,A,A*5B
$IIHDG,272,,,,*50
$IIMTW,+08.5,C*35
$IIMWV,103,R,10.3,N,A*13
$IIMWV,106,T,10.5,N,A*16
$IIRMB,A,0.00,L,,VIDY,,,,,003.15,281,,V,A*79
$IIRMC,171938,A,4630.085,N,00641.032,E,00.0,000,200508,,,A*4D
$IIVHW,,,273,M,00.0,N,,*62
$IIVWR,102,R,09.9,N,,,,*62
$IIDPT,001.7,-1.0,*46
$IIGLL,4630.085,N,00641.032,E,171938,A,A*5B
$IIHDG,273,,,,*51
$IIMTW,+08.5,C*35
$IIMWV,102,R,09.9,N,A*10
$IIMWV,103,T,10.3,N,A*15
$IIRMC,171940,A,4630.085,N,00641.032,E,00.0,000,200508,,,A*42
$IIVHW,,,273,M,00.0,N,,*62
$IIVWR,107,R,09.6,N,,,,*68
$IIDPT,001.7,-1.0,*46
$IIGLL,4630.085,N,00641.032,E,171940,A,A*54
$IIHDG,273,,,,*51
$IIMTW,+08.5,C*35
$IIMWV,107,R,09.6,N,A*1A
$IIMWV,107,T,09.6,N,A*1C
$IIRMB,A,0.00,L,,VIDY,,,,,003.15,281,,V,A*79
$IIRMC,171940,A,4630.085,N,00641.032,E,00.0,000,200508,,,A*42
$IIVHW,,,274,M,00.0,N,,*65
$IIVWR,117,R,09.4,N,,,,*6B
$IIDPT,001.7,-1.0,*46
$IIGLL,4630.085,N,00641.032,E,171940,A,A*54
$IIHDG,274,,,,*56
$IIMTW,+08.5,C*35
$IIMWV,130,R,08.9,N,A*10
$IIMWV,117,T,09.4,N,A*1F
$IIRMB,A,0.00,L,,VIDY,,,,,003.15,281,,V,A*79
$IIRMC,171942,A,4630.085,N,00641.032,E,00.0,000,200508,,,A*40
$IIVHW,,,274,M,00.0,N,,*65
$IIVWR,130,R,08.9,N,,,,*62
$IIDPT,001.7,-1.0,*46
$IIGLL,4630.085,N,00641.032,E,171942,A,A*56
$IIHDG,275,,,,*57
$IIMTW,+08.5,C*35
$IIMWV,134,R,08.6,N,A*1B
$IIMWV,130,T,08.9,N,A*16
$IIRMC,171942,A,4630.085,N,00641.032,E,00.0,000,200508,,,A*40
$IIVHW,,,275,M,00.0,N,,*64
$IIVWR,131,R,08.6,N,,,,*6C
$IIDPT,001.7,-1.0,*46
$IIGLL,4630.085,N,00641.032,E,171944,A,A*50
$IIHDG,275,,,,*57
$IIMTW,+08.5,C*35
$IIMWV,131,R,08.6,N,A*1E
$IIMWV,134,T,08.6,N,A*1D
$IIRMB,A,0.00,L,,VIDY,,,,,003.15,281,,V,A*79
$IIRMC,171944,A,4630.085,N,00641.032,E,00.0,000,200508,,,A*46
$IIVHW,,,276,M,00.0,N,,*67
$IIVWR,132,R,08.6,N,,,,*6F
$IIDPT,001.7,-1.0,*46
$IIGLL,4630.085,N,00641.032,E,171944,A,A*50
$IIHDG,276,,,,*54
$IIMTW,+08.5,C*35
$IIMWV,132,R,08.6,N,A*1D
$IIMWV,131,T,08.6,N,A*18
$IIRMC,171946,A,4630.085,N,00641.032,E,00.0,000,200508,,,A*44
$IIVHW,,,276,M,00.0,N,,*67
$IIVWR,130,R,08.8,N,,,,*63
$IIDPT,001.7,-1.0,*46
$IIGLL,4630.085,N,00641.032,E,171946,A,A*52
$IIHDG,276,,,,*54
$IIMTW,+08.5,C*35
$IIMWV,130,R,08.8,N,A*11
$IIMWV,130,T,08.8,N,A*17
$IIRMB,A,0.00,L,,VIDY,,,,,003.15,281,,V,A*79
$IIRMC,171946,A,4630.085,N,00641.032,E,00.0,000,200508,,,A*44
$IIVHW,,,277,M,00.0,N,,*66
$IIVWR,127,R,09.4,N,,,,*68
$IIDPT,001.7,-1.0,*46
$IIGLL,4630.085,N,00641.032,E,171946,A,A*52
$IIHDG,277,,,,*55
$IIMTW,+08.5,C*35
$IIMWV,124,R,09.6,N,A*1B
$IIMWV,127,T,09.4,N,A*1C
$IIRMB,A,0.00,L,,VIDY,,,,,003.15,281,,V,A*79
$IIRMC,171948,A,4630.085,N,00641.032,E,00.0,000,200508,,,A*4A
$IIVHW,,,277,M,00.0,N,,*66
$IIVWR,124,R,09.6,N,,,,*69
$IIDPT,001.7,-1.0,*46
$IIGLL,4630.085,N,00641.032,E,171948,A,A*5C
$IIHDG,277,,,,*55
$IIMTW,+08.5,C*35
$IIMWV,115,R,09.4,N,A*1B
$IIMWV,124,T,09.6,N,A*1D
$IIRMC,171948,A,4630.085,N,00641.032,E,00.0,000,200508,,,A*4A
$IIVHW,,,277,M,00.0,N,,*66
$IIVWR,106,R,09.4,N,,,,*6B
$IIDPT,001.7,-1.0,*46
$IIGLL,4630.085,N,00641.032,E,171950,A,A*55
$IIHDG,276,,,,*54
$IIMTW,+08.5,C*35
$IIMWV,106,R,09.4,N,A*19
$IIMWV,115,T,09.4,N,A*1D
$IIRMB,A,0.00,L,,VIDY,,,,,003.15,281,,V,A*79
$IIRMC,171950,A,4630.085,N,00641.032,E,00.0,000,200508,,,A*43
$IIVHW,,,276,M,00.0,N,,*67
$IIVWR,102,R,09.6,N,,,,*6D
$IIDPT,001.7,-1.0,*46
$IIGLL,4630.085,N,00641.032,E,171950,A,A*55
$IIHDG,276,,,,*54
$IIMTW,+08.5,C*35
$IIMWV,102,R,09.6,N,A*1F
$IIMWV,106,T,09.4,N,A*1F
$IIRMC,171952,A,4630.085,N,00641.032,E,00.0,000,200508,,,A*41
$IIVHW,,,276,M,00.0,N,,*67
$IIVWR,098,R,09.8,N,,,,*61
$IIDPT,001.7,-1.0,*46
$IIGLL,4630.085,N,00641.032,E,171952,A,A*57
$IIHDG,276,,,,*54
$IIMTW,+08.5,C*35
$IIMWV,098,R,09.8,N,A*13
$IIMWV,098,T,09.8,N,A*15
$IIRMB,A,0.00,L,,VIDY,,,,,003.15,281,,V,A*79
$IIRMC,171952,A,4630.085,N,00641.032,E,00.0,000,200508,,,A*41
$IIVHW,,,276,M,00.0,N,,*67
$IIVWR,095,R,10.0,N,,,,*6C
$IIDPT,001.7,-1.0,*46
$IIGLL,4630.085,N,00641.032,E,171952,A,A*57
$IIHDG,276,,,,*54
$IIMTW,+08.5,C*35
$IIMWV,091,R,10.1,N,A*1B
$IIMWV,095,T,10.0,N,A*18
$IIRMB,A,0.00,L,,VIDY,,,,,003.15,281,,V,A*79
$IIRMC,171954,A,4630.085,N,00641.032,E,00.0,000,200508,,,A*47
$IIVHW,,,276,M,00.0,N,,*67
$IIVWR,091,R,10.1,N,,,,*69
$IIDPT,001.7,-1.0,*46
$IIGLL,4630.085,N,00641.032,E,171954,A,A*51
$IIHDG,275,,,,*57
$IIMTW,+08.5,C*35
$IIMWV,087,R,10.1,N,A*1C
$IIMWV,091,T,10.1,N,A*1D
$IIRMC,171954,A,4630.085,N,00641.032,E,00.0,000,200508,,,A*47
$IIVHW,,,275,M,00.0,N,,*64
$IIVWR,085,R,10.2,N,,,,*6F
$IIDPT,001.7,-1.0,*46
$IIGLL,4630.085,N,00641.032,E,171956,A,A*53
$IIHDG,275,,,,*57
$IIMTW,+08.5,C*35
$IIMWV,085,R,10.2,N,A*1D
$IIMWV,087,T,10.1,N,A*1A
$IIRMB,A,0.00,L,,VIDY,,,,,003.15,281,,V,A*79
$IIRMC,171956,A,4630.085,N,00641.032,E,00.0,000,200508,,,A*45
$IIVHW,,,275,M,00.0,N,,*64
$IIVWR,090,R,10.2,N,,,,*6B
$IIDPT,001.7,-1.0,*46
$IIGLL,4630.085,N,00641.032,E,171956,A,A*53
$IIHDG,275,,,,*57
$IIMTW,+08.5,C*35
$IIMWV,090,R,10.2,N,A*19
$IIMWV,085,T,10.2,N,A*1B
$IIRMC,171958,A,4630.086,N,00641.031,E,00.0,000,200508,,,A*4B
$IIVHW,,,275,M,00.0,N,,*64
$IIVWR,097,R,10.5,N,,,,*6B
$IIDPT,001.7,-1.0,*46
$IIGLL,4630.086,N,00641.031,E,171958,A,A*5D
$IIHDG,275,,,,*57
$IIMTW,+08.5,C*35
$IIMWV,097,R,10.5,N,A*19
$IIMWV,097,T,10.5,N,A*1F
$IIRMB,A,0.00,L,,VIDY,,,,,003.15,281,,V,A*79
$IIRMC,171958,A,4630.086,N,00641.031,E,00.0,000,200508,,,A*4B
$IIVHW,,,275,M,00.0,N,,*64
$IIVWR,097,R,10.8,N,,,,*66
$IIDPT,001.7,-1.0,*46
$IIGLL,4630.086,N,00641.031,E,171958,A,A*5D
$IIHDG,274,,,,*56
$IIMTW,+08.5,C*35
$IIMWV,098,R,10.9,N,A*1A
$IIMWV,097,T,10.8,N,A*12
$IIRMB,A,0.00,L,,VIDY,,,,,003.15,281,,V,A*79
$IIRMC,172000,A,4630.086,N,00641.031,E,00.0,000,200508,,,A*4C
$IIVHW,,,274,M,00.0,N,,*65
$IIVWR,098,R,10.9,N,,,,*68
$IIDPT,001.7,-1.0,*46
$IIGLL,4630.086,N,00641.031,E,172000,A,A*5A
$IIHDG,275,,,,*57
$IIMTW,+08.5,C*35
$IIMWV,105,R,10.3,N,A*15
$IIMWV,098,T,10.9,N,A*1C
$IIRMC,172000,A,4630.086,N,00641.031,E,00.0,000,200508,,,A*4C
$IIVHW,,,275,M,00.0,N,,*64
$IIVWR,104,R,09.6,N,,,,*6B
$IIDPT,001.7,-1.0,*46
$IIGLL,4630.086,N,00641.031,E,172002,A,A*58
$IIHDG,274,,,,*56
$IIMTW,+08.5,C*35
$IIMWV,104,R,09.6,N,A*19
$IIMWV,105,T,10.3,N,A*13
$IIRMB,A,0.00,L,,VIDY,,,,,003.15,281,,V,A*79
$IIRMC,172002,A,4630.086,N,00641.031,E,00.0,000,200508,,,A*4E
$IIVHW,,,275,M,00.0,N,,*64
$IIVWR,098,R,09.6,N,,,,*6F
$IIDPT,001.7,-1.0,*46
$IIGLL,4630.086,N,00641.031,E,172002,A,A*58
$IIHDG,275,,,,*57
$IIMTW,+08.5,C*35
$IIMWV,098,R,09.6,N,A*1D
$IIMWV,104,T,09.6,N,A*1F
$IIRMC,172004,A,4630.086,N,00641.031,E,00.0,000,200508,,,A*48
$IIVHW,,,275,M,00.0,N,,*64
$IIVWR,100,R,08.9,N,,,,*61
$IIDPT,001.7,-1.0,*46
$IIGLL,4630.086,N,00641.031,E,172004,A,A*5E
$IIHDG,275,,,,*57
$IIMTW,+08.5,C*35
$IIMWV,100,R,08.9,N,A*13
$IIMWV,100,T,08.9,N,A*15
$IIRMB,A,0.00,L,,VIDY,,,,,003.15,281,,V,A*79
$IIRMC,172004,A,4630.086,N,00641.031,E,00.0,000,200508,,,A*48
$IIVHW,,,275,M,00.0,N,,*64
$IIVWR,104,R,08.6,N,,,,*6A
$IIDPT,001.7,-1.0,*46
$IIGLL,4630.086,N,00641.031,E,172004,A,A*5E
$IIHDG,275,,,,*57
$IIMTW,+08.5,C*35
$IIMWV,110,R,08.6,N,A*1D
$IIMWV,104,T,08.6,N,A*1E
$IIRMB,A,0.00,L,,VIDY,,,,,003.15,281,,V,A*79
$IIRMC,172006,A,4630.086,N,00641.031,E,00.0,000,200508,,,A*4A
$IIVHW,,,275,M,00.0,N,,*64
$IIVWR,110,R,08.6,N,,,,*6F
$IIDPT,001.7,-1.0,*46
$IIGLL,4630.086,N,00641.031,E,172006,A,A*5C
$IIHDG,274,,,,*56
$IIMTW,+08.5,C*35
$IIMWV,113,R,08.6,N,A*1E
$IIMWV,110,T,08.6,N,A*1B
$IIRMC,172006,A,4630.086,N,00641.031,E,00.0,000,200508,,,A*4A
$IIVHW,,,274,M,00.0,N,,*65
$IIVWR,118,R,08.4,N,,,,*65
$IIDPT,001.7,-1.0,*46
$IIGLL,4630.086,N,00641.031,E,172008,A,A*52
$IIHDG,274,,,,*56
$IIMTW,+08.5,C*35
$IIMWV,118,R,08.4,N,A*17
$IIMWV,113,T,08.6,N,A*18
$IIRMB,A,0.00,L,,VIDY,,,,,003.15,281,,V,A*79
$IIRMC,172008,A,4630.086,N,00641.031,E,00.0,000,200508,,,A*44
$IIVHW,,,273,M,00.0,N,,*62
$IIVWR,127,R,08.4,N,,,,*69
$IIDPT,001.7,-1.0,*46
$IIGLL,4630.086,N,00641.031,E,172008,A,A*52
$IIHDG,273,,,,*51
$IIMTW,+08.5,C*35
$IIMWV,127,R,08.4,N,A*1B
$IIMWV,118,T,08.4,N,A*11
$IIRMC,172010,A,4630.086,N,00641.031,E,00.0,000,200508,,,A*4D
$IIVHW,,,273,M,00.0,N,,*62
$IIVWR,133,R,08.4,N,,,,*6C
$IIDPT,001.7,-1.0,*46
$IIGLL,4630.086,N,00641.031,E,172010,A,A*5B
$IIHDG,273,,,,*51
$IIMTW,+08.5,C*35
$IIMWV,133,R,08.4,N,A*1E
$IIMWV,133,T,08.4,N,A*18
$IIRMB,A,0.00,L,,VIDY,,,,,003.15,281,,V,A*79
$IIRMC,172010,A,4630.086,N,00641.031,E,00.0,000,200508,,,A*4D
$IIVHW,,,273,M,00.0,N,,*62
$IIVWR,123,R,08.1,N,,,,*68
$IIDPT,001.7,-1.0,*46
$IIGLL,4630.086,N,00641.031,E,172010,A,A*5B
$IIHDG,273,,,,*51
$IIMTW,+08.5,C*35
$IIMWV,109,R,07.6,N,A*1A
$IIMWV,123,T,08.1,N,A*1C
$IIRMB,A,0.00,L,,VIDY,,,,,003.15,281,,V,A*79
$IIRMC,172012,A,4630.086,N,00641.031,E,00.0,000,200508,,,A*4F
$IIVHW,,,273,M,00.0,N,,*62
$IIVWR,109,R,07.6,N,,,,*68
$IIDPT,001.7,-1.0,*46
$IIGLL,4630.086,N,00641.031,E,172012,A,A*59
$IIHDG,273,,,,*51
$IIMTW,+08.5,C*35
$IIMWV,095,R,07.3,N,A*1B
$IIMWV,109,T,07.6,N,A*1C
$IIRMC,172012,A,4630.086,N,00641.031,E,00.0,000,200508,,,A*4F
$IIVHW,,,273,M,00.0,N,,*62
$IIVWR,083,R,06.9,N,,,,*65
$IIDPT,001.7,-1.0,*46
$IIGLL,4630.086,N,00641.031,E,172014,A,A*5F
$IIHDG,272,,,,*50
$IIMTW,+08.5,C*35
$IIMWV,083,R,06.9,N,A*17
$IIMWV,095,T,07.3,N,A*1D
$IIRMB,A,0.00,L,,VIDY,,,,,003.15,281,,V,A*79
$IIRMC,172014,A,4630.086,N,00641.031,E,00.0,000,200508,,,A*49
$IIVHW,,,272,M,00.0,N,,*63
$IIVWR,078,R,06.6,N,,,,*6E
$IIDPT,001.7,-1.0,*46
$IIGLL,4630.086,N,00641.031,E,172014,A,A*5F
$IIHDG,272,,,,*50
$IIMTW,+08.5,C*35
$IIMWV,078,R,06.6,N,A*1C
$IIMWV,083,T,06.9,N,A*11
$IIRMC,172016,A,4630.086,N,00641.031,E,00.0,000,200508,,,A*4B
$IIVHW,,,272,M,00.0,N,,*63
$IIVWR,080,R,06.5,N,,,,*6A
$IIDPT,001.7,-1.0,*46
$IIGLL,4630.086,N,00641.031,E,172016,A,A*5D
$IIHDG,272,,,,*50
$IIMTW,+09.0,C*31
$IIMWV,080,R,06.5,N,A*18
$IIMWV,080,T,06.5,N,A*1E
$IIRMB,A,0.00,L,,VIDY,,,,,003.15,281,,V,A*79
$IIRMC,172016,A,4630.086,N,00641.031,E,00.0,000,200508,,,A*4B
$IIVHW,,,271,M,00.0,N,,*60
$IIVWR,098,R,06.3,N,,,,*65
$IIDPT,001.7,-1.0,*46
$IIGLL,4630.086,N,00641.031,E,172016,A,A*5D
$IIHDG,271,,,,*53
$IIMTW,+08.5,C*35
$IIMWV,118,R,05.9,N,A*17
$IIMWV,098,T,06.3,N,A*11
$IIRMB,A,0.00,L,,VIDY,,,,,003.15,281,,V,A*79
$IIRMC,172018,A,4630.086,N,00641.031,E,00.0,000,200508,,,A*45
$IIVHW,,,271,M,00.0,N,,*60
$IIVWR,118,R,05.9,N,,,,*65
$IIDPT,001.7,-1.0,*46
$IIGLL,4630.086,N,00641.031,E,172018,A,A*53
$IIHDG,271,,,,*53
$IIMTW,+08.5,C*35
$IIMWV,112,R,06.0,N,A*17
$IIMWV,118,T,05.9,N,A*11
$IIRMC,172018,A,4630.086,N,00641.031,E,00.0,000,200508,,,A*45
$IIVHW,,,271,M,00.0,N,,*60
$IIVWR,104,R,06.4,N,,,,*66
$IIDPT,001.7,-1.0,*46
$IIGLL,4630.086,N,00641.032,E,172020,A,A*5B
$IIHDG,270,,,,*52
$IIMTW,+08.5,C*35
$IIMWV,104,R,06.4,N,A*14
$IIMWV,112,T,06.0,N,A*11
$IIRMB,A,0.00,L,,VIDY,,,,,003.15,281,,V,A*79
$IIRMC,172020,A,4630.086,N,00641.032,E,00.0,000,200508,,,A*4D
$IIVHW,,,270,M,00.0,N,,*61
$IIVWR,103,R,06.7,N,,,,*62
$IIDPT,001.7,-1.0,*46
$IIGLL,4630.086,N,00641.032,E,172020,A,A*5B
$IIHDG,270,,,,*52
$IIMTW,+08.5,C*35
$IIMWV,103,R,06.7,N,A*10
$IIMWV,104,T,06.4,N,A*12
$IIRMC,172022,A,4630.086,N,00641.032,E,00.0,000,200508,,,A*4F
$IIVHW,,,271,M,00.0,N,,*60
$IIVWR,113,R,06.7,N,,,,*63
$IIDPT,001.7,-1.0,*46
$IIGLL,4630.086,N,00641.032,E,172022,A,A*59
$IIHDG,271,,,,*53
$IIMTW,+08.5,C*35
$IIMWV,113,R,06.7,N,A*11
$IIMWV,113,T,06.7,N,A*17
$IIRMB,A,0.00,L,,VIDY,,,,,003.15,281,,V,A*79
$IIRMC,172022,A,4630.086,N,00641.032,E,00.0,000,200508,,,A*4F
$IIVHW,,,271,M,00.0,N,,*60
$IIVWR,118,R,07.1,N,,,,*6F
$IIDPT,001.7,-1.0,*46
$IIGLL,4630.086,N,00641.032,E,172022,A,A*59
$IIHDG,272,,,,*50
$IIMTW,+08.5,C*35
$IIMWV,121,R,07.3,N,A*15
$IIMWV,118,T,07.1,N,A*1B
$IIRMB,A,0.00,L,,VIDY,,,,,003.15,281,,V,A*79
$IIRMC,172024,A,4630.086,N,00641.032,E,00.0,000,200508,,,A*49
$IIVHW,,,272,M,00.0,N,,*63
$IIVWR,121,R,07.3,N,,,,*67
$IIDPT,001.7,-1.0,*46
$IIGLL,4630.086,N,00641.032,E,172024,A,A*5F
$IIHDG,272,,,,*50
$IIMTW,+08.5,C*35
$IIMWV,118,R,07.1,N,A*1D
$IIMWV,121,T,07.3,N,A*13
$IIRMC,172024,A,4630.086,N,00641.032,E,00.0,000,200508,,,A*49
$IIVHW,,,272,M,00.0,N,,*63
$IIVWR,119,R,06.8,N,,,,*66
$IIDPT,001.7,-1.0,*46
$IIGLL,4630.086,N,00641.032,E,172026,A,A*5D
$IIHDG,272,,,,*50
$IIMTW,+08.5,C*35
$IIMWV,119,R,06.8,N,A*14
$IIMWV,118,T,07.1,N,A*1B
$IIRMB,A,0.00,L,,VIDY,,,,,003.15,281,,V,A*79
$IIRMC,172026,A,4630.086,N,00641.032,E,00.0,000,200508,,,A*4B
$IIVHW,,,272,M,00.0,N,,*63
$IIVWR,130,R,06.9,N,,,,*6C
$IIDPT,001.7,-1.0,*46
$IIGLL,4630.086,N,00641.032,E,172026,A,A*5D
$IIHDG,272,,,,*50
$IIMTW,+08.5,C*35
$IIMWV,130,R,06.9,N,A*1E
$IIMWV,119,T,06.8,N,A*12
$IIRMC,172028,A,4630.086,N,00641.032,E,00.0,000,200508,,,A*45
$IIVHW,,,272,M,00.0,N,,*63
$IIVWR,134,R,06.6,N,,,,*67
$IIDPT,001.7,-1.0,*46
$IIGLL,4630.086,N,00641.032,E,172028,A,A*53
$IIHDG,272,,,,*50
$IIMTW,+08.5,C*35
$IIMWV,134,R,06.6,N,A*15
$IIMWV,134,T,06.6,N,A*13
$IIRMB,A,0.00,L,,VIDY,,,,,003.15,281,,V,A*79
$IIRMC,172028,A,4630.086,N,00641.032,E,00.0,000,200508,,,A*45
$IIVHW,,,272,M,00.0,N,,*63
$IIVWR,134,R,06.2,N,,,,*63
$IIDPT,001.7,-1.0,*46
$IIGLL,4630.086,N,00641.032,E,172028,A,A*53
$IIHDG,271,,,,*53
$IIMTW,+08.5,C*35
$IIMWV,132,R,06.3,N,A*16
$IIMWV,133,T,06.5,N,A*17
$IIRMB,A,0.00,L,,VIDY,,,,,003.15,281,,V,A*79
$IIRMC,172030,A,4630.086,N,00641.032,E,00.0,000,200508,,,A*4C
$IIVHW,,,271,M,00.0,N,,*60
$IIVWR,132,R,06.3,N,,,,*64
$IIDPT,001.7,-1.0,*46
$IIGLL,4630.086,N,00641.032,E,172032,A,A*58
$IIHDG,272,,,,*50
$IIMTW,+08.5,C*35
$IIMWV,128,R,06.2,N,A*1C
$IIMWV,132,T,06.3,N,A*10
$IIRMB,A,0.00,L,,VIDY,,,,,003.15,281,,V,A*79
$IIRMC,172032,A,4630.086,N,00641.032,E,00.0,000,200508,,,A*4E
$IIVHW,,,272,M,00.0,N,,*63
$IIVWR,120,R,06.0,N,,,,*64
$IIDPT,001.7,-1.0,*46
$IIGLL,4630.086,N,00641.032,E,172032,A,A*58
$IIHDG,271,,,,*53
$IIMTW,+08.5,C*35
$IIMWV,120,R,06.0,N,A*16
$IIMWV,128,T,06.2,N,A*1A
$IIRMC,172032,A,4630.086,N,00641.032,E,00.0,000,200508,,,A*4E
$IIVHW,,,271,M,00.0,N,,*60
$IIVWR,116,R,06.3,N,,,,*62
$IIDPT,001.7,-1.0,*46
$IIGLL,4630.086,N,00641.032,E,172034,A,A*5E
$IIHDG,271,,,,*53
$IIMTW,+08.5,C*35
$IIMWV,116,R,06.3,N,A*10
$IIMWV,120,T,06.0,N,A*10
$IIRMB,A,0.00,L,,VIDY,,,,,003.15,281,,V,A*79
$IIRMC,172034,A,4630.086,N,00641.032,E,00.0,000,200508,,,A*48
$IIVHW,,,271,M,00.0,N,,*60
$IIVWR,110,R,07.2,N,,,,*64
$IIDPT,001.7,-1.0,*46
$IIGLL,4630.086,N,00641.032,E,172034,A,A*5E
$IIHDG,271,,,,*53
$IIMTW,+08.5,C*35
$IIMWV,110,R,07.2,N,A*16
$IIMWV,110,T,07.2,N,A*10
$IIRMB,A,0.00,L,,VIDY,,,,,003.15,281,,V,A*79
$IIRMC,172036,A,4630.086,N,00641.032,E,00.0,000,200508,,,A*4A
$IIVHW,,,271,M,00.0,N,,*60
$IIVWR,105,R,08.3,N,,,,*6E
$IIDPT,001.7,-1.0,*46
$IIGLL,4630.086,N,00641.032,E,172036,A,A*5C
$IIHDG,271,,,,*53
$IIMTW,+08.5,C*35
$IIMWV,103,R,09.0,N,A*18
$IIMWV,105,T,08.3,N,A*1A
$IIRMC,172036,A,4630.086,N,00641.032,E,00.0,000,200508,,,A*4A
$IIVHW,,,271,M,00.0,N,,*60
$IIVWR,103,R,09.0,N,,,,*6A
$IIDPT,001.7,-1.0,*46
$IIGLL,4630.086,N,00641.032,E,172038,A,A*52
$IIHDG,271,,,,*53
$IIMTW,+09.0,C*31
$IIMWV,104,R,09.1,N,A*1E
$IIMWV,103,T,09.0,N,A*1E
$IIRMB,A,0.00,L,,VIDY,,,,,003.15,281,,V,A*79
$IIRMC,172038,A,4630.086,N,00641.032,E,00.0,000,200508,,,A*44
$IIVHW,,,271,M,00.0,N,,*60
$IIVWR,103,R,09.2,N,,,,*68
$IIDPT,001.7,-1.0,*46
$IIGLL,4630.086,N,00641.032,E,172038,A,A*52
$IIHDG,272,,,,*50
$IIMTW,+09.0,C*31
$IIMWV,103,R,09.2,N,A*1A
$IIMWV,104,T,09.1,N,A*18
$IIRMC,172038,A,4630.086,N,00641.032,E,00.0,000,200508,,,A*44
$IIVHW,,,272,M,00.0,N,,*63
$IIVWR,102,R,09.5,N,,,,*6E
$IIDPT,001.7,-1.0,*46
$IIGLL,4630.086,N,00641.032,E,172040,A,A*5D
$IIHDG,272,,,,*50
$IIMTW,+08.5,C*35
$IIMWV,102,R,09.5,N,A*1C
$IIMWV,103,T,09.2,N,A*1C
$IIRMB,A,0.00,L,,VIDY,,,,,003.15,281,,V,A*79
$IIRMC,172042,A,4630.086,N,00641.033,E,00.0,000,200508,,,A*48
$IIVHW,,,272,M,00.0,N,,*63
$IIVWR,108,R,10.0,N,,,,*69
$IIDPT,001.7,-1.0,*46
$IIGLL,4630.086,N,00641.033,E,172042,A,A*5E
$IIHDG,272,,,,*50
$IIMTW,+08.5,C*35
$IIMWV,108,R,10.0,N,A*1B
$IIMWV,108,T,10.0,N,A*1D
$IIRMB,A,0.00,L,,VIDY,,,,,003.15,281,,V,A*79
$IIRMC,172042,A,4630.086,N,00641.033,E,00.0,000,200508,,,A*48
$IIVHW,,,272,M,00.0,N,,*63
$IIVWR,108,R,11.0,N,,,,*68
$IIDPT,001.7,-1.0,*46
$IIGLL,4630.086,N,00641.033,E,172042,A,A*5E
$IIHDG,271,,,,*53
$IIMTW,+08.5,C*35
$IIMWV,102,R,12.0,N,A*13
$IIMWV,108,T,11.0,N,A*1C
$IIRMB,A,0.00,L,,VIDY,,,,,003.15,281,,V,A*79
$IIRMC,172044,A,4630.086,N,00641.033,E,00.0,000,200508,,,A*4E
$IIVHW,,,271,M,00.0,N,,*60
$IIVWR,102,R,12.0,N,,,,*61
$IIDPT,001.7,-1.0,*46
$IIGLL,4630.086,N,00641.033,E,172044,A,A*58
$IIHDG,272,,,,*50
$IIMTW,+08.5,C*35
$IIMWV,102,R,12.6,N,A*15
$IIMWV,102,T,12.0,N,A*15
$IIRMC,172044,A,4630.086,N,00641.033,E,00.0,000,200508,,,A*4E
$IIVHW,,,272,M,00.0,N,,*63
$IIVWR,101,R,12.7,N,,,,*65
$IIDPT,001.7,-1.0,*46
$IIGLL,4630.086,N,00641.033,E,172046,A,A*5A
$IIHDG,272,,,,*50
$IIMTW,+08.5,C*35
$IIMWV,101,R,12.7,N,A*17
$IIMWV,102,T,12.6,N,A*13
$IIRMB,A,0.00,L,,VIDY,,,,,003.15,281,,V,A*79
$IIRMC,172046,A,4630.086,N,00641.033,E,00.0,000,200508,,,A*4C
$IIVHW,,,273,M,00.0,N,,*62
$IIVWR,099,R,13.2,N,,,,*61
$IIDPT,001.7,-1.0,*46
$IIGLL,4630.086,N,00641.033,E,172046,A,A*5A
$IIHDG,273,,,,*51
$IIMTW,+08.5,C*35
$IIMWV,099,R,13.2,N,A*13
$IIMWV,101,T,12.7,N,A*11
$IIRMC,172048,A,4630.085,N,00641.033,E,00.0,000,200508,,,A*41
$IIVHW,,,273,M,00.0,N,,*62
$IIVWR,098,R,13.4,N,,,,*66
$IIDPT,001.7,-1.0,*46
$IIGLL,4630.085,N,00641.033,E,172048,A,A*57
$IIHDG,273,,,,*51
$IIMTW,+08.5,C*35
$IIMWV,098,R,13.4,N,A*14
$IIMWV,098,T,13.4,N,A*12
$IIRMB,A,0.00,L,,VIDY,,,,,003.15,281,,V,A*79
$IIRMC,172048,A,4630.085,N,00641.033,E,00.0,000,200508,,,A*41
$IIVHW,,,273,M,00.0,N,,*62
$IIVWR,098,R,13.1,N,,,,*63
$IIDPT,001.7,-1.0,*46
$IIGLL,4630.085,N,00641.033,E,172048,A,A*57
$IIHDG,273,,,,*51
$IIMTW,+08.5,C*35
$IIMWV,100,R,13.4,N,A*14
$IIMWV,098,T,13.1,N,A*17
$IIRMB,A,0.00,L,,VIDY,,,,,003.15,281,,V,A*79
$IIRMC,172050,A,4630.085,N,00641.033,E,00.0,000,200508,,,A*48
$IIVHW,,,273,M,00.0,N,,*62
$IIVWR,100,R,13.4,N,,,,*66
$IIDPT,001.7,-1.0,*46
$IIGLL,4630.085,N,00641.033,E,172050,A,A*5E
$IIHDG,274,,,,*56
$IIMTW,+08.5,C*35
$IIMWV,108,R,13.3,N,A*1B
$IIMWV,100,T,13.4,N,A*12
$IIRMC,172050,A,4630.085,N,00641.033,E,00.0,000,200508,,,A*48
$IIVHW,,,274,M,00.0,N,,*65
$IIVWR,113,R,12.7,N,,,,*66
$IIDPT,001.7,-1.0,*46
$IIGLL,4630.086,N,00641.033,E,172052,A,A*5F
$IIHDG,274,,,,*56
$IIMTW,+08.5,C*35
$IIMWV,113,R,12.7,N,A*14
$IIMWV,108,T,13.3,N,A*1D
$IIRMB,A,0.00,L,,VIDY,,,,,003.15,281,,V,A*79
$IIRMC,172052,A,4630.086,N,00641.033,E,00.0,000,200508,,,A*49
$IIVHW,,,274,M,00.0,N,,*65
$IIVWR,113,R,12.1,N,,,,*60
$IIDPT,001.7,-1.0,*46
$IIGLL,4630.086,N,00641.033,E,172052,A,A*5F
$IIHDG,274,,,,*56
$IIMTW,+08.5,C*35
$IIMWV,113,R,12.1,N,A*12
$IIMWV,113,T,12.7,N,A*12
$IIRMC,172054,A,4630.086,N,00641.033,E,00.0,000,200508,,,A*4F
$IIVHW,,,275,M,00.0,N,,*64
$IIVWR,107,R,11.5,N,,,,*62
$IIDPT,001.7,-1.0,*46
$IIGLL,4630.086,N,00641.033,E,172054,A,A*59
$IIHDG,275,,,,*57
$IIMTW,+08.5,C*35
$IIMWV,107,R,11.5,N,A*10
$IIMWV,107,T,11.5,N,A*16
$IIRMB,A,0.00,L,,VIDY,,,,,003.15,281,,V,A*79
$IIRMC,172054,A,4630.086,N,00641.033,E,00.0,000,200508,,,A*4F
$IIVHW,,,275,M,00.0,N,,*64
$IIVWR,105,R,11.0,N,,,,*65
$IIDPT,001.7,-1.0,*46
$IIGLL,4630.086,N,00641.033,E,172054,A,A*59
$IIHDG,275,,,,*57
$IIMTW,+08.5,C*35
$IIMWV,102,R,10.8,N,A*19
$IIMWV,105,T,11.0,N,A*11
$IIRMB,A,0.00,L,,VIDY,,,,,003.15,281,,V,A*79
$IIRMC,172056,A,4630.086,N,00641.033,E,00.0,000,200508,,,A*4D
$IIVHW,,,275,M,00.0,N,,*64
$IIVWR,102,R,10.8,N,,,,*6B
$IIDPT,001.7,-1.0,*46
$IIGLL,4630.086,N,00641.033,E,172056,A,A*5B
$IIHDG,276,,,,*54
$IIMTW,+08.5,C*35
$IIMWV,104,R,10.7,N,A*10
$IIMWV,102,T,10.8,N,A*1F
$IIRMC,172056,A,4630.086,N,00641.033,E,00.0,000,200508,,,A*4D
$IIVHW,,,276,M,00.0,N,,*67
$IIVWR,107,R,10.5,N,,,,*63
$IIDPT,001.7,-1.0,*46
$IIGLL,4630.086,N,00641.034,E,172058,A,A*52
$IIHDG,276,,,,*54
$IIMTW,+08.5,C*35
$IIMWV,107,R,10.5,N,A*11
$IIMWV,104,T,10.7,N,A*16
$IIRMB,A,0.00,L,,VIDY,,,,,003.15,281,,V,A*79
$IIRMC,172058,A,4630.086,N,00641.034,E,00.0,000,200508,,,A*44
$IIVHW,,,276,M,00.0,N,,*67
$IIVWR,112,R,10.2,N,,,,*60
$IIDPT,001.7,-1.0,*46
$IIGLL,4630.086,N,00641.034,E,172058,A,A*52
$IIHDG,276,,,,*54
$IIMTW,+08.5,C*35
$IIMWV,112,R,10.2,N,A*12
$IIMWV,107,T,10.5,N,A*17
$IIRMC,172100,A,4630.086,N,00641.034,E,00.0,000,200508,,,A*48
$IIVHW,,,276,M,00.0,N,,*67
$IIVWR,117,R,09.9,N,,,,*66
$IIDPT,001.7,-1.0,*46
$IIGLL,4630.086,N,00641.034,E,172100,A,A*5E
$IIHDG,276,,,,*54
$IIMTW,+08.5,C*35
$IIMWV,117,R,09.9,N,A*14
$IIMWV,117,T,09.9,N,A*12
$IIRMB,A,0.00,L,,VIDY,,,,,003.15,281,,V,A*79
$IIRMC,172100,A,4630.086,N,00641.034,E,00.0,000,200508,,,A*48
$IIVHW,,,277,M,00.0,N,,*66
$IIVWR,123,R,10.0,N,,,,*60
$IIDPT,001.7,-1.0,*46
$IIGLL,4630.086,N,00641.034,E,172100,A,A*5E
$IIHDG,277,,,,*55
$IIMTW,+08.5,C*35
$IIMWV,116,R,10.0,N,A*14
$IIMWV,124,T,10.1,N,A*12
$IIRMB,A,0.00,L,,VIDY,,,,,003.15,281,,V,A*79
$IIRMC,172102,A,4630.086,N,00641.034,E,00.0,000,200508,,,A*4A
$IIVHW,,,277,M,00.0,N,,*66
$IIVWR,116,R,10.0,N,,,,*66
$IIDPT,001.7,-1.0,*46
$IIGLL,4630.086,N,00641.034,E,172104,A,A*5A
$IIHDG,277,,,,*55
$IIMTW,+08.5,C*35
$IIMWV,119,R,09.9,N,A*1A
$IIMWV,116,T,10.0,N,A*12
$IIRMB,A,0.00,L,,VIDY,,,,,003.15,281,,V,A*79
$IIRMC,172104,A,4630.086,N,00641.034,E,00.0,000,200508,,,A*4C
$IIVHW,,,277,M,00.0,N,,*66
$IIVWR,116,R,11.1,N,,,,*66
$IIDPT,001.7,-1.0,*46
$IIGLL,4630.086,N,00641.034,E,172104,A,A*5A
$IIHDG,276,,,,*54
$IIMTW,+08.5,C*35
$IIMWV,116,R,11.1,N,A*14
$IIMWV,119,T,09.9,N,A*1C
$IIRMC,172104,A,4630.086,N,00641.034,E,00.0,000,200508,,,A*4C
$IIVHW,,,275,M,00.0,N,,*64
$IIVWR,118,R,12.5,N,,,,*6F
$IIDPT,001.7,-1.0,*46
$IIGLL,4630.087,N,00641.035,E,172106,A,A*58
$IIHDG,275,,,,*57
$IIMTW,+08.5,C*35
$IIMWV,118,R,12.5,N,A*1D
$IIMWV,116,T,11.1,N,A*12
$IIRMB,A,0.00,L,,VIDY,,,,,003.15,281,,V,A*79
$IIRMC,172106,A,4630.087,N,00641.035,E,00.0,000,200508,,,A*4E
$IIVHW,,,275,M,00.0,N,,*64
$IIVWR,122,R,13.9,N,,,,*6B
$IIDPT,001.7,-1.0,*46
$IIGLL,4630.087,N,00641.035,E,172106,A,A*58
$IIHDG,275,,,,*57
$IIMTW,+08.5,C*35
$IIMWV,122,R,13.9,N,A*19
$IIMWV,122,T,13.9,N,A*1F
$IIRMB,A,0.00,L,,VIDY,,,,,003.15,281,,V,A*79
$IIRMC,172108,A,4630.087,N,00641.035,E,00.0,000,200508,,,A*40
$IIVHW,,,275,M,00.0,N,,*64
$IIVWR,123,R,14.5,N,,,,*61
$IIDPT,001.7,-1.0,*46
$IIGLL,4630.087,N,00641.035,E,172108,A,A*56
$IIHDG,275,,,,*57
$IIMTW,+08.5,C*35
$IIMWV,119,R,14.5,N,A*1A
$IIMWV,123,T,14.5,N,A*15
$IIRMC,172108,A,4630.087,N,00641.035,E,00.0,000,200508,,,A*40
$IIVHW,,,275,M,00.0,N,,*64
$IIVWR,119,R,14.5,N,,,,*68
$IIDPT,001.7,-1.0,*46
$IIGLL,4630.087,N,00641.035,E,172110,A,A*5F
$IIHDG,274,,,,*56
$IIMTW,+08.5,C*35
$IIMWV,115,R,15.1,N,A*13
$IIMWV,119,T,14.5,N,A*1C
$IIRMB,A,0.00,L,,VIDY,,,,,003.15,281,,V,A*79
$IIRMC,172110,A,4630.087,N,00641.035,E,00.0,000,200508,,,A*49
$IIVHW,,,274,M,00.0,N,,*65
$IIVWR,114,R,15.4,N,,,,*65
$IIDPT,001.7,-1.0,*46
$IIGLL,4630.087,N,00641.035,E,172110,A,A*5F
$IIHDG,274,,,,*56
$IIMTW,+08.5,C*35
$IIMWV,114,R,15.4,N,A*17
$IIMWV,115,T,15.1,N,A*15
$IIRMC,172110,A,4630.087,N,00641.035,E,00.0,000,200508,,,A*49
$IIVHW,,,274,M,00.0,N,,*65
$IIVWR,115,R,15.4,N,,,,*64
$IIDPT,001.7,-1.0,*46
$IIGLL,4630.087,N,00641.036,E,172112,A,A*5E
$IIHDG,274,,,,*56
$IIMTW,+08.5,C*35
$IIMWV,115,R,15.4,N,A*16
$IIMWV,114,T,15.4,N,A*11
$IIRMB,A,0.00,L,,VIDY,,,,,003.15,281,,V,A*79
$IIRMC,172112,A,4630.087,N,00641.036,E,00.0,000,200508,,,A*48
$IIVHW,,,274,M,00.0,N,,*65
$IIVWR,117,R,15.0,N,,,,*62
$IIDPT,001.7,-1.0,*46
$IIGLL,4630.087,N,00641.036,E,172112,A,A*5E
$IIHDG,274,,,,*56
$IIMTW,+08.5,C*35
$IIMWV,117,R,15.0,N,A*10
$IIMWV,117,T,15.0,N,A*16
$IIRMB,A,0.00,L,,VIDY,,,,,003.15,281,,V,A*79
$IIRMC,172114,A,4630.087,N,00641.036,E,00.0,000,200508,,,A*4E
$IIVHW,,,274,M,00.0,N,,*65
$IIVWR,116,R,14.2,N,,,,*60
$IIDPT,001.7,-1.0,*46
$IIGLL,4630.087,N,00641.036,E,172114,A,A*58
$IIHDG,274,,,,*56
$IIMTW,+08.5,C*35
$IIMWV,111,R,13.2,N,A*12
$IIMWV,116,T,14.2,N,A*14
$IIRMC,172114,A,4630.087,N,00641.036,E,00.0,000,200508,,,A*4E
$IIVHW,,,274,M,00.0,N,,*65
$IIVWR,111,R,13.2,N,,,,*60
$IIDPT,001.7,-1.0,*46
$IIGLL,4630.087,N,00641.036,E,172116,A,A*5A
$IIHDG,274,,,,*56
$IIMTW,+08.5,C*35
$IIMWV,103,R,12.7,N,A*15
$IIMWV,111,T,13.2,N,A*14
$IIRMB,A,0.00,L,,VIDY,,,,,003.15,281,,V,A*79
$IIRMC,172116,A,4630.087,N,00641.036,E,00.0,000,200508,,,A*4C
$IIVHW,,,274,M,00.0,N,,*65
$IIVWR,098,R,12.9,N,,,,*6A
$IIDPT,001.7,-1.0,*46
$IIGLL,4630.087,N,00641.036,E,172116,A,A*5A
$IIHDG,275,,,,*57
$IIMTW,+08.5,C*35
$IIMWV,098,R,12.9,N,A*18
$IIMWV,103,T,12.7,N,A*13
$IIRMC,172116,A,4630.087,N,00641.036,E,00.0,000,200508,,,A*4C
$IIVHW,,,275,M,00.0,N,,*64
$IIVWR,091,R,14.2,N,,,,*6E
$IIDPT,001.7,-1.0,*46
$IIGLL,4630.087,N,00641.037,E,172118,A,A*55
$IIHDG,275,,,,*57
$IIMTW,+08.5,C*35
$IIMWV,091,R,14.2,N,A*1C
$IIMWV,098,T,12.9,N,A*1E
$IIRMB,A,0.00,L,,VIDY,,,,,003.15,281,,V,A*79
$IIVHW,,,124,M,03.2,N,,*62
$IIVWR,049,L,13.3,N,,,,*73
$IIDPT,004.4,-1.0,*40
$IIGLL,4630.051,N,00641.148,E,172946,A,A*54
$IIHDG,124,,,,*50
$IIMTW,+08.5,C*35
$IIMWV,311,R,13.3,N,A*11
$IIMWV,291,T,12.2,N,A*1E
$IIRMB,A,0.02,R,,VIDY,,,,,003.24,281,-03.2,V,A*55
$IIRMC,172946,A,4630.051,N,00641.148,E,03.4,125,200508,,,A*43
$IIVHW,,,124,M,03.2,N,,*62
$IIVWR,047,L,12.8,N,,,,*77
$IIDPT,004.4,-1.0,*40
$IIGLL,4630.051,N,00641.148,E,172946,A,A*54
$IIHDG,124,,,,*50
$IIMTW,+08.5,C*35
$IIMWV,313,R,12.8,N,A*19
$IIMWV,301,T,10.8,N,A*1E
$IIRMB,A,0.02,R,,VIDY,,,,,003.24,281,-03.2,V,A*55
$IIRMC,172948,A,4630.049,N,00641.150,E,03.6,126,200508,,,A*4C
$IIVHW,,,126,M,03.2,N,,*60
$IIVWR,051,L,12.4,N,,,,*7C
$IIDPT,004.6,-1.0,*42
$IIGLL,4630.049,N,00641.150,E,172948,A,A*5A
$IIHDG,127,,,,*53
$IIMTW,+08.5,C*35
$IIMWV,306,R,11.8,N,A*1E
$IIMWV,296,T,10.6,N,A*1F
$IIRMC,172948,A,4630.049,N,00641.150,E,03.6,126,200508,,,A*4C
$IIVHW,,,127,M,03.2,N,,*61
$IIVWR,054,L,11.8,N,,,,*76
$IIDPT,004.6,-1.0,*42
$IIGLL,4630.044,N,00641.158,E,172956,A,A*50
$IIHDG,139,,,,*5C
$IIMTW,+08.0,C*30
$IIMWV,298,R,15.5,N,A*11
$IIMWV,285,T,13.6,N,A*1E
$IIRMB,A,0.02,R,,VIDY,,,,,003.25,281,-02.7,V,A*50
$IIRMC,172956,A,4630.044,N,00641.158,E,03.4,143,200508,,,A*47
$IIVHW,,,139,M,03.2,N,,*6E
$IIVWR,065,L,16.0,N,,,,*7B
$IIDPT,005.2,-1.0,*47
$IIGLL,4630.044,N,00641.158,E,172956,A,A*50
$IIHDG,142,,,,*50
$IIMTW,+09.5,C*34
$IIMWV,295,R,16.0,N,A*1A
$IIMWV,286,T,14.1,N,A*1D
$IIRMC,172956,A,4630.044,N,00641.158,E,03.4,143,200508,,,A*47
$IIVHW,,,142,M,03.1,N,,*61
$IIVWR,065,L,16.6,N,,,,*7D
$IIDPT,005.2,-1.0,*47
$IIGLL,4630.043,N,00641.160,E,172958,A,A*52
$IIHDG,142,,,,*50
$IIMTW,+09.5,C*34
$IIMWV,295,R,16.6,N,A*1C
$IIMWV,284,T,14.9,N,A*17
$IIRMB,A,0.02,R,,VIDY,,,,,003.25,281,-02.5,V,A*52
$IIRMC,172958,A,4630.043,N,00641.160,E,03.3,144,200508,,,A*45
$IIVHW,,,139,M,03.1,N,,*6D
$IIVWR,069,L,16.9,N,,,,*7E
$IIDPT,005.3,-1.0,*46
$IIGLL,4630.043,N,00641.160,E,172958,A,A*52
$IIHDG,139,,,,*5C
$IIMTW,+08.0,C*30
$IIMWV,291,R,16.9,N,A*17
$IIMWV,280,T,15.9,N,A*12
$IIRMB,A,0.02,R,,VIDY,,,,,003.25,281,-02.3,V,A*54
$IIRMC,173000,A,4630.041,N,00641.161,E,03.2,142,200508,,,A*44
$IIVHW,,,139,M,03.1,N,,*6D
$IIVWR,072,L,17.4,N,,,,*78
$IIDPT,005.5,-1.0,*40
$IIGLL,4630.041,N,00641.161,E,173000,A,A*54
$IIHDG,140,,,,*52
$IIMTW,+09.0,C*31
$IIMWV,281,R,17.6,N,A*18
$IIMWV,277,T,16.6,N,A*16
$IIRMC,173000,A,4630.041,N,00641.161,E,03.2,142,200508,,,A*44
$IIVHW,,,140,M,03.1,N,,*63
$IIVWR,079,L,17.6,N,,,,*71
$IIDPT,005.6,-1.0,*43
$IIGLL,4630.040,N,00641.163,E,173002,A,A*55
$IIHDG,138,,,,*5D
$IIMTW,+09.0,C*31
$IIMWV,277,R,17.9,N,A*1E
$IIMWV,270,T,17.2,N,A*14
$IIRMB,A,0.03,R,,VIDY,,,,,003.25,281,-02.4,V,A*52
$IIRMC,173002,A,4630.040,N,00641.163,E,03.0,140,200508,,,A*45
$IIVHW,,,138,M,03.1,N,,*6C
$IIVWR,085,L,17.8,N,,,,*7C
$IIDPT,005.9,-1.0,*4C
$IIGLL,4630.040,N,00641.163,E,173002,A,A*55
$IIHDG,137,,,,*52
$IIMTW,+08.0,C*30
$IIMWV,275,R,17.8,N,A*1D
$IIMWV,267,T,17.7,N,A*17
$IIRMC,173002,A,4630.040,N,00641.163,E,03.0,140,200508,,,A*45
$IIVHW,,,136,M,03.1,N,,*62
$IIVWR,087,L,17.7,N,,,,*71
$IIDPT,006.1,-1.0,*47
$IIGLL,4630.039,N,00641.164,E,173004,A,A*5A
$IIHDG,136,,,,*53
$IIMTW,+09.0,C*31
$IIMWV,273,R,17.7,N,A*14
$IIMWV,265,T,17.8,N,A*1A
$IIRMB,A,0.03,R,,VIDY,,,,,003.25,281,-02.4,V,A*52
$IIRMC,173004,A,4630.039,N,00641.164,E,03.2,140,200508,,,A*48
$IIVHW,,,135,M,03.2,N,,*62
$IIVWR,087,L,17.9,N,,,,*7F
$IIDPT,006.2,-1.0,*44
$IIGLL,4630.039,N,00641.164,E,173004,A,A*5A
$IIHDG,135,,,,*50
$IIMTW,+09.0,C*31
$IIMWV,273,R,17.9,N,A*1A
$IIMWV,262,T,18.0,N,A*1A
$IIRMB,A,0.03,R,,VIDY,,,,,003.25,281,-02.6,V,A*50
$IIRMC,173006,A,4630.037,N,00641.166,E,03.3,139,200508,,,A*49
$IIVHW,,,134,M,03.2,N,,*63
$IIVWR,085,L,18.1,N,,,,*7A
$IIDPT,006.4,-1.0,*42
$IIGLL,4630.037,N,00641.166,E,173006,A,A*54
$IIHDG,132,,,,*57
$IIMTW,+09.0,C*31
$IIMWV,275,R,18.6,N,A*1C
$IIMWV,265,T,18.1,N,A*1C
$IIRMC,173006,A,4630.037,N,00641.166,E,03.3,139,200508,,,A*49
$IIVHW,,,132,M,03.2,N,,*65
$IIVWR,085,L,18.6,N,,,,*7D
$IIDPT,007.1,-1.0,*46
$IIGLL,4630.036,N,00641.168,E,173008,A,A*55
$IIHDG,129,,,,*5D
$IIMTW,+09.0,C*31
$IIMWV,275,R,19.2,N,A*19
$IIMWV,265,T,18.6,N,A*1B
$IIRMB,A,0.03,R,,VIDY,,,,,003.25,281,-02.7,V,A*51
$IIRMC,173008,A,4630.036,N,00641.168,E,03.1,131,200508,,,A*42
$IIVHW,,,129,M,03.2,N,,*6F
$IIVWR,086,L,20.1,N,,,,*72
$IIDPT,008.0,-1.0,*48
$IIGLL,4630.036,N,00641.168,E,173008,A,A*55
$IIHDG,125,,,,*51
$IIMTW,+08.0,C*30
$IIMWV,274,R,20.1,N,A*11
$IIMWV,265,T,19.2,N,A*1E
$IIRMC,173008,A,4630.036,N,00641.168,E,03.1,131,200508,,,A*42
$IIVHW,,,123,M,03.1,N,,*66
$IIVWR,086,L,20.6,N,,,,*75
$IIDPT,008.3,-1.0,*4B
$IIGLL,4630.035,N,00641.170,E,173010,A,A*56
$IIHDG,123,,,,*57
$IIMTW,+09.0,C*31
$IIMWV,274,R,20.6,N,A*16
$IIMWV,265,T,20.1,N,A*17
$IIRMB,A,0.03,R,,VIDY,,,,,003.25,281,-02.8,V,A*5E
$IIRMC,173010,A,4630.035,N,00641.170,E,03.5,131,200508,,,A*45
$IIVHW,,,120,M,03.1,N,,*65
$IIVWR,082,L,21.1,N,,,,*77
$IIDPT,008.5,-1.0,*4D
$IIGLL,4630.035,N,00641.170,E,173010,A,A*56
$IIHDG,120,,,,*54
$IIMTW,+09.0,C*31
$IIMWV,278,R,21.1,N,A*1C
$IIMWV,270,T,20.8,N,A*1A
$IIRMB,A,0.03,R,,VIDY,,,,,003.26,281,-03.0,V,A*54
$IIRMC,173012,A,4630.034,N,00641.172,E,03.2,118,200508,,,A*48
$IIVHW,,,117,M,03.0,N,,*60
$IIVWR,079,L,21.7,N,,,,*75
$IIDPT,008.8,-1.0,*40
$IIGLL,4630.034,N,00641.172,E,173012,A,A*57
$IIHDG,114,,,,*53
$IIMTW,+09.0,C*31
$IIMWV,283,R,22.7,N,A*1D
$IIMWV,273,T,21.2,N,A*12
$IIRMC,173012,A,4630.034,N,00641.172,E,03.2,118,200508,,,A*48
$IIVHW,,,114,M,03.0,N,,*63
$IIVWR,077,L,22.7,N,,,,*78
$IIDPT,009.0,-1.0,*49
$IIGLL,4630.033,N,00641.174,E,173014,A,A*50
$IIHDG,111,,,,*56
$IIMTW,+09.0,C*31
$IIMWV,287,R,22.7,N,A*19
$IIMWV,275,T,22.0,N,A*15
$IIRMB,A,0.03,R,,VIDY,,,,,003.26,281,-03.2,V,A*56
$IIRMC,173014,A,4630.033,N,00641.174,E,03.3,114,200508,,,A*42
$IIVHW,,,111,M,03.0,N,,*66
$IIVWR,071,L,22.5,N,,,,*7C
$IIDPT,009.3,-1.0,*4A
$IIGLL,4630.033,N,00641.174,E,173014,A,A*50
$IIHDG,108,,,,*5E
$IIMTW,+09.0,C*31
$IIMWV,289,R,22.5,N,A*15
$IIMWV,279,T,21.9,N,A*13
$IIRMC,173014,A,4630.033,N,00641.174,E,03.3,114,200508,,,A*42
$IIVHW,,,105,M,02.9,N,,*6B
$IIVWR,068,L,22.5,N,,,,*74
$IIDPT,009.4,-1.0,*4D
$IIGLL,4630.033,N,00641.177,E,173016,A,A*51
$IIHDG,105,,,,*53
$IIMTW,+09.0,C*31
$IIMWV,292,R,22.5,N,A*1F
$IIMWV,282,T,21.7,N,A*19
$IIRMB,A,0.03,R,,VIDY,,,,,003.26,281,-03.2,V,A*56
$IIRMC,173016,A,4630.033,N,00641.177,E,03.0,106,200508,,,A*43
$IIVHW,,,102,M,02.9,N,,*6C
$IIVWR,065,L,22.3,N,,,,*7F
$IIDPT,009.4,-1.0,*4D
$IIGLL,4630.033,N,00641.177,E,173016,A,A*51
$IIHDG,102,,,,*54
$IIMTW,+09.0,C*31
$IIMWV,295,R,22.3,N,A*1E
$IIMWV,287,T,21.1,N,A*1A
$IIRMB,A,0.03,R,,VIDY,,,,,003.26,281,-02.9,V,A*5C
$IIRMC,173018,A,4630.032,N,00641.179,E,02.9,102,200508,,,A*4E
$IIVHW,,,099,M,02.9,N,,*6F
$IIVWR,062,L,22.0,N,,,,*7B
$IIDPT,009.4,-1.0,*4D
$IIGLL,4630.032,N,00641.179,E,173018,A,A*50
$IIHDG,098,,,,*56
$IIMTW,+09.0,C*31
$IIMWV,301,R,22.1,N,A*10
$IIMWV,291,T,20.6,N,A*1B
$IIRMC,173018,A,4630.032,N,00641.179,E,02.9,102,200508,,,A*4E
$IIVHW,,,098,M,02.9,N,,*6E
$IIVWR,059,L,22.1,N,,,,*72
$IIDPT,009.4,-1.0,*4D
$IIGLL,4630.032,N,00641.181,E,173020,A,A*5C
$IIHDG,095,,,,*5B
$IIMTW,+09.0,C*31
$IIMWV,303,R,22.0,N,A*13
$IIMWV,294,T,20.8,N,A*10
$IIRMB,A,0.03,R,,VIDY,,,,,003.26,281,-02.9,V,A*5C
$IIRMC,173020,A,4630.032,N,00641.181,E,02.9,097,200508,,,A*4F
$IIVHW,,,095,M,02.9,N,,*63
$IIVWR,056,L,21.6,N,,,,*79
$IIDPT,009.3,-1.0,*4A
$IIGLL,4630.032,N,00641.181,E,173020,A,A*5C
$IIHDG,093,,,,*5D
$IIMTW,+09.0,C*31
$IIMWV,304,R,21.6,N,A*11
$IIMWV,296,T,20.4,N,A*1E
$IIRMC,173020,A,4630.032,N,00641.181,E,02.9,097,200508,,,A*4F
$IIVHW,,,091,M,02.7,N,,*69
$IIVWR,056,L,21.1,N,,,,*7E
$IIDPT,009.1,-1.0,*48
$IIGLL,4630.032,N,00641.183,E,173022,A,A*5C
$IIHDG,091,,,,*5F
$IIMTW,+09.0,C*31
$IIMWV,304,R,21.1,N,A*16
$IIMWV,297,T,20.1,N,A*1A
$IIRMB,A,0.03,R,,VIDY,,,,,003.26,281,-02.8,V,A*5D
$IIRMC,173022,A,4630.032,N,00641.183,E,02.7,097,200508,,,A*41
$IIVHW,,,090,M,02.7,N,,*68
$IIVWR,057,L,20.2,N,,,,*7D
$IIDPT,008.9,-1.0,*41
$IIGLL,4630.032,N,00641.183,E,173022,A,A*5C
$IIHDG,090,,,,*5E
$IIMTW,+09.0,C*31
$IIMWV,303,R,20.2,N,A*13
$IIMWV,296,T,18.7,N,A*16
$IIRMB,A,0.03,R,,VIDY,,,,,003.27,281,-02.6,V,A*52
$IIRMC,173024,A,4630.032,N,00641.186,E,02.5,093,200508,,,A*44
$IIVHW,,,089,M,02.7,N,,*60
$IIVWR,059,L,19.8,N,,,,*73
$IIDPT,008.6,-1.0,*4E
$IIGLL,4630.032,N,00641.186,E,173024,A,A*5F
$IIHDG,088,,,,*57
$IIMTW,+09.0,C*31
$IIMWV,300,R,19.9,N,A*11
$IIMWV,294,T,18.5,N,A*16
$IIRMC,173024,A,4630.032,N,00641.186,E,02.5,093,200508,,,A*44
$IIVHW,,,088,M,02.7,N,,*61
$IIVWR,060,L,19.9,N,,,,*78
$IIDPT,008.5,-1.0,*4D
$IIGLL,4630.032,N,00641.188,E,173026,A,A*53
$IIHDG,086,,,,*59
$IIMTW,+08.5,C*35
$IIMWV,298,R,19.7,N,A*1F
$IIMWV,293,T,18.7,N,A*13
$IIRMB,A,0.03,R,,VIDY,,,,,003.27,281,-02.5,V,A*51
$IIRMC,173026,A,4630.032,N,00641.188,E,02.5,090,200508,,,A*4B
$IIVHW,,,086,M,02.6,N,,*6E
$IIVWR,063,L,18.7,N,,,,*74
$IIDPT,008.1,-1.0,*49
$IIGLL,4630.032,N,00641.188,E,173026,A,A*53
$IIHDG,085,,,,*5A
$IIMTW,+09.0,C*31
$IIMWV,297,R,18.7,N,A*11
$IIMWV,291,T,18.5,N,A*13
$IIRMC,173026,A,4630.032,N,00641.188,E,02.5,090,200508,,,A*4B
$IIVHW,,,083,M,02.5,N,,*68
$IIVWR,058,L,17.3,N,,,,*77
$IIDPT,007.9,-1.0,*4E
$IIGLL,4630.032,N,00641.189,E,173028,A,A*5C
$IIHDG,083,,,,*5C
$IIMTW,+09.0,C*31
$IIMWV,302,R,17.3,N,A*17
$IIMWV,289,T,17.5,N,A*15
$IIRMB,A,0.03,R,,VIDY,,,,,003.27,281,-02.4,V,A*50
$IIRMC,173028,A,4630.032,N,00641.189,E,02.4,088,200508,,,A*4C
$IIVHW,,,081,M,02.5,N,,*6A
$IIVWR,059,L,16.2,N,,,,*76
$IIDPT,007.6,-1.0,*41
$IIGLL,4630.032,N,00641.189,E,173028,A,A*5C
$IIHDG,081,,,,*5E
$IIMTW,+09.0,C*31
$IIMWV,301,R,16.2,N,A*14
$IIMWV,293,T,15.1,N,A*18
$IIRMB,A,0.03,R,,VIDY,,,,,003.27,281,-02.3,V,A*57
$IIRMC,173030,A,4630.032,N,00641.191,E,02.4,088,200508,,,A*4C
$IIVHW,,,081,M,02.5,N,,*6A
$IIVWR,062,L,15.8,N,,,,*77
$IIDPT,007.4,-1.0,*43
$IIGLL,4630.032,N,00641.191,E,173030,A,A*5C
$IIHDG,080,,,,*5F
$IIMTW,+09.0,C*31
$IIMWV,296,R,15.4,N,A*1E
$IIMWV,290,T,14.7,N,A*1C
$IIRMC,173030,A,4630.032,N,00641.191,E,02.4,088,200508,,,A*4C
$IIVHW,,,080,M,02.4,N,,*6A
$IIVWR,064,L,15.4,N,,,,*7D
$IIDPT,007.1,-1.0,*46
$IIGLL,4630.032,N,00641.193,E,173032,A,A*5C
$IIHDG,080,,,,*5F
$IIMTW,+09.0,C*31
$IIMWV,298,R,15.2,N,A*16
$IIMWV,287,T,14.4,N,A*19
$IIRMB,A,0.03,R,,VIDY,,,,,003.27,281,-02.1,V,A*55
$IIRMC,173032,A,4630.032,N,00641.193,E,02.2,085,200508,,,A*47
$IIVHW,,,080,M,02.4,N,,*6A
$IIVWR,061,L,14.7,N,,,,*7A
$IIDPT,006.5,-1.0,*43
$IIGLL,4630.032,N,00641.193,E,173032,A,A*5C
$IIHDG,079,,,,*59
$IIMTW,+09.0,C*31
$IIMWV,299,R,14.7,N,A*13
$IIMWV,290,T,14.1,N,A*1A
$IIRMC,173032,A,4630.032,N,00641.193,E,02.2,085,200508,,,A*47
$IIVHW,,,077,M,02.3,N,,*65
$IIVWR,060,L,14.7,N,,,,*7B
$IIDPT,006.4,-1.0,*42
$IIGLL,4630.032,N,00641.195,E,173034,A,A*5C
$IIHDG,077,,,,*57
$IIMTW,+09.0,C*31
$IIMWV,300,R,14.7,N,A*12
$IIMWV,290,T,13.5,N,A*19
$IIRMB,A,0.03,R,,VIDY,,,,,003.27,281,-02.0,V,A*54
$IIRMC,173034,A,4630.032,N,00641.195,E,02.1,079,200508,,,A*47
$IIVHW,,,078,M,02.3,N,,*6A
$IIVWR,058,L,14.8,N,,,,*7F
$IIDPT,006.3,-1.0,*45
$IIGLL,4630.032,N,00641.195,E,173034,A,A*5C
$IIHDG,078,,,,*58
$IIMTW,+09.0,C*31
$IIMWV,302,R,14.8,N,A*1F
$IIMWV,294,T,13.6,N,A*1E
$IIRMB,A,0.03,R,,VIDY,,,,,003.27,281,-02.0,V,A*54
$IIRMC,173036,A,4630.032,N,00641.196,E,02.0,082,200508,,,A*43
$IIVHW,,,076,M,02.2,N,,*65
$IIVWR,056,L,14.7,N,,,,*7E
$IIDPT,006.1,-1.0,*47
$IIGLL,4630.032,N,00641.196,E,173036,A,A*5D
$IIHDG,077,,,,*57
$IIMTW,+09.0,C*31
$IIMWV,309,R,13.8,N,A*13
$IIMWV,296,T,13.5,N,A*1F
$IIRMC,173036,A,4630.032,N,00641.196,E,02.0,082,200508,,,A*43
$IIVHW,,,077,M,02.2,N,,*64
$IIVWR,051,L,13.8,N,,,,*71
$IIDPT,006.1,-1.0,*47
$IIGLL,4630.033,N,00641.198,E,173038,A,A*5C
$IIHDG,076,,,,*56
$IIMTW,+09.0,C*31
$IIMWV,313,R,13.1,N,A*11
$IIMWV,301,T,12.4,N,A*10
$IIRMB,A,0.03,R,,VIDY,,,,,003.27,281,-01.9,V,A*5E
$IIRMC,173038,A,4630.033,N,00641.198,E,02.0,082,200508,,,A*42
$IIVHW,,,076,M,02.2,N,,*65
$IIVWR,045,L,12.4,N,,,,*79
$IIDPT,005.9,-1.0,*4C
$IIGLL,4630.033,N,00641.198,E,173038,A,A*5C
$IIHDG,074,,,,*54
$IIMTW,+09.0,C*31
$IIMWV,315,R,12.4,N,A*13
$IIMWV,305,T,11.6,N,A*15
$IIRMC,173038,A,4630.033,N,00641.198,E,02.0,082,200508,,,A*42
$IIVHW,,,074,M,02.0,N,,*65
$IIVWR,000,R,00.0,N,,,,*61
$IIDPT,005.9,-1.0,*4C
$IIGLL,4630.033,N,00641.200,E,173040,A,A*51
$IIHDG,074,,,,*54
$IIMTW,+09.0,C*31
$IIMWV,000,R,00.0,N,A*13
$IIMWV,307,T,11.0,N,A*11
$IIRMB,A,0.03,R,,VIDY,,,,,003.28,281,-01.8,V,A*50
$IIRMC,173040,A,4630.033,N,00641.200,E,01.9,080,200508,,,A*47
$IIVHW,,,075,M,02.0,N,,*64
$IIVWR,047,L,11.2,N,,,,*7E
$IIDPT,005.9,-1.0,*4C
$IIGLL,4630.033,N,00641.200,E,173040,A,A*51
$IIHDG,075,,,,*55
$IIMTW,+09.0,C*31
$IIMWV,313,R,11.2,N,A*10
$IIMWV,304,T,09.7,N,A*1C
$IIRMB,A,0.03,R,,VIDY,,,,,003.28,281,-01.8,V,A*50
$IIRMC,173042,A,4630.033,N,00641.201,E,01.8,084,200508,,,A*41
$IIVHW,,,077,M,02.0,N,,*66
$IIVWR,052,L,10.6,N,,,,*7F
$IIDPT,005.8,-1.0,*4D
$IIGLL,4630.033,N,00641.201,E,173042,A,A*52
$IIHDG,080,,,,*5F
$IIMTW,+09.0,C*31
$IIMWV,309,R,10.7,N,A*1F
$IIMWV,299,T,09.4,N,A*1A
$IIRMC,173042,A,4630.033,N,00641.201,E,01.8,084,200508,,,A*41
$IIVHW,,,080,M,02.0,N,,*6E
$IIVWR,051,L,10.7,N,,,,*7D
$IIDPT,005.7,-1.0,*42
$IIGLL,4630.033,N,00641.202,E,173044,A,A*57
$IIHDG,082,,,,*5D
$IIMTW,+09.0,C*31
$IIMWV,312,R,10.9,N,A*1B
$IIMWV,300,T,09.5,N,A*1A
$IIRMB,A,0.03,R,,VIDY,,,,,003.28,281,-01.8,V,A*50
$IIRMC,173044,A,4630.033,N,00641.202,E,01.7,091,200508,,,A*4F
