$IIVWR,098,R,08.3,N,,,,*6B
$IIDPT,017.9,-1.0,*4F
$IIHDG,270,,,,*52
$IIMTW,+08.0,C*30
$IIMWV,098,R,08.3,N,A*19
$IIMWV,124,T,09.6,N,A*1D
$IIVHW,,,270,M,03.9,N,,*6B
$IIVWR,098,R,07.8,N,,,,*6F
$IIDPT,017.3,-1.0,*45
$IIHDG,269,,,,*5A
$IIMTW,+08.5,C*35
$IIMWV,098,R,07.8,N,A*1D
$IIMWV,122,T,09.6,N,A*1B
$IIVHW,,,269,M,04.0,N,,*6D
$IIVWR,101,R,07.7,N,,,,*61
$IIDPT,017.3,-1.0,*45
$IIHDG,268,,,,*5B
$IIMTW,+08.0,C*30
$IIMWV,101,R,07.7,N,A*13
$IIMWV,123,T,09.2,N,A*1E
$IIVHW,,,268,M,04.1,N,,*6D
$IIVWR,100,R,07.5,N,,,,*62
$IIDPT,017.0,-1.0,*46
$IIMTW,+08.0,C*30
$IIMWV,100,R,07.5,N,A*10
$IIMWV,126,T,09.3,N,A*1A
$IIVHW,,,267,M,04.1,N,,*62
$IIVWR,101,R,07.4,N,,,,*62
$IIDPT,017.0,-1.0,*46
$IIHDG,267,,,,*54
$IIMTW,+08.5,C*35
$IIMWV,101,R,07.4,N,A*10
$IIMWV,127,T,09.0,N,A*18
$IIVHW,,,267,M,04.2,N,,*61
$IIVWR,101,R,07.8,N,,,,*6E
$IIDPT,017.0,-1.0,*46
$IIHDG,267,,,,*54
$IIMTW,+08.5,C*35
$IIMWV,101,R,07.8,N,A*1C
$IIMWV,128,T,09.1,N,A*16
$IIVHW,,,267,M,04.2,N,,*61
$IIVWR,099,R,08.0,N,,,,*69
$IIDPT,020.7,-1.0,*45
$IIHDG,267,,,,*54
$IIMTW,+09.0,C*31
$IIMWV,099,R,08.0,N,A*1B
$IIMWV,127,T,09.4,N,A*1C
$IIVHW,,,267,M,04.2,N,,*61
$IIVWR,098,R,08.7,N,,,,*6F
$IIDPT,020.7,-1.0,*45
$IIHDG,267,,,,*54
$IIMTW,+09.0,C*31
$IIMWV,098,R,08.7,N,A*1D
$IIMWV,125,T,09.6,N,A*1C
$IIVHW,,,267,M,04.2,N,,*61
$IIVWR,096,R,09.0,N,,,,*67
$IIDPT,020.7,-1.0,*45
$IIHDG,266,,,,*55
$IIMTW,+09.0,C*31
$IIMWV,096,R,09.0,N,A*15
$IIMWV,123,T,10.2,N,A*16
$IIVHW,,,266,M,04.2,N,,*60
$IIVWR,096,R,08.9,N,,,,*6F
$IIDPT,021.3,-1.0,*40
$IIHDG,266,,,,*55
$IIMTW,+08.5,C*35
$IIMWV,096,R,08.9,N,A*1D
$IIMWV,120,T,10.3,N,A*14
$IIVHW,,,266,M,04.2,N,,*60
$IIVWR,095,R,08.5,N,,,,*60
$IIDPT,021.0,-1.0,*43
$IIHDG,267,,,,*54
$IIMTW,+08.0,C*30
$IIMWV,095,R,08.5,N,A*12
$IIMWV,120,T,10.1,N,A*16
$IIVHW,,,267,M,04.2,N,,*61
$IIVWR,102,R,07.9,N,,,,*6C
$IIDPT,020.8,-1.0,*4A
$IIHDG,268,,,,*5B
$IIMTW,+09.0,C*31
$IIMWV,102,R,07.9,N,A*1E
$IIMWV,120,T,09.8,N,A*17
$IIVHW,,,268,M,04.1,N,,*6D
$IIVWR,108,R,06.9,N,,,,*67
$IIDPT,020.8,-1.0,*4A
$IIHDG,267,,,,*54
$IIMTW,+09.0,C*31
$IIMWV,108,R,06.9,N,A*15
$IIMWV,127,T,09.6,N,A*1E
$IIVHW,,,267,M,04.1,N,,*62
$IIVWR,105,R,06.4,N,,,,*67
$IIDPT,022.7,-1.0,*47
$IIHDG,267,,,,*54
$IIMTW,+08.5,C*35
$IIMWV,105,R,06.4,N,A*15
$IIMWV,134,T,09.0,N,A*1A
$IIVHW,,,267,M,04.1,N,,*62
$IIVWR,111,R,05.7,N,,,,*62
$IIDPT,022.7,-1.0,*47
$IIHDG,268,,,,*5B
$IIMTW,+09.0,C*31
$IIMWV,111,R,05.7,N,A*10
$IIMWV,133,T,08.4,N,A*18
$IIVHW,,,268,M,04.1,N,,*6D
$IIVWR,117,R,05.4,N,,,,*67
$IIDPT,022.7,-1.0,*47
$IIHDG,269,,,,*5A
$IIMTW,+08.0,C*30
$IIMWV,117,R,05.4,N,A*15
$IIMWV,139,T,08.0,N,A*16
$IIVHW,,,269,M,04.1,N,,*6C
$IIVWR,116,R,05.1,N,,,,*63
$IIDPT,022.4,-1.0,*44
$IIHDG,269,,,,*5A
$IIMTW,+08.0,C*30
$IIMWV,116,R,05.1,N,A*11
$IIMWV,143,T,08.0,N,A*1B
$IIVHW,,,269,M,04.1,N,,*6C
$IIVWR,115,R,05.2,N,,,,*63
$IIDPT,021.8,-1.0,*4B
$IIHDG,270,,,,*52
$IIMTW,+08.0,C*30
$IIMWV,115,R,05.2,N,A*11
$IIMWV,145,T,07.8,N,A*1A
$IIVHW,,,270,M,04.1,N,,*64
$IIVWR,108,R,05.4,N,,,,*69
$IIDPT,020.4,-1.0,*46
$IIHDG,269,,,,*5A
$IIMTW,+08.0,C*30
$IIMWV,108,R,05.4,N,A*1B
$IIMWV,143,T,07.8,N,A*1C
$IIVHW,,,269,M,04.2,N,,*6F
$IIVWR,102,R,05.5,N,,,,*62
$IIDPT,020.4,-1.0,*46
$IIHDG,270,,,,*52
$IIMTW,+09.0,C*31
$IIMWV,102,R,05.5,N,A*10
$IIMWV,139,T,07.7,N,A*1E
$IIVHW,,,270,M,04.2,N,,*67
$IIVWR,096,R,05.8,N,,,,*63
$IIDPT,019.9,-1.0,*41
$IIHDG,270,,,,*52
$IIMTW,+09.0,C*31
$IIMWV,096,R,05.8,N,A*11
$IIMWV,135,T,07.5,N,A*10
$IIVHW,,,270,M,04.2,N,,*67
$IIVWR,093,R,05.7,N,,,,*69
$IIDPT,019.9,-1.0,*41
$IIHDG,270,,,,*52
$IIMTW,+09.0,C*31
$IIMWV,093,R,05.7,N,A*1B
$IIMWV,130,T,07.4,N,A*14
$IIVHW,,,270,M,04.3,N,,*66
$IIVWR,094,R,05.7,N,,,,*6E
$IIDPT,023.9,-1.0,*48
$IIHDG,271,,,,*53
$IIMTW,+09.0,C*31
$IIMWV,094,R,05.7,N,A*1C
$IIMWV,128,T,07.2,N,A*1B
$IIVHW,,,271,M,04.3,N,,*67
$IIVWR,091,R,05.9,N,,,,*65
$IIDPT,026.7,-1.0,*43
$IIHDG,271,,,,*53
$IIMTW,+09.0,C*31
$IIMWV,091,R,05.9,N,A*17
$IIMWV,129,T,07.3,N,A*1B
$IIVHW,,,271,M,04.3,N,,*67
$IIVWR,091,R,05.9,N,,,,*65
$IIDPT,026.7,-1.0,*43
$IIHDG,270,,,,*52
$IIMTW,+09.0,C*31
$IIMWV,091,R,05.9,N,A*17
$IIMWV,127,T,07.4,N,A*12
$IIVHW,,,270,M,04.3,N,,*66
$IIVWR,095,R,06.0,N,,,,*6B
$IIDPT,026.7,-1.0,*43
$IIHDG,269,,,,*5A
$IIMTW,+09.0,C*31
$IIMWV,095,R,06.0,N,A*19
$IIMWV,127,T,07.4,N,A*12
$IIVHW,,,269,M,04.3,N,,*6E
$IIVWR,100,R,06.0,N,,,,*66
$IIDPT,026.8,-1.0,*4C
$IIHDG,269,,,,*5A
$IIMTW,+09.0,C*31
$IIMWV,100,R,06.0,N,A*14
$IIMWV,129,T,07.7,N,A*1F
$IIVHW,,,269,M,04.3,N,,*6E
$IIVWR,106,R,06.1,N,,,,*61
$IIDPT,027.0,-1.0,*45
$IIHDG,269,,,,*5A
$IIMTW,+09.0,C*31
$IIMWV,106,R,06.1,N,A*13
$IIMWV,133,T,07.9,N,A*1A
$IIVHW,,,269,M,04.3,N,,*6E
$IIVWR,110,R,06.0,N,,,,*67
$IIDPT,026.0,-1.0,*44
$IIHDG,269,,,,*5A
$IIMTW,+09.0,C*31
$IIMWV,110,R,06.0,N,A*15
$IIMWV,136,T,08.4,N,A*1D
$IIVHW,,,269,M,04.3,N,,*6E
$IIVWR,119,R,05.9,N,,,,*64
$IIDPT,024.6,-1.0,*40
$IIHDG,269,,,,*5A
$IIMTW,+09.0,C*31
$IIMWV,119,R,05.9,N,A*16
$IIMWV,139,T,08.5,N,A*13
$IIVHW,,,269,M,04.3,N,,*6E
$IIVWR,126,R,06.0,N,,,,*62
$IIDPT,024.6,-1.0,*40
$IIHDG,269,,,,*5A
$IIMTW,+09.0,C*31
$IIMWV,126,R,06.0,N,A*10
$IIMWV,145,T,08.8,N,A*15
$IIVHW,,,269,M,04.3,N,,*6E
$IIVWR,131,R,06.2,N,,,,*66
$IIDPT,023.5,-1.0,*44
$IIHDG,268,,,,*5B
$IIMTW,+09.0,C*31
$IIMWV,131,R,06.2,N,A*14
$IIMWV,148,T,09.1,N,A*10
$IIVHW,,,268,M,04.2,N,,*6E
$IIVWR,136,R,05.7,N,,,,*67
$IIDPT,022.4,-1.0,*44
$IIHDG,268,,,,*5B
$IIMTW,+09.0,C*31
$IIMWV,136,R,05.7,N,A*15
$IIMWV,151,T,09.4,N,A*1D
$IIVHW,,,268,M,04.2,N,,*6E
$IIVWR,137,R,05.4,N,,,,*65
$IIDPT,022.4,-1.0,*44
$IIHDG,269,,,,*5A
$IIMTW,+09.0,C*31
$IIMWV,137,R,05.4,N,A*17
$IIMWV,155,T,09.2,N,A*1F
$IIVHW,,,269,M,04.2,N,,*6F
$IIVWR,121,R,05.4,N,,,,*62
$IIDPT,022.6,-1.0,*46
$IIHDG,269,,,,*5A
$IIMTW,+09.0,C*31
$IIMWV,121,R,05.4,N,A*10
$IIMWV,156,T,08.8,N,A*17
$IIVHW,,,269,M,04.1,N,,*6C
$IIVWR,118,R,04.8,N,,,,*65
$IIDPT,022.9,-1.0,*49
$IIHDG,268,,,,*5B
$IIMTW,+08.0,C*30
$IIMWV,118,R,04.8,N,A*17
$IIMWV,147,T,08.3,N,A*1C
$IIVHW,,,268,M,04.1,N,,*6D
$IIVWR,115,R,04.0,N,,,,*60
$IIDPT,022.9,-1.0,*49
$IIHDG,268,,,,*5B
$IIMTW,+08.0,C*30
$IIMWV,115,R,04.0,N,A*12
$IIMWV,147,T,07.6,N,A*16
$IIVHW,,,268,M,04.1,N,,*6D
$IIVWR,125,R,03.4,N,,,,*60
$IIDPT,021.9,-1.0,*4A
$IIHDG,269,,,,*5A
$IIMTW,+08.0,C*30
$IIMWV,125,R,03.4,N,A*12
$IIMWV,148,T,06.7,N,A*19
$IIVHW,,,269,M,04.0,N,,*6D
$IIVWR,132,R,03.3,N,,,,*61
$IIDPT,024.1,-1.0,*47
$IIHDG,269,,,,*5A
$IIMTW,+08.5,C*35
$IIMWV,132,R,03.3,N,A*13
$IIMWV,156,T,06.5,N,A*14
$IIVHW,,,269,M,04.0,N,,*6D
$IIVWR,130,R,03.3,N,,,,*63
$IIDPT,021.8,-1.0,*4B
$IIHDG,270,,,,*52
$IIMTW,+08.5,C*35
$IIMWV,130,R,03.3,N,A*11
$IIMWV,159,T,06.7,N,A*19
$IIVHW,,,270,M,04.0,N,,*65
$IIVWR,123,R,03.1,N,,,,*63
$IIDPT,021.8,-1.0,*4B
$IIHDG,270,,,,*52
$IIMTW,+08.5,C*35
$IIMWV,123,R,03.1,N,A*11
$IIMWV,158,T,06.6,N,A*19
$IIVHW,,,270,M,04.0,N,,*65
$IIVWR,118,R,03.4,N,,,,*6E
$IIDPT,022.4,-1.0,*44
$IIHDG,271,,,,*53
$IIMTW,+08.5,C*35
$IIMWV,118,R,03.4,N,A*1C
$IIMWV,155,T,06.1,N,A*13
$IIVHW,,,271,M,03.9,N,,*6A
$IIVWR,129,R,03.5,N,,,,*6D
$IIDPT,025.4,-1.0,*43
$IIHDG,272,,,,*50
$IIMTW,+08.5,C*35
$IIMWV,129,R,03.5,N,A*1F
$IIMWV,152,T,06.2,N,A*17
$IIVHW,,,272,M,03.9,N,,*69
$IIVWR,123,R,04.1,N,,,,*64
$IIDPT,026.0,-1.0,*44
$IIHDG,273,,,,*51
$IIMTW,+09.0,C*31
$IIMWV,123,R,04.1,N,A*16
$IIMWV,157,T,06.7,N,A*17
$IIVHW,,,273,M,03.9,N,,*68
$IIVWR,133,R,04.5,N,,,,*61
$IIDPT,026.0,-1.0,*44
$IIHDG,273,,,,*51
$IIMTW,+09.0,C*31
$IIMWV,133,R,04.5,N,A*13
$IIMWV,151,T,06.9,N,A*1F
$IIVHW,,,273,M,03.9,N,,*68
$IIVWR,137,R,04.5,N,,,,*65
$IIDPT,027.4,-1.0,*41
$IIHDG,273,,,,*51
$IIMTW,+08.0,C*30
$IIMWV,137,R,04.5,N,A*17
$IIMWV,155,T,07.6,N,A*15
$IIVHW,,,273,M,03.9,N,,*68
$IIVWR,136,R,05.3,N,,,,*63
$IIDPT,028.0,-1.0,*4A
$IIHDG,274,,,,*56
$IIMTW,+09.0,C*31
$IIMWV,136,R,05.3,N,A*11
$IIMWV,157,T,07.7,N,A*16
$IIVHW,,,274,M,03.9,N,,*6F
$IIVWR,135,R,05.9,N,,,,*6A
$IIDPT,029.9,-1.0,*42
$IIHDG,274,,,,*56
$IIMTW,+08.5,C*35
$IIMWV,135,R,05.9,N,A*18
$IIMWV,155,T,08.5,N,A*19
$IIVHW,,,274,M,03.9,N,,*6F
$IIVWR,136,R,06.6,N,,,,*65
$IIDPT,031.0,-1.0,*42
$IIHDG,275,,,,*57
$IIMTW,+09.0,C*31
$IIMWV,136,R,06.6,N,A*17
$IIMWV,153,T,08.9,N,A*13
$IIVHW,,,275,M,03.9,N,,*6E
$IIVWR,135,R,06.8,N,,,,*68
$IIDPT,031.0,-1.0,*42
$IIHDG,275,,,,*57
$IIMTW,+08.0,C*30
$IIMWV,135,R,06.8,N,A*1A
$IIMWV,153,T,09.7,N,A*1C
$IIVHW,,,275,M,03.9,N,,*6E
$IIVWR,136,R,06.8,N,,,,*6B
$IIDPT,029.9,-1.0,*42
$IIHDG,275,,,,*57
$IIMTW,+08.5,C*35
$IIMWV,136,R,06.8,N,A*19
$IIMWV,151,T,10.0,N,A*11
$IIVHW,,,275,M,03.9,N,,*6E
$IIVWR,138,R,06.8,N,,,,*65
$IIDPT,029.2,-1.0,*49
$IIHDG,275,,,,*57
$IIMTW,+09.0,C*31
$IIMWV,138,R,06.8,N,A*17
$IIMWV,153,T,09.9,N,A*12
$IIVHW,,,275,M,04.0,N,,*60
$IIVWR,137,R,06.7,N,,,,*65
$IIDPT,026.7,-1.0,*43
$IIHDG,275,,,,*57
$IIMTW,+09.0,C*31
$IIMWV,137,R,06.7,N,A*17
$IIMWV,153,T,10.0,N,A*13
$IIVHW,,,275,M,04.0,N,,*60
$IIVWR,137,R,06.7,N,,,,*65
$IIDPT,026.2,-1.0,*46
$IIHDG,275,,,,*57
$IIMTW,+09.0,C*31
$IIMWV,137,R,06.7,N,A*17
$IIMWV,153,T,09.8,N,A*13
$IIVHW,,,275,M,04.0,N,,*60
$IIVWR,136,R,06.8,N,,,,*6B
$IIDPT,026.2,-1.0,*46
$IIHDG,275,,,,*57
$IIMTW,+09.0,C*31
$IIMWV,136,R,06.8,N,A*19
$IIMWV,153,T,09.9,N,A*12
$IIVHW,,,275,M,04.0,N,,*60
$IIVWR,135,R,06.9,N,,,,*69
$IIDPT,026.2,-1.0,*46
$IIHDG,276,,,,*54
$IIMTW,+09.0,C*31
$IIMWV,135,R,06.9,N,A*1B
$IIMWV,153,T,10.0,N,A*13
$IIVHW,,,276,M,04.0,N,,*63
$IIVWR,133,R,06.7,N,,,,*61
$IIDPT,026.2,-1.0,*46
$IIHDG,277,,,,*55
$IIMTW,+09.0,C*31
$IIMWV,133,R,06.7,N,A*13
$IIMWV,152,T,10.1,N,A*13
$IIVHW,,,277,M,04.1,N,,*63
$IIVWR,129,R,07.0,N,,,,*6C
$IIDPT,026.2,-1.0,*46
$IIHDG,277,,,,*55
$IIMTW,+09.0,C*31
$IIMWV,129,R,07.0,N,A*1E
$IIMWV,151,T,09.8,N,A*11
$IIVHW,,,277,M,04.1,N,,*63
$IIVWR,125,R,07.3,N,,,,*63
$IIDPT,025.5,-1.0,*42
$IIHDG,276,,,,*54
$IIMTW,+09.0,C*31
$IIMWV,125,R,07.3,N,A*11
$IIMWV,148,T,10.1,N,A*18
$IIVHW,,,276,M,04.1,N,,*62
$IIVWR,124,R,07.1,N,,,,*60
$IIDPT,024.5,-1.0,*43
$IIHDG,276,,,,*54
$IIMTW,+09.0,C*31
$IIMWV,124,R,07.1,N,A*12
$IIMWV,145,T,10.1,N,A*15
$IIVHW,,,276,M,04.2,N,,*61
$IIVWR,124,R,06.8,N,,,,*68
$IIDPT,024.5,-1.0,*43
$IIHDG,276,,,,*54
$IIMTW,+08.5,C*35
$IIMWV,124,R,06.8,N,A*1A
$IIMWV,144,T,09.9,N,A*14
$IIVHW,,,276,M,04.2,N,,*61
$IIVWR,123,R,06.5,N,,,,*62
$IIDPT,024.5,-1.0,*43
$IIHDG,277,,,,*55
$IIMTW,+09.0,C*31
$IIMWV,123,R,06.5,N,A*10
$IIMWV,145,T,09.7,N,A*1B
$IIVHW,,,277,M,04.2,N,,*60
$IIVWR,124,R,06.5,N,,,,*65
$IIDPT,024.5,-1.0,*43
$IIHDG,277,,,,*55
$IIMTW,+09.0,C*31
$IIMWV,124,R,06.5,N,A*17
$IIMWV,145,T,09.4,N,A*18
$IIVHW,,,277,M,04.3,N,,*61
$IIVWR,126,R,06.5,N,,,,*67
$IIDPT,024.5,-1.0,*43
$IIHDG,276,,,,*54
$IIMTW,+09.0,C*31
$IIMWV,126,R,06.5,N,A*15
$IIMWV,146,T,09.5,N,A*1A
$IIVHW,,,276,M,04.3,N,,*60
$IIVWR,128,R,06.8,N,,,,*64
$IIDPT,025.4,-1.0,*43
$IIHDG,276,,,,*54
$IIMTW,+09.0,C*31
$IIMWV,128,R,06.8,N,A*16
$IIMWV,147,T,09.6,N,A*18
$IIVHW,,,276,M,04.3,N,,*60
$IIVWR,128,R,07.0,N,,,,*6D
$IIDPT,026.5,-1.0,*41
$IIHDG,277,,,,*55
$IIMTW,+09.0,C*31
$IIMWV,128,R,07.0,N,A*1F
$IIMWV,148,T,10.1,N,A*18
$IIVHW,,,277,M,04.3,N,,*61
$IIVWR,129,R,07.0,N,,,,*6C
$IIDPT,027.6,-1.0,*43
$IIHDG,277,,,,*55
$IIMTW,+09.0,C*31
$IIMWV,129,R,07.0,N,A*1E
$IIMWV,148,T,10.2,N,A*1B
$IIVHW,,,277,M,04.4,N,,*66
$IIVWR,132,R,07.0,N,,,,*66
$IIDPT,030.8,-1.0,*4B
$IIHDG,277,,,,*55
$IIMTW,+09.0,C*31
$IIMWV,132,R,07.0,N,A*14
$IIMWV,148,T,10.3,N,A*1A
$IIVHW,,,277,M,04.4,N,,*66
$IIVWR,133,R,07.2,N,,,,*65
$IIDPT,031.0,-1.0,*42
$IIHDG,276,,,,*54
$IIMTW,+09.0,C*31
$IIMWV,133,R,07.2,N,A*17
$IIMWV,150,T,10.3,N,A*13
$IIVHW,,,276,M,04.4,N,,*67
$IIVWR,135,R,07.0,N,,,,*61
$IIDPT,029.0,-1.0,*4B
$IIHDG,276,,,,*54
$IIMTW,+09.0,C*31
$IIMWV,135,R,07.0,N,A*13
$IIMWV,151,T,10.6,N,A*17
$IIVHW,,,276,M,04.4,N,,*67
$IIVWR,139,R,06.9,N,,,,*65
$IIDPT,029.0,-1.0,*4B
$IIHDG,276,,,,*54
$IIMTW,+09.0,C*31
$IIMWV,139,R,06.9,N,A*17
$IIMWV,153,T,10.6,N,A*15
$IIVHW,,,276,M,04.4,N,,*67
$IIVWR,144,R,07.1,N,,,,*66
$IIDPT,029.0,-1.0,*4B
$IIHDG,276,,,,*54
$IIMTW,+09.0,C*31
$IIMWV,144,R,07.1,N,A*14
$IIMWV,155,T,10.6,N,A*13
$IIVHW,,,276,M,04.4,N,,*67
$IIVWR,145,R,07.2,N,,,,*64
$IIDPT,029.2,-1.0,*49
$IIHDG,276,,,,*54
$IIMTW,+08.0,C*30
$IIMWV,145,R,07.2,N,A*16
$IIMWV,158,T,10.9,N,A*11
$IIVHW,,,276,M,04.5,N,,*66
$IIVWR,148,R,07.1,N,,,,*6A
$IIDPT,029.2,-1.0,*49
$IIHDG,277,,,,*55
$IIMTW,+09.0,C*31
$IIMWV,148,R,07.1,N,A*18
$IIMWV,159,T,11.1,N,A*19
$IIVHW,,,277,M,04.5,N,,*67
$IIVWR,146,R,07.0,N,,,,*65
$IIDPT,029.2,-1.0,*49
$IIHDG,277,,,,*55
$IIMTW,+09.0,C*31
$IIMWV,147,R,07.1,N,A*17
$IIMWV,159,T,11.1,N,A*19
$IIVHW,,,277,M,04.5,N,,*67
$IIVWR,147,R,07.1,N,,,,*65
$IIDPT,029.3,-1.0,*48
$IIHDG,277,,,,*55
$IIMTW,+08.0,C*30
$IIMWV,144,R,07.3,N,A*16
$IIMWV,160,T,11.1,N,A*13
$IIVHW,,,277,M,04.5,N,,*67
$IIVWR,144,R,07.3,N,,,,*64
$IIDPT,029.9,-1.0,*42
$IIHDG,277,,,,*55
$IIMTW,+08.0,C*30
$IIMWV,141,R,06.9,N,A*18
$IIMWV,158,T,11.3,N,A*1A
$IIVHW,,,277,M,04.6,N,,*64
$IIVWR,141,R,06.9,N,,,,*6A
$IIDPT,029.9,-1.0,*42
$IIHDG,277,,,,*55
$IIMTW,+08.5,C*35
$IIMWV,135,R,07.3,N,A*10
$IIMWV,157,T,10.7,N,A*10
$IIVHW,,,277,M,04.6,N,,*64
$IIVWR,135,R,07.3,N,,,,*62
$IIDPT,029.4,-1.0,*4F
$IIHDG,277,,,,*55
$IIMTW,+08.5,C*35
$IIMWV,131,R,06.9,N,A*1F
$IIMWV,152,T,10.9,N,A*1B
$IIVHW,,,277,M,04.7,N,,*65
$IIVWR,131,R,06.9,N,,,,*6D
$IIDPT,030.8,-1.0,*4B
$IIHDG,277,,,,*55
$IIMTW,+08.5,C*35
$IIMWV,127,R,06.6,N,A*17
$IIMWV,151,T,10.5,N,A*14
$IIVHW,,,276,M,04.7,N,,*64
$IIVWR,127,R,06.6,N,,,,*65
$IIDPT,032.4,-1.0,*45
$IIHDG,276,,,,*54
$IIMTW,+08.0,C*30
$IIMWV,122,R,07.0,N,A*15
$IIMWV,149,T,10.1,N,A*19
$IIVHW,,,275,M,04.8,N,,*68
$IIVWR,122,R,07.0,N,,,,*67
$IIDPT,030.9,-1.0,*4A
$IIHDG,275,,,,*57
$IIMTW,+08.0,C*30
$IIMWV,118,R,06.8,N,A*15
$IIMWV,145,T,10.3,N,A*17
$IIVHW,,,275,M,04.8,N,,*68
$IIVWR,118,R,06.8,N,,,,*67
$IIDPT,028.9,-1.0,*43
$IIHDG,275,,,,*57
$IIMTW,+09.0,C*31
$IIMWV,115,R,06.9,N,A*19
$IIMWV,143,T,09.8,N,A*12
$IIVHW,,,274,M,04.9,N,,*68
$IIVWR,115,R,06.9,N,,,,*6B
$IIDPT,027.9,-1.0,*4C
$IIHDG,274,,,,*56
$IIMTW,+09.0,C*31
$IIMWV,114,R,06.8,N,A*19
$IIMWV,141,T,09.8,N,A*10
$IIVHW,,,273,M,04.9,N,,*6F
$IIVWR,114,R,06.8,N,,,,*6B
$IIDPT,026.4,-1.0,*40
$IIHDG,273,,,,*51
$IIMTW,+09.0,C*31
$IIMWV,112,R,06.8,N,A*1F
$IIMWV,142,T,09.8,N,A*13
$IIVHW,,,272,M,05.0,N,,*66
$IIVWR,112,R,06.8,N,,,,*6D
$IIDPT,026.4,-1.0,*40
$IIHDG,272,,,,*50
$IIMTW,+09.0,C*31
$IIMWV,112,R,06.7,N,A*10
$IIMWV,140,T,09.7,N,A*1E
$IIVHW,,,272,M,05.0,N,,*66
$IIVWR,112,R,06.7,N,,,,*62
$IIDPT,026.4,-1.0,*40
$IIHDG,272,,,,*50
$IIMTW,+09.0,C*31
$IIMWV,107,R,06.5,N,A*16
$IIMWV,140,T,09.7,N,A*1E
$IIVHW,,,272,M,05.0,N,,*66
$IIVWR,107,R,06.5,N,,,,*64
$IIDPT,027.8,-1.0,*4D
$IIHDG,272,,,,*50
$IIMTW,+09.0,C*31
$IIMWV,107,R,06.2,N,A*11
$IIMWV,138,T,09.2,N,A*14
$IIVHW,,,272,M,05.1,N,,*67
$IIVWR,107,R,06.2,N,,,,*63
$IIDPT,030.5,-1.0,*46
$IIHDG,272,,,,*50
$IIMTW,+09.0,C*31
$IIMWV,109,R,06.3,N,A*1E
$IIMWV,139,T,09.0,N,A*17
$IIVHW,,,272,M,05.1,N,,*67
$IIVWR,109,R,06.3,N,,,,*6C
$IIDPT,032.2,-1.0,*43
$IIHDG,272,,,,*50
$IIMTW,+09.0,C*31
$IIMWV,107,R,06.1,N,A*12
$IIMWV,141,T,09.3,N,A*1B
$IIVHW,,,273,M,05.1,N,,*66
$IIVWR,107,R,06.1,N,,,,*60
$IIDPT,032.2,-1.0,*43
$IIHDG,273,,,,*51
$IIMTW,+09.0,C*31
$IIMWV,107,R,06.0,N,A*13
$IIMWV,140,T,09.0,N,A*19
$IIVHW,,,272,M,05.1,N,,*67
$IIVWR,107,R,06.0,N,,,,*61
$IIDPT,033.7,-1.0,*47
$IIHDG,272,,,,*50
$IIMTW,+09.0,C*31
$IIMWV,104,R,06.1,N,A*11
$IIMWV,140,T,08.9,N,A*11
$IIVHW,,,272,M,05.2,N,,*64
$IIVWR,104,R,06.1,N,,,,*63
$IIDPT,033.7,-1.0,*47
$IIHDG,272,,,,*50
$IIMTW,+09.0,C*31
$IIMWV,106,R,06.0,N,A*12
$IIMWV,138,T,08.8,N,A*1F
$IIVHW,,,271,M,05.2,N,,*67
$IIVWR,106,R,06.0,N,,,,*60
$IIDPT,031.1,-1.0,*43
$IIHDG,271,,,,*53
$IIMTW,+09.0,C*31
$IIMWV,104,R,05.7,N,A*14
$IIMWV,140,T,08.8,N,A*10
$IIVHW,,,271,M,05.2,N,,*67
$IIVWR,104,R,05.7,N,,,,*66
$IIDPT,029.3,-1.0,*48
$IIHDG,271,,,,*53
$IIMTW,+09.0,C*31
$IIMWV,110,R,05.4,N,A*12
$IIMWV,140,T,08.5,N,A*1D
$IIVHW,,,272,M,05.1,N,,*67
$IIVWR,110,R,05.4,N,,,,*60
$IIDPT,028.6,-1.0,*4C
$IIHDG,272,,,,*50
$IIMTW,+09.0,C*31
$IIMWV,000,R,00.0,N,A*13
$IIMWV,144,T,08.6,N,A*1A
$IIVHW,,,273,M,05.1,N,,*66
$IIVWR,000,R,00.0,N,,,,*61
$IIDPT,029.1,-1.0,*4A
$IIHDG,273,,,,*51
$IIMTW,+09.0,C*31
$IIMWV,119,R,04.9,N,A*17
$IIMWV,000,T,05.2,N,A*12
$IIVHW,,,273,M,05.1,N,,*66
$IIVWR,119,R,04.9,N,,,,*65
$IIDPT,028.6,-1.0,*4C
$IIHDG,273,,,,*51
$IIMTW,+09.0,C*31
$IIMWV,120,R,04.9,N,A*1D
$IIMWV,150,T,08.5,N,A*1C
$IIVHW,,,273,M,05.1,N,,*66
$IIVWR,120,R,04.9,N,,,,*6F
$IIDPT,029.1,-1.0,*4A
$IIHDG,273,,,,*51
$IIMTW,+09.0,C*31
$IIMWV,120,R,04.8,N,A*1C
$IIMWV,151,T,08.5,N,A*1D
$IIVHW,,,271,M,05.1,N,,*64
$IIVWR,120,R,04.8,N,,,,*6E
$IIDPT,028.6,-1.0,*4C
$IIHDG,271,,,,*53
$IIMTW,+09.0,C*31
$IIMWV,124,R,04.9,N,A*19
$IIMWV,151,T,08.5,N,A*1D
$IIVHW,,,270,M,05.0,N,,*64
$IIVWR,124,R,04.9,N,,,,*6B
$IIDPT,028.8,-1.0,*42
$IIHDG,270,,,,*52
$IIMTW,+08.0,C*30
$IIMWV,128,R,04.9,N,A*15
$IIMWV,153,T,08.7,N,A*1D
$IIVHW,,,270,M,05.0,N,,*64
$IIVWR,128,R,04.9,N,,,,*67
$IIDPT,028.8,-1.0,*42
$IIHDG,270,,,,*52
$IIMTW,+08.0,C*30
$IIMWV,127,R,04.9,N,A*1A
$IIMWV,155,T,08.9,N,A*15
$IIVHW,,,270,M,05.0,N,,*64
$IIVWR,127,R,04.9,N,,,,*68
$IIDPT,027.7,-1.0,*42
$IIHDG,270,,,,*52
$IIMTW,+08.5,C*35
$IIMWV,125,R,05.0,N,A*10
$IIMWV,154,T,08.8,N,A*15
$IIVHW,,,269,M,04.9,N,,*64
$IIVWR,125,R,05.0,N,,,,*62
$IIDPT,028.8,-1.0,*42
$IIHDG,269,,,,*5A
$IIMTW,+08.5,C*35
$IIMWV,127,R,05.3,N,A*11
$IIMWV,152,T,08.8,N,A*13
$IIVHW,,,269,M,04.9,N,,*64
$IIVWR,127,R,05.3,N,,,,*63
$IIDPT,027.6,-1.0,*43
$IIHDG,269,,,,*5A
$IIMTW,+08.5,C*35
$IIMWV,126,R,05.8,N,A*1B
$IIMWV,153,T,09.1,N,A*1A
$IIVHW,,,268,M,04.9,N,,*65
$IIVWR,126,R,05.8,N,,,,*69
$IIDPT,028.1,-1.0,*4B
$IIHDG,268,,,,*5B
$IIMTW,+08.5,C*35
$IIMWV,126,R,05.9,N,A*1A
$IIMWV,151,T,09.4,N,A*1D
$IIVHW,,,267,M,04.8,N,,*6B
$IIVWR,126,R,05.9,N,,,,*68
$IIDPT,028.1,-1.0,*4B
$IIHDG,267,,,,*54
$IIMTW,+08.5,C*35
$IIMWV,128,R,06.0,N,A*1E
$IIMWV,150,T,09.5,N,A*1D
$IIVHW,,,268,M,04.8,N,,*64
$IIVWR,128,R,06.0,N,,,,*6C
$IIDPT,030.1,-1.0,*42
$IIHDG,268,,,,*5B
$IIMTW,+08.5,C*35
$IIMWV,130,R,05.9,N,A*1D
$IIMWV,151,T,09.7,N,A*1E
$IIVHW,,,267,M,04.7,N,,*64
$IIVWR,130,R,05.9,N,,,,*6F
$IIDPT,032.3,-1.0,*42
$IIHDG,267,,,,*54
$IIMTW,+08.5,C*35
$IIMWV,134,R,05.9,N,A*19
$IIMWV,152,T,09.6,N,A*1C
$IIVHW,,,268,M,04.7,N,,*6B
$IIVWR,134,R,05.9,N,,,,*6B
$IIDPT,030.8,-1.0,*4B
$IIHDG,268,,,,*5B
$IIMTW,+08.0,C*30
$IIMWV,134,R,05.9,N,A*19
$IIMWV,154,T,09.6,N,A*1A
$IIVHW,,,268,M,04.6,N,,*6A
$IIVWR,134,R,05.9,N,,,,*6B
$IIDPT,030.8,-1.0,*4B
$IIHDG,268,,,,*5B
$IIMTW,+09.0,C*31
$IIMWV,000,R,00.0,N,A*13
$IIMWV,154,T,09.5,N,A*19
$IIVHW,,,269,M,04.5,N,,*68
$IIVWR,000,R,00.0,N,,,,*61
$IIDPT,032.8,-1.0,*49
$IIHDG,269,,,,*5A
$IIMTW,+09.0,C*31
$IIMWV,140,R,05.6,N,A*15
$IIMWV,000,T,04.6,N,A*17
$IIVHW,,,269,M,04.5,N,,*68
$IIVWR,140,R,05.6,N,,,,*67
$IIDPT,034.2,-1.0,*45
$IIHDG,269,,,,*5A
$IIMTW,+09.0,C*31
$IIMWV,149,R,05.6,N,A*1C
$IIMWV,158,T,09.4,N,A*14
$IIVHW,,,268,M,04.4,N,,*68
$IIVWR,149,R,05.6,N,,,,*6E
$IIDPT,034.3,-1.0,*44
$IIHDG,268,,,,*5B
$IIMTW,+08.5,C*35
$IIMWV,154,R,05.4,N,A*12
$IIMWV,163,T,09.7,N,A*1F
$IIVHW,,,269,M,04.4,N,,*69
$IIVWR,154,R,05.4,N,,,,*60
$IIDPT,034.3,-1.0,*44
$IIHDG,269,,,,*5A
$IIMTW,+08.5,C*35
$IIMWV,151,R,04.7,N,A*15
$IIMWV,166,T,09.4,N,A*19
$IIVHW,,,269,M,04.3,N,,*6E
$IIVWR,151,R,04.7,N,,,,*67
$IIDPT,036.2,-1.0,*47
$IIHDG,269,,,,*5A
$IIMTW,+09.0,C*31
$IIMWV,147,R,04.1,N,A*14
$IIMWV,165,T,08.5,N,A*1A
$IIVHW,,,269,M,04.3,N,,*6E
$IIVWR,147,R,04.1,N,,,,*66
$IIDPT,036.5,-1.0,*40
$IIHDG,269,,,,*5A
$IIMTW,+08.5,C*35
$IIMWV,153,R,03.9,N,A*1E
$IIMWV,164,T,08.0,N,A*1E
$IIVHW,,,269,M,04.2,N,,*6F
$IIVWR,153,R,03.9,N,,,,*6C
$IIDPT,036.5,-1.0,*40
$IIHDG,269,,,,*5A
$IIMTW,+08.5,C*35
$IIMWV,154,R,03.8,N,A*18
$IIMWV,168,T,07.8,N,A*15
$IIVHW,,,269,M,04.2,N,,*6F
$IIVWR,154,R,03.8,N,,,,*6A
$IIDPT,036.5,-1.0,*40
$IIHDG,269,,,,*5A
$IIMTW,+08.0,C*30
$IIMWV,151,R,03.9,N,A*1C
$IIMWV,168,T,07.7,N,A*1A
$IIVHW,,,269,M,04.1,N,,*6C
$IIVWR,151,R,03.9,N,,,,*6E
$IIDPT,036.5,-1.0,*40
$IIHDG,269,,,,*5A
$IIMTW,+08.0,C*30
$IIMWV,153,R,04.1,N,A*11
$IIMWV,167,T,07.7,N,A*15
$IIVHW,,,269,M,04.1,N,,*6C
$IIVWR,153,R,04.1,N,,,,*63
$IIDPT,036.4,-1.0,*41
$IIHDG,269,,,,*5A
$IIMTW,+08.0,C*30
$IIMWV,155,R,04.0,N,A*16
$IIMWV,167,T,07.9,N,A*1B
$IIVHW,,,270,M,04.1,N,,*64
$IIVWR,155,R,04.0,N,,,,*64
$IIDPT,034.2,-1.0,*45
$IIHDG,270,,,,*52
$IIMTW,+08.5,C*35
$IIMWV,160,R,04.1,N,A*11
$IIMWV,168,T,07.8,N,A*15
$IIVHW,,,270,M,04.0,N,,*65
$IIVWR,160,R,04.1,N,,,,*63
$IIDPT,031.7,-1.0,*45
$IIHDG,270,,,,*52
$IIMTW,+08.5,C*35
$IIMWV,169,R,03.9,N,A*17
$IIMWV,171,T,08.0,N,A*1A
$IIVHW,,,269,M,04.0,N,,*6D
$IIVWR,169,R,03.9,N,,,,*65
$IIDPT,032.5,-1.0,*44
$IIHDG,269,,,,*5A
$IIMTW,+08.5,C*35
$IIMWV,176,R,03.6,N,A*16
$IIMWV,175,T,07.9,N,A*18
$IIVHW,,,269,M,04.0,N,,*6D
$IIVWR,176,R,03.6,N,,,,*64
$IIDPT,032.4,-1.0,*45
$IIHDG,269,,,,*5A
$IIMTW,+08.5,C*35
$IIMWV,182,R,03.1,N,A*1A
$IIMWV,179,T,07.6,N,A*1B
$IIRMB,A,0.00,L,,VIDY,,,,,003.06,282,03.8,V,A*6D
$IIRMC,163002,A,4630.042,N,00640.887,E,03.9,267,210508,,,A*4A
$IIVHW,,,269,M,03.9,N,,*63
$IIVWR,178,L,03.1,N,,,,*73
$IIDPT,031.7,-1.0,*45
$IIGLL,4630.042,N,00640.887,E,163002,A,A*54
$IIHDG,269,,,,*5A
$IIMTW,+08.5,C*35
$IIMWV,176,R,02.8,N,A*19
$IIMWV,180,T,07.1,N,A*1A
$IIRMC,163002,A,4630.042,N,00640.887,E,03.9,267,210508,,,A*4A
$IIVHW,,,269,M,03.9,N,,*63
$IIVWR,176,R,02.8,N,,,,*6B
$IIDPT,031.4,-1.0,*46
$IIGLL,4630.042,N,00640.883,E,163004,A,A*56
$IIHDG,270,,,,*52
$IIMTW,+08.5,C*35
$IIMWV,170,R,02.2,N,A*15
$IIMWV,179,T,06.7,N,A*1B
$IIRMB,A,0.00,L,,VIDY,,,,,003.06,282,03.7,V,A*62
$IIRMC,163004,A,4630.042,N,00640.883,E,03.8,268,210508,,,A*46
$IIVHW,,,270,M,03.9,N,,*6B
$IIVWR,164,R,02.0,N,,,,*60
$IIDPT,032.3,-1.0,*42
$IIGLL,4630.042,N,00640.883,E,163004,A,A*56
$IIHDG,269,,,,*5A
$IIMTW,+08.5,C*35
$IIMWV,164,R,02.0,N,A*12
$IIMWV,177,T,06.0,N,A*12
$IIRMC,163004,A,4630.042,N,00640.883,E,03.8,268,210508,,,A*46
$IIVHW,,,269,M,03.8,N,,*62
$IIVWR,158,R,01.8,N,,,,*64
$IIDPT,031.3,-1.0,*41
$IIGLL,4630.042,N,00640.881,E,163006,A,A*56
$IIHDG,269,,,,*5A
$IIMTW,+08.0,C*30
$IIMWV,158,R,01.8,N,A*16
$IIMWV,175,T,05.8,N,A*1B
$IIRMB,A,0.00,L,,VIDY,,,,,003.06,282,03.7,V,A*62
$IIRMC,163006,A,4630.042,N,00640.881,E,03.8,268,210508,,,A*46
$IIVHW,,,269,M,03.7,N,,*6D
$IIVWR,155,R,01.3,N,,,,*62
$IIDPT,031.3,-1.0,*41
$IIGLL,4630.042,N,00640.881,E,163006,A,A*56
$IIHDG,269,,,,*5A
$IIMTW,+08.5,C*35
$IIMWV,155,R,01.3,N,A*10
$IIMWV,174,T,04.9,N,A*1A
$IIRMB,A,0.00,L,,VIDY,,,,,003.06,282,03.6,V,A*63
$IIRMC,163008,A,4630.042,N,00640.878,E,03.7,268,210508,,,A*41
$IIVHW,,,270,M,03.7,N,,*65
$IIVWR,150,R,01.0,N,,,,*64
$IIDPT,033.8,-1.0,*48
$IIGLL,4630.042,N,00640.878,E,163008,A,A*5E
$IIHDG,270,,,,*52
$IIMTW,+08.0,C*30
$IIMWV,137,R,00.8,N,A*1E
$IIMWV,174,T,04.6,N,A*15
$IIRMC,163008,A,4630.042,N,00640.878,E,03.7,268,210508,,,A*41
$IIVHW,,,270,M,03.7,N,,*65
$IIVWR,137,R,00.8,N,,,,*6C
$IIDPT,035.8,-1.0,*4E
$IIGLL,4630.042,N,00640.875,E,163010,A,A*5A
$IIHDG,270,,,,*52
$IIMTW,+08.5,C*35
$IIMWV,142,R,00.8,N,A*1C
$IIMWV,173,T,04.2,N,A*16
$IIRMB,A,0.00,L,,VIDY,,,,,003.05,282,03.5,V,A*63
$IIRMC,163010,A,4630.042,N,00640.875,E,03.6,268,210508,,,A*44
$IIVHW,,,270,M,03.7,N,,*65
$IIVWR,129,R,01.0,N,,,,*6A
$IIDPT,033.8,-1.0,*48
$IIGLL,4630.042,N,00640.875,E,163010,A,A*5A
$IIHDG,270,,,,*52
$IIMTW,+08.5,C*35
$IIMWV,129,R,01.0,N,A*18
$IIMWV,175,T,04.3,N,A*11
$IIRMC,163010,A,4630.042,N,00640.875,E,03.6,268,210508,,,A*44
$IIVHW,,,270,M,03.6,N,,*64
$IIVWR,130,R,00.9,N,,,,*6A
$IIDPT,033.8,-1.0,*48
$IIGLL,4630.042,N,00640.872,E,163012,A,A*5F
$IIHDG,270,,,,*52
$IIMTW,+08.5,C*35
$IIMWV,130,R,00.9,N,A*18
$IIMWV,171,T,04.3,N,A*15
$IIRMB,A,0.00,L,,VIDY,,,,,003.05,282,03.4,V,A*62
$IIRMC,163012,A,4630.042,N,00640.872,E,03.5,268,210508,,,A*42
$IIVHW,,,270,M,03.6,N,,*64
$IIVWR,138,R,01.1,N,,,,*6B
$IIDPT,031.3,-1.0,*41
$IIGLL,4630.042,N,00640.872,E,163012,A,A*5F
$IIHDG,270,,,,*52
$IIMTW,+08.5,C*35
$IIMWV,138,R,01.1,N,A*19
$IIMWV,171,T,04.4,N,A*12
$IIRMB,A,0.00,L,,VIDY,,,,,003.05,282,03.4,V,A*62
$IIRMC,163014,A,4630.041,N,00640.869,E,03.5,267,210508,,,A*42
$IIVHW,,,269,M,03.5,N,,*6F
$IIVWR,136,R,01.3,N,,,,*67
$IIDPT,030.6,-1.0,*45
$IIGLL,4630.041,N,00640.869,E,163014,A,A*50
$IIHDG,269,,,,*5A
$IIMTW,+08.5,C*35
$IIMWV,000,R,00.0,N,A*13
$IIMWV,170,T,04.5,N,A*12
$IIRMC,163014,A,4630.041,N,00640.869,E,03.5,267,210508,,,A*42
$IIVHW,,,269,M,03.5,N,,*6F
$IIVWR,000,R,00.0,N,,,,*61
$IIDPT,030.6,-1.0,*45
$IIGLL,4630.041,N,00640.866,E,163016,A,A*5D
$IIHDG,269,,,,*5A
$IIMTW,+08.5,C*35
$IIMWV,135,R,02.3,N,A*15
$IIMWV,000,T,03.5,N,A*13
$IIRMB,A,0.01,R,,VIDY,,,,,003.05,282,03.4,V,A*7D
$IIRMC,163016,A,4630.041,N,00640.866,E,03.5,267,210508,,,A*4F
$IIVHW,,,269,M,03.5,N,,*6F
$IIVWR,139,R,02.3,N,,,,*6B
$IIDPT,030.6,-1.0,*45
$IIGLL,4630.041,N,00640.866,E,163016,A,A*5D
$IIHDG,269,,,,*5A
$IIMTW,+08.5,C*35
$IIMWV,139,R,02.3,N,A*19
$IIMWV,163,T,05.3,N,A*17
$IIRMC,163016,A,4630.041,N,00640.866,E,03.5,267,210508,,,A*4F
$IIVHW,,,268,M,03.4,N,,*6F
$IIVWR,133,R,02.8,N,,,,*6A
$IIDPT,030.7,-1.0,*44
$IIGLL,4630.041,N,00640.863,E,163018,A,A*56
$IIHDG,268,,,,*5B
$IIMTW,+08.5,C*35
$IIMWV,133,R,02.8,N,A*18
$IIMWV,164,T,05.4,N,A*17
$IIRMB,A,0.01,R,,VIDY,,,,,003.05,282,03.3,V,A*7A
$IIRMC,163018,A,4630.041,N,00640.863,E,03.5,266,210508,,,A*45
$IIVHW,,,269,M,03.4,N,,*6E
$IIVWR,131,R,03.1,N,,,,*60
$IIDPT,030.7,-1.0,*44
$IIGLL,4630.041,N,00640.863,E,163018,A,A*56
$IIHDG,269,,,,*5A
$IIMTW,+08.5,C*35
$IIMWV,131,R,03.1,N,A*12
$IIMWV,157,T,05.9,N,A*1A
$IIRMB,A,0.01,R,,VIDY,,,,,003.04,282,03.4,V,A*7C
$IIRMC,163020,A,4630.041,N,00640.860,E,03.5,266,210508,,,A*4D
$IIVHW,,,270,M,03.4,N,,*66
$IIVWR,128,R,03.2,N,,,,*6B
$IIDPT,031.5,-1.0,*47
$IIGLL,4630.041,N,00640.860,E,163020,A,A*5E
$IIHDG,270,,,,*52
$IIMTW,+08.5,C*35
$IIMWV,122,R,03.2,N,A*13
$IIMWV,155,T,05.9,N,A*18
$IIRMC,163020,A,4630.041,N,00640.860,E,03.5,266,210508,,,A*4D
$IIVHW,,,270,M,03.4,N,,*66
$IIVWR,122,R,03.2,N,,,,*61
$IIDPT,031.5,-1.0,*47
$IIGLL,4630.041,N,00640.857,E,163022,A,A*58
$IIHDG,269,,,,*5A
$IIMTW,+08.5,C*35
$IIMWV,113,R,03.3,N,A*10
$IIMWV,152,T,05.7,N,A*11
$IIRMB,A,0.01,R,,VIDY,,,,,003.04,282,03.4,V,A*7C
$IIRMC,163022,A,4630.041,N,00640.857,E,03.5,267,210508,,,A*4A
$IIVHW,,,269,M,03.4,N,,*6E
$IIVWR,105,R,03.6,N,,,,*60
$IIDPT,032.2,-1.0,*43
$IIGLL,4630.041,N,00640.857,E,163022,A,A*58
$IIHDG,270,,,,*52
$IIMTW,+08.5,C*35
$IIMWV,105,R,03.6,N,A*12
$IIMWV,147,T,05.5,N,A*17
$IIRMC,163022,A,4630.041,N,00640.857,E,03.5,267,210508,,,A*4A
$IIVHW,,,271,M,03.5,N,,*66
$IIVWR,095,R,04.0,N,,,,*69
$IIDPT,033.1,-1.0,*41
$IIGLL,4630.041,N,00640.854,E,163024,A,A*5D
$IIHDG,271,,,,*53
$IIMTW,+08.5,C*35
$IIMWV,095,R,04.0,N,A*1B
$IIMWV,142,T,05.5,N,A*12
$IIRMB,A,0.01,R,,VIDY,,,,,003.04,282,03.4,V,A*7C
$IIRMC,163024,A,4630.041,N,00640.854,E,03.5,267,210508,,,A*4F
$IIVHW,,,271,M,03.5,N,,*66
$IIVWR,085,R,04.5,N,,,,*6D
$IIDPT,033.1,-1.0,*41
$IIGLL,4630.041,N,00640.854,E,163024,A,A*5D
$IIHDG,271,,,,*53
$IIMTW,+08.5,C*35
$IIMWV,085,R,04.5,N,A*1F
$IIMWV,124,T,05.4,N,A*13
$IIRMB,A,0.01,R,,VIDY,,,,,003.04,282,03.4,V,A*7C
$IIRMC,163026,A,4630.041,N,00640.852,E,03.5,268,210508,,,A*44
$IIVHW,,,271,M,03.5,N,,*66
$IIVWR,081,R,04.8,N,,,,*64
$IIDPT,032.1,-1.0,*40
$IIGLL,4630.041,N,00640.852,E,163026,A,A*59
$IIHDG,271,,,,*53
$IIMTW,+09.0,C*31
$IIMWV,077,R,05.0,N,A*16
$IIMWV,121,T,05.4,N,A*16
$IIRMC,163026,A,4630.041,N,00640.852,E,03.5,268,210508,,,A*44
$IIVHW,,,271,M,03.5,N,,*66
$IIVWR,077,R,05.0,N,,,,*64
$IIDPT,032.1,-1.0,*40
$IIGLL,4630.041,N,00640.849,E,163028,A,A*5D
$IIHDG,271,,,,*53
$IIMTW,+08.5,C*35
$IIMWV,075,R,05.1,N,A*15
$IIMWV,117,T,05.4,N,A*13
$IIRMB,A,0.01,R,,VIDY,,,,,003.04,282,03.4,V,A*7C
$IIRMC,163028,A,4630.041,N,00640.849,E,03.5,268,210508,,,A*40
$IIVHW,,,271,M,03.5,N,,*66
$IIVWR,073,R,05.4,N,,,,*64
$IIDPT,032.1,-1.0,*40
$IIGLL,4630.041,N,00640.849,E,163028,A,A*5D
$IIHDG,271,,,,*53
$IIMTW,+08.5,C*35
$IIMWV,073,R,05.4,N,A*16
$IIMWV,115,T,05.4,N,A*11
$IIRMC,163028,A,4630.041,N,00640.849,E,03.5,268,210508,,,A*40
$IIVHW,,,272,M,03.6,N,,*66
$IIVWR,073,R,05.7,N,,,,*67
$IIDPT,030.9,-1.0,*4A
$IIGLL,4630.041,N,00640.846,E,163030,A,A*5B
$IIHDG,272,,,,*50
$IIMTW,+08.5,C*35
$IIMWV,073,R,05.7,N,A*15
$IIMWV,112,T,05.5,N,A*17
$IIRMB,A,0.01,R,,VIDY,,,,,003.04,282,03.4,V,A*7C
$IIRMC,163030,A,4630.041,N,00640.846,E,03.5,268,210508,,,A*46
$IIVHW,,,272,M,03.6,N,,*66
$IIVWR,072,R,06.3,N,,,,*61
$IIDPT,030.8,-1.0,*4B
$IIGLL,4630.041,N,00640.846,E,163030,A,A*5B
$IIHDG,272,,,,*50
$IIMTW,+08.5,C*35
$IIMWV,072,R,06.3,N,A*13
$IIMWV,107,T,06.1,N,A*14
$IIRMB,A,0.01,R,,VIDY,,,,,003.03,282,03.4,V,A*7B
$IIRMC,163032,A,4630.041,N,00640.843,E,03.5,268,210508,,,A*41
$IIVHW,,,271,M,03.7,N,,*64
$IIVWR,071,R,06.4,N,,,,*65
$IIDPT,031.2,-1.0,*40
$IIGLL,4630.041,N,00640.843,E,163032,A,A*5C
$IIHDG,271,,,,*53
$IIMTW,+08.5,C*35
$IIMWV,075,R,06.6,N,A*11
$IIMWV,105,T,06.2,N,A*15
$IIRMC,163032,A,4630.041,N,00640.843,E,03.5,268,210508,,,A*41
$IIVHW,,,271,M,03.7,N,,*64
$IIVWR,075,R,06.6,N,,,,*63
$IIDPT,030.7,-1.0,*44
$IIGLL,4630.041,N,00640.841,E,163034,A,A*58
$IIHDG,271,,,,*53
$IIMTW,+09.0,C*31
$IIMWV,079,R,06.5,N,A*1E
$IIMWV,108,T,06.7,N,A*1D
$IIRMB,A,0.01,R,,VIDY,,,,,003.03,282,03.4,V,A*7B
$IIRMC,163034,A,4630.041,N,00640.841,E,03.5,268,210508,,,A*45
$IIVHW,,,271,M,03.8,N,,*6B
$IIVWR,083,R,06.5,N,,,,*69
$IIDPT,029.8,-1.0,*43
$IIGLL,4630.041,N,00640.841,E,163034,A,A*58
$IIHDG,270,,,,*52
$IIMTW,+09.0,C*31
$IIMWV,083,R,06.5,N,A*1B
$IIMWV,112,T,06.8,N,A*19
$IIRMC,163034,A,4630.041,N,00640.841,E,03.5,268,210508,,,A*45
$IIVHW,,,270,M,03.8,N,,*6A
$IIVWR,093,R,06.3,N,,,,*6E
$IIDPT,030.4,-1.0,*47
$IIGLL,4630.041,N,00640.838,E,163036,A,A*54
$IIHDG,270,,,,*52
$IIMTW,+09.0,C*31
$IIMWV,093,R,06.3,N,A*1C
$IIMWV,116,T,07.1,N,A*15
$IIRMB,A,0.01,R,,VIDY,,,,,003.03,282,03.4,V,A*7B
$IIRMC,163036,A,4630.041,N,00640.838,E,04.1,266,210508,,,A*44
$IIVHW,,,270,M,03.8,N,,*6A
$IIVWR,102,R,06.3,N,,,,*67
$IIDPT,031.3,-1.0,*41
$IIGLL,4630.041,N,00640.838,E,163036,A,A*54
$IIHDG,270,,,,*52
$IIMTW,+08.5,C*35
$IIMWV,102,R,06.3,N,A*15
$IIMWV,130,T,08.0,N,A*1F
$IIRMB,A,0.01,R,,VIDY,,,,,003.03,282,04.0,V,A*78
$IIRMC,163038,A,4630.041,N,00640.834,E,04.3,266,210508,,,A*44
$IIVHW,,,269,M,03.9,N,,*63
$IIVWR,111,R,06.6,N,,,,*60
$IIDPT,030.7,-1.0,*44
$IIGLL,4630.041,N,00640.834,E,163038,A,A*56
$IIHDG,270,,,,*52
$IIMTW,+08.0,C*30
$IIMWV,118,R,06.6,N,A*1B
$IIMWV,135,T,08.6,N,A*1C
$IIRMC,163038,A,4630.041,N,00640.834,E,04.3,266,210508,,,A*44
$IIVHW,,,270,M,04.0,N,,*65
$IIVWR,118,R,06.6,N,,,,*69
$IIDPT,030.7,-1.0,*44
$IIGLL,4630.041,N,00640.831,E,163040,A,A*5C
$IIHDG,270,,,,*52
$IIMTW,+08.5,C*35
$IIMWV,120,R,06.7,N,A*11
$IIMWV,141,T,09.1,N,A*19
$IIRMB,A,0.01,R,,VIDY,,,,,003.02,282,04.2,V,A*7B
$IIRMC,163040,A,4630.041,N,00640.831,E,04.4,266,210508,,,A*49
$IIVHW,,,270,M,04.0,N,,*65
$IIVWR,123,R,06.8,N,,,,*6F
$IIDPT,032.5,-1.0,*44
$IIGLL,4630.041,N,00640.831,E,163040,A,A*5C
$IIHDG,271,,,,*53
$IIMTW,+08.0,C*30
$IIMWV,123,R,06.8,N,A*1D
$IIMWV,142,T,09.4,N,A*1F
$IIRMC,163040,A,4630.041,N,00640.831,E,04.4,266,210508,,,A*49
$IIVHW,,,271,M,04.1,N,,*65
$IIVWR,126,R,07.0,N,,,,*63
$IIDPT,031.7,-1.0,*45
$IIGLL,4630.041,N,00640.827,E,163042,A,A*59
$IIHDG,271,,,,*53
$IIMTW,+09.0,C*31
$IIMWV,126,R,07.0,N,A*11
$IIMWV,143,T,09.5,N,A*1F
$IIRMB,A,0.01,R,,VIDY,,,,,003.02,282,04.2,V,A*7B
$IIRMC,163042,A,4630.041,N,00640.827,E,04.4,266,210508,,,A*4C
$IIVHW,,,270,M,04.2,N,,*67
$IIVWR,115,R,06.9,N,,,,*6B
$IIDPT,034.2,-1.0,*45
$IIGLL,4630.041,N,00640.827,E,163042,A,A*59
$IIHDG,270,,,,*52
$IIMTW,+09.0,C*31
$IIMWV,115,R,06.9,N,A*19
$IIMWV,139,T,09.3,N,A*14
$IIRMB,A,0.01,R,,VIDY,,,,,003.02,282,04.2,V,A*7B
$IIRMC,163044,A,4630.041,N,00640.824,E,04.4,266,210508,,,A*49
$IIVHW,,,270,M,04.2,N,,*67
$IIVWR,101,R,06.4,N,,,,*63
$IIDPT,034.2,-1.0,*45
$IIGLL,4630.041,N,00640.824,E,163044,A,A*5C
$IIHDG,269,,,,*5A
$IIMTW,+08.5,C*35
$IIMWV,088,R,06.7,N,A*12
$IIMWV,131,T,08.2,N,A*1C
$IIRMC,163044,A,4630.041,N,00640.824,E,04.4,266,210508,,,A*49
$IIVHW,,,269,M,04.2,N,,*6F
$IIVWR,088,R,06.7,N,,,,*60
$IIDPT,034.2,-1.0,*45
$IIGLL,4630.041,N,00640.820,E,163046,A,A*5A
$IIHDG,269,,,,*5A
$IIMTW,+08.5,C*35
$IIMWV,082,R,06.7,N,A*18
$IIMWV,122,T,07.8,N,A*1B
$IIRMB,A,0.01,R,,VIDY,,,,,003.02,282,04.2,V,A*7B
$IIRMC,163046,A,4630.041,N,00640.820,E,04.4,266,210508,,,A*4F
$IIVHW,,,269,M,04.2,N,,*6F
$IIVWR,077,R,07.0,N,,,,*66
$IIDPT,031.1,-1.0,*43
$IIGLL,4630.041,N,00640.820,E,163046,A,A*5A
$IIHDG,269,,,,*5A
$IIMTW,+08.5,C*35
$IIMWV,077,R,07.0,N,A*14
$IIMWV,117,T,07.4,N,A*11
$IIRMC,163046,A,4630.041,N,00640.820,E,04.4,266,210508,,,A*4F
$IIVHW,,,269,M,04.2,N,,*6F
$IIVWR,078,R,07.4,N,,,,*6D
$IIDPT,034.1,-1.0,*46
$IIGLL,4630.040,N,00640.816,E,163048,A,A*50
$IIHDG,269,,,,*5A
$IIMTW,+08.5,C*35
$IIMWV,078,R,07.4,N,A*1F
$IIMWV,113,T,07.2,N,A*13
$IIRMB,A,0.01,R,,VIDY,,,,,003.02,282,04.3,V,A*7A
$IIRMC,163048,A,4630.040,N,00640.816,E,04.4,266,210508,,,A*45
$IIVHW,,,270,M,04.3,N,,*66
$IIVWR,077,R,07.5,N,,,,*63
$IIDPT,031.1,-1.0,*43
$IIGLL,4630.040,N,00640.816,E,163048,A,A*50
$IIHDG,270,,,,*52
$IIMTW,+08.5,C*35
$IIMWV,077,R,07.5,N,A*11
$IIMWV,111,T,07.6,N,A*15
$IIRMB,A,0.01,R,,VIDY,,,,,003.01,282,04.3,V,A*79
$IIRMC,163050,A,4630.040,N,00640.813,E,04.4,266,210508,,,A*49
$IIVHW,,,271,M,04.3,N,,*67
$IIVWR,077,R,07.4,N,,,,*62
$IIDPT,034.1,-1.0,*46
$IIGLL,4630.040,N,00640.813,E,163050,A,A*5C
$IIHDG,272,,,,*50
$IIMTW,+08.5,C*35
$IIMWV,080,R,07.3,N,A*1F
$IIMWV,111,T,07.5,N,A*16
$IIRMC,163050,A,4630.040,N,00640.813,E,04.4,266,210508,,,A*49
$IIVHW,,,272,M,04.3,N,,*64
$IIVWR,080,R,07.3,N,,,,*6D
$IIDPT,031.0,-1.0,*42
$IIGLL,4630.040,N,00640.809,E,163052,A,A*55
$IIHDG,272,,,,*50
$IIMTW,+08.5,C*35
$IIMWV,084,R,07.4,N,A*1C
$IIMWV,114,T,07.7,N,A*11
$IIRMB,A,0.01,R,,VIDY,,,,,003.01,282,04.3,V,A*79
$IIRMC,163052,A,4630.040,N,00640.809,E,04.4,266,210508,,,A*40
$IIVHW,,,272,M,04.4,N,,*63
$IIVWR,086,R,07.7,N,,,,*6F
$IIDPT,031.0,-1.0,*42
$IIGLL,4630.040,N,00640.809,E,163052,A,A*55
$IIHDG,273,,,,*51
$IIMTW,+08.5,C*35
$IIMWV,086,R,07.7,N,A*1D
$IIMWV,117,T,08.2,N,A*18
$IIRMC,163052,A,4630.040,N,00640.809,E,04.4,266,210508,,,A*40
$IIVHW,,,274,M,04.6,N,,*67
$IIVWR,083,R,08.2,N,,,,*60
$IIDPT,031.0,-1.0,*42
$IIGLL,4630.040,N,00640.805,E,163054,A,A*5F
$IIHDG,274,,,,*56
$IIMTW,+08.0,C*30
$IIMWV,083,R,08.2,N,A*12
$IIMWV,118,T,08.7,N,A*12
$IIRMB,A,0.02,R,,VIDY,,,,,003.01,282,04.4,V,A*7D
$IIRMC,163054,A,4630.040,N,00640.805,E,05.1,271,210508,,,A*48
$IIVHW,,,274,M,04.7,N,,*66
$IIVWR,081,R,08.7,N,,,,*67
$IIDPT,031.0,-1.0,*42
$IIGLL,4630.040,N,00640.805,E,163054,A,A*5F
$IIHDG,274,,,,*56
$IIMTW,+08.5,C*35
$IIMWV,081,R,08.7,N,A*15
$IIMWV,111,T,09.2,N,A*1F
$IIRMB,A,0.02,R,,VIDY,,,,,003.01,282,04.4,V,A*7D
$IIRMC,163056,A,4630.041,N,00640.801,E,05.5,277,210508,,,A*4D
$IIVHW,,,275,M,04.8,N,,*68
$IIVWR,081,R,09.2,N,,,,*63
$IIDPT,030.9,-1.0,*4A
$IIGLL,4630.041,N,00640.801,E,163056,A,A*58
$IIHDG,273,,,,*51
$IIMTW,+08.5,C*35
$IIMWV,084,R,09.3,N,A*15
$IIMWV,110,T,09.7,N,A*1B
$IIRMC,163056,A,4630.041,N,00640.801,E,05.5,277,210508,,,A*4D
$IIVHW,,,273,M,04.9,N,,*6F
$IIVWR,084,R,09.3,N,,,,*67
$IIDPT,030.9,-1.0,*4A
$IIGLL,4630.041,N,00640.796,E,163058,A,A*57
$IIHDG,274,,,,*56
$IIMTW,+08.5,C*35
$IIMWV,083,R,08.9,N,A*19
$IIMWV,113,T,10.0,N,A*17
$IIRMB,A,0.02,R,,VIDY,,,,,003.00,282,05.5,V,A*7C
$IIRMC,163058,A,4630.041,N,00640.796,E,05.5,271,210508,,,A*44
$IIVHW,,,274,M,04.9,N,,*68
$IIVWR,085,R,08.8,N,,,,*6C
$IIDPT,032.3,-1.0,*42
$IIGLL,4630.041,N,00640.796,E,163058,A,A*57
$IIHDG,274,,,,*56
$IIMTW,+08.5,C*35
$IIMWV,085,R,08.8,N,A*1E
$IIMWV,115,T,09.6,N,A*1F
$IIRMC,163058,A,4630.041,N,00640.796,E,05.5,271,210508,,,A*44
$IIVHW,,,275,M,05.0,N,,*61
$IIVWR,084,R,09.0,N,,,,*64
$IIDPT,032.3,-1.0,*42
$IIGLL,4630.041,N,00640.792,E,163100,A,A*5F
$IIHDG,275,,,,*57
$IIMTW,+08.5,C*35
$IIMWV,084,R,09.0,N,A*16
$IIMWV,116,T,09.7,N,A*1D
$IIRMB,A,0.02,R,,VIDY,,,,,003.00,282,05.3,V,A*7A
$IIRMC,163100,A,4630.041,N,00640.792,E,05.5,272,210508,,,A*4F
$IIVHW,,,274,M,05.1,N,,*61
$IIVWR,084,R,09.3,N,,,,*67
$IIDPT,032.7,-1.0,*46
$IIGLL,4630.041,N,00640.792,E,163100,A,A*5F
$IIHDG,274,,,,*56
$IIMTW,+08.5,C*35
$IIMWV,084,R,09.3,N,A*15
$IIMWV,115,T,10.1,N,A*10
$IIRMB,A,0.02,R,,VIDY,,,,,003.00,282,05.4,V,A*7D
$IIRMC,163102,A,4630.041,N,00640.788,E,05.6,274,210508,,,A*43
$IIVHW,,,273,M,05.2,N,,*65
$IIVWR,080,R,09.5,N,,,,*65
$IIDPT,032.7,-1.0,*46
$IIGLL,4630.041,N,00640.788,E,163102,A,A*56
$IIHDG,270,,,,*52
$IIMTW,+08.5,C*35
$IIMWV,074,R,09.2,N,A*1B
$IIMWV,109,T,09.6,N,A*12
$IIRMB,A,0.02,R,,VIDY,,,,,002.99,282,05.6,V,A*7E
$IIRMC,163104,A,4630.041,N,00640.783,E,05.8,269,210508,,,A*4C
$IIVHW,,,270,M,05.3,N,,*67
$IIVWR,074,R,09.2,N,,,,*69
$IIDPT,038.2,-1.0,*49
$IIGLL,4630.041,N,00640.783,E,163104,A,A*5B
$IIHDG,269,,,,*5A
$IIMTW,+08.5,C*35
$IIMWV,074,R,08.5,N,A*1D
$IIMWV,107,T,09.2,N,A*18
$IIRMC,163104,A,4630.041,N,00640.783,E,05.8,269,210508,,,A*4C
$IIVHW,,,269,M,05.3,N,,*6F
$IIVWR,079,R,08.1,N,,,,*66
$IIDPT,038.2,-1.0,*49
$IIGLL,4630.041,N,00640.778,E,163106,A,A*5D
$IIHDG,269,,,,*5A
$IIMTW,+08.5,C*35
$IIMWV,079,R,08.1,N,A*14
$IIMWV,111,T,08.6,N,A*1A
$IIRMB,A,0.02,R,,VIDY,,,,,002.99,282,05.5,V,A*7D
$IIRMC,163106,A,4630.041,N,00640.778,E,05.7,266,210508,,,A*4A
$IIVHW,,,269,M,05.4,N,,*68
$IIVWR,088,R,07.9,N,,,,*6F
$IIDPT,035.5,-1.0,*43
$IIGLL,4630.041,N,00640.778,E,163106,A,A*5D
$IIHDG,269,,,,*5A
$IIMTW,+08.5,C*35
$IIMWV,088,R,07.9,N,A*1D
$IIMWV,123,T,09.4,N,A*18
$IIRMB,A,0.02,R,,VIDY,,,,,002.99,282,05.5,V,A*7D
$IIRMC,163108,A,4630.041,N,00640.774,E,05.8,266,210508,,,A*47
$IIVHW,,,269,M,05.4,N,,*68
$IIVWR,092,R,08.0,N,,,,*62
$IIDPT,036.3,-1.0,*46
$IIGLL,4630.041,N,00640.774,E,163108,A,A*5F
$IIHDG,270,,,,*52
$IIMTW,+08.5,C*35
$IIMWV,098,R,07.9,N,A*1C
$IIMWV,125,T,09.7,N,A*1D
$IIRMC,163108,A,4630.041,N,00640.774,E,05.8,266,210508,,,A*47
$IIVHW,,,270,M,05.4,N,,*60
$IIVWR,098,R,07.9,N,,,,*6E
$IIDPT,036.3,-1.0,*46
$IIGLL,4630.041,N,00640.769,E,163110,A,A*5A
$IIHDG,272,,,,*50
$IIMTW,+08.5,C*35
$IIMWV,100,R,08.3,N,A*19
$IIMWV,130,T,10.2,N,A*14
$IIRMB,A,0.02,R,,VIDY,,,,,002.98,282,05.5,V,A*7C
$IIRMC,163110,A,4630.041,N,00640.769,E,05.8,266,210508,,,A*42
$IIVHW,,,272,M,05.4,N,,*62
$IIVWR,099,R,08.2,N,,,,*6B
$IIDPT,034.3,-1.0,*44
$IIGLL,4630.041,N,00640.769,E,163110,A,A*5A
$IIHDG,272,,,,*50
$IIMTW,+08.5,C*35
$IIMWV,099,R,08.2,N,A*19
$IIMWV,130,T,10.6,N,A*10
$IIRMC,163110,A,4630.041,N,00640.769,E,05.8,266,210508,,,A*42
$IIVHW,,,272,M,05.5,N,,*63
$IIVWR,096,R,08.2,N,,,,*64
$IIDPT,034.0,-1.0,*47
$IIGLL,4630.041,N,00640.764,E,163112,A,A*55
$IIHDG,272,,,,*50
$IIMTW,+08.5,C*35
$IIMWV,096,R,08.2,N,A*16
$IIMWV,130,T,10.5,N,A*13
$IIRMB,A,0.02,R,,VIDY,,,,,002.98,282,05.5,V,A*7C
$IIRMC,163112,A,4630.041,N,00640.764,E,05.9,273,210508,,,A*48
$IIVHW,,,271,M,05.5,N,,*60
$IIVWR,091,R,08.1,N,,,,*60
$IIDPT,035.2,-1.0,*44
$IIGLL,4630.041,N,00640.764,E,163112,A,A*55
$IIHDG,271,,,,*53
$IIMTW,+08.5,C*35
$IIMWV,091,R,08.1,N,A*12
$IIMWV,125,T,09.8,N,A*12
$IIRMB,A,0.02,R,,VIDY,,,,,002.98,282,05.7,V,A*7E
$IIRMC,163114,A,4630.042,N,00640.759,E,05.8,267,210508,,,A*47
$IIVHW,,,271,M,05.5,N,,*60
$IIVWR,090,R,08.0,N,,,,*60
$IIDPT,034.5,-1.0,*42
$IIGLL,4630.042,N,00640.759,E,163114,A,A*5E
$IIHDG,271,,,,*53
$IIMTW,+08.5,C*35
$IIMWV,091,R,07.9,N,A*15
$IIMWV,125,T,09.7,N,A*1D
$IIRMC,163114,A,4630.042,N,00640.759,E,05.8,267,210508,,,A*47
$IIVHW,,,271,M,05.5,N,,*60
$IIVWR,091,R,07.9,N,,,,*67
$IIDPT,034.5,-1.0,*42
$IIGLL,4630.043,N,00640.754,E,163116,A,A*50
$IIHDG,271,,,,*53
$IIMTW,+08.5,C*35
$IIMWV,092,R,08.1,N,A*11
$IIMWV,126,T,09.7,N,A*1E
$IIRMB,A,0.02,R,,VIDY,,,,,002.97,282,05.6,V,A*70
$IIRMC,163116,A,4630.043,N,00640.754,E,05.8,269,210508,,,A*47
$IIVHW,,,271,M,05.5,N,,*60
$IIVWR,093,R,08.2,N,,,,*61
$IIDPT,034.8,-1.0,*4F
$IIGLL,4630.043,N,00640.754,E,163116,A,A*50
$IIHDG,271,,,,*53
$IIMTW,+08.5,C*35
$IIMWV,093,R,08.2,N,A*13
$IIMWV,126,T,09.9,N,A*10
$IIRMC,163116,A,4630.043,N,00640.754,E,05.8,269,210508,,,A*47
$IIVHW,,,272,M,05.5,N,,*63
$IIVWR,092,R,08.3,N,,,,*61
$IIDPT,034.9,-1.0,*4E
$IIGLL,4630.043,N,00640.749,E,163118,A,A*52
$IIHDG,272,,,,*50
$IIMTW,+08.5,C*35
$IIMWV,092,R,08.3,N,A*13
$IIMWV,126,T,10.1,N,A*10
$IIRMB,A,0.02,R,,VIDY,,,,,002.97,282,05.6,V,A*70
$IIRMC,163118,A,4630.043,N,00640.749,E,05.8,269,210508,,,A*45
$IIVHW,,,273,M,05.5,N,,*62
$IIVWR,091,R,08.2,N,,,,*63
$IIDPT,034.9,-1.0,*4E
$IIGLL,4630.043,N,00640.749,E,163118,A,A*52
$IIHDG,273,,,,*51
$IIMTW,+08.5,C*35
$IIMWV,091,R,08.2,N,A*11
$IIMWV,125,T,09.9,N,A*13
$IIRMB,A,0.02,R,,VIDY,,,,,002.97,282,05.7,V,A*71
$IIRMC,163120,A,4630.043,N,00640.745,E,05.8,271,210508,,,A*4B
$IIVHW,,,274,M,05.5,N,,*65
$IIVWR,086,R,08.2,N,,,,*65
$IIDPT,034.9,-1.0,*4E
$IIGLL,4630.043,N,00640.745,E,163120,A,A*55
$IIHDG,274,,,,*56
$IIMTW,+08.5,C*35
$IIMWV,086,R,08.3,N,A*16
$IIMWV,122,T,09.6,N,A*1B
$IIRMC,163120,A,4630.043,N,00640.745,E,05.8,271,210508,,,A*4B
$IIVHW,,,274,M,05.5,N,,*65
$IIVWR,086,R,08.3,N,,,,*64
$IIDPT,034.9,-1.0,*4E
$IIGLL,4630.043,N,00640.740,E,163122,A,A*52
$IIHDG,274,,,,*56
$IIMTW,+08.5,C*35
$IIMWV,089,R,08.2,N,A*18
$IIMWV,122,T,09.7,N,A*1A
$IIRMB,A,0.02,R,,VIDY,,,,,002.96,282,05.7,V,A*70
$IIRMC,163122,A,4630.043,N,00640.740,E,05.8,271,210508,,,A*4C
$IIVHW,,,274,M,05.5,N,,*65
$IIVWR,090,R,08.3,N,,,,*63
$IIDPT,034.6,-1.0,*41
$IIGLL,4630.043,N,00640.740,E,163122,A,A*52
$IIHDG,275,,,,*57
$IIMTW,+08.5,C*35
$IIMWV,090,R,08.3,N,A*11
$IIMWV,124,T,09.8,N,A*13
$IIRMC,163122,A,4630.043,N,00640.740,E,05.8,271,210508,,,A*4C
$IIVHW,,,275,M,05.5,N,,*64
$IIVWR,090,R,08.3,N,,,,*63
$IIDPT,034.8,-1.0,*4F
$IIGLL,4630.043,N,00640.735,E,163124,A,A*56
$IIHDG,275,,,,*57
$IIMTW,+08.5,C*35
$IIMWV,090,R,08.3,N,A*11
$IIMWV,124,T,10.0,N,A*13
$IIRMB,A,0.02,R,,VIDY,,,,,002.96,282,05.6,V,A*71
$IIRMC,163124,A,4630.043,N,00640.735,E,05.7,270,210508,,,A*46
$IIVHW,,,276,M,05.5,N,,*67
$IIVWR,000,R,00.0,N,,,,*61
$IIDPT,035.6,-1.0,*40
$IIGLL,4630.043,N,00640.735,E,163124,A,A*56
$IIHDG,276,,,,*54
$IIMTW,+08.5,C*35
$IIMWV,000,R,00.0,N,A*13
$IIMWV,000,T,05.6,N,A*16
$IIRMB,A,0.02,R,,VIDY,,,,,002.96,282,05.7,V,A*70
$IIRMC,163126,A,4630.043,N,00640.731,E,05.8,271,210508,,,A*4E
$IIVHW,,,275,M,05.5,N,,*64
$IIVWR,093,R,08.2,N,,,,*61
$IIDPT,038.1,-1.0,*4A
$IIGLL,4630.043,N,00640.731,E,163126,A,A*50
$IIHDG,275,,,,*57
$IIMTW,+08.5,C*35
$IIMWV,094,R,08.1,N,A*17
$IIMWV,126,T,10.1,N,A*10
$IIRMC,163126,A,4630.043,N,00640.731,E,05.8,271,210508,,,A*4E
$IIVHW,,,275,M,05.5,N,,*64
$IIVWR,094,R,08.1,N,,,,*65
$IIDPT,038.1,-1.0,*4A
$IIGLL,4630.043,N,00640.726,E,163128,A,A*58
$IIHDG,275,,,,*57
$IIMTW,+08.5,C*35
$IIMWV,095,R,07.5,N,A*1D
$IIMWV,127,T,10.0,N,A*10
$IIRMB,A,0.02,R,,VIDY,,,,,002.95,282,05.6,V,A*72
$IIRMC,163128,A,4630.043,N,00640.726,E,05.7,270,210508,,,A*48
$IIVHW,,,275,M,05.5,N,,*64
$IIVWR,093,R,07.2,N,,,,*6E
$IIDPT,038.4,-1.0,*4F
$IIGLL,4630.043,N,00640.726,E,163128,A,A*58
$IIHDG,274,,,,*56
$IIMTW,+08.5,C*35
$IIMWV,093,R,07.2,N,A*1C
$IIMWV,129,T,09.6,N,A*10
$IIRMC,163128,A,4630.043,N,00640.726,E,05.7,270,210508,,,A*48
$IIVHW,,,275,M,05.4,N,,*65
$IIVWR,089,R,06.8,N,,,,*6E
$IIDPT,040.5,-1.0,*41
$IIGLL,4630.043,N,00640.721,E,163130,A,A*56
$IIHDG,275,,,,*57
$IIMTW,+08.5,C*35
$IIMWV,089,R,06.8,N,A*1C
$IIMWV,129,T,09.2,N,A*14
$IIRMB,A,0.02,R,,VIDY,,,,,002.95,282,05.7,V,A*73
$IIRMC,163130,A,4630.043,N,00640.721,E,05.7,274,210508,,,A*42
$IIVHW,,,275,M,05.4,N,,*65
$IIVWR,085,R,06.8,N,,,,*62
$IIDPT,039.8,-1.0,*42
$IIGLL,4630.043,N,00640.721,E,163130,A,A*56
$IIHDG,275,,,,*57
$IIMTW,+08.5,C*35
$IIMWV,085,R,06.8,N,A*10
$IIMWV,126,T,08.3,N,A*1B
$IIRMB,A,0.03,R,,VIDY,,,,,002.95,282,05.5,V,A*70
$IIRMC,163132,A,4630.043,N,00640.717,E,05.4,274,210508,,,A*46
$IIVHW,,,276,M,05.4,N,,*66
$IIVWR,078,R,06.7,N,,,,*6F
$IIDPT,036.8,-1.0,*4D
$IIGLL,4630.043,N,00640.717,E,163132,A,A*51
$IIHDG,275,,,,*57
$IIMTW,+08.5,C*35
$IIMWV,081,R,06.4,N,A*18
$IIMWV,122,T,07.6,N,A*15
$IIRMC,163132,A,4630.043,N,00640.717,E,05.4,274,210508,,,A*46
$IIVHW,,,275,M,05.3,N,,*62
$IIVWR,081,R,06.4,N,,,,*6A
$IIDPT,039.6,-1.0,*4C
$IIGLL,4630.043,N,00640.712,E,163134,A,A*52
$IIHDG,275,,,,*57
$IIMTW,+09.0,C*31
$IIMWV,079,R,06.5,N,A*1E
$IIMWV,125,T,07.6,N,A*12
$IIRMB,A,0.03,R,,VIDY,,,,,002.94,282,05.4,V,A*70
$IIRMC,163134,A,4630.043,N,00640.712,E,05.4,274,210508,,,A*45
$IIVHW,,,275,M,05.3,N,,*62
$IIVWR,079,R,07.3,N,,,,*6B
$IIDPT,035.8,-1.0,*4E
$IIGLL,4630.043,N,00640.708,E,163136,A,A*5B
$IIHDG,275,,,,*57
$IIMTW,+09.0,C*31
$IIMWV,079,R,07.3,N,A*19
$IIMWV,123,T,07.5,N,A*17
$IIRMB,A,0.03,R,,VIDY,,,,,002.94,282,05.3,V,A*77
$IIRMC,163136,A,4630.043,N,00640.708,E,05.4,274,210508,,,A*4C
$IIVHW,,,275,M,05.3,N,,*62
$IIVWR,078,R,07.9,N,,,,*60
$IIDPT,035.8,-1.0,*4E
$IIGLL,4630.043,N,00640.708,E,163136,A,A*5B
$IIHDG,275,,,,*57
$IIMTW,+09.0,C*31
$IIMWV,078,R,07.9,N,A*12
$IIMWV,116,T,08.5,N,A*1E
$IIRMB,A,0.03,R,,VIDY,,,,,002.94,282,05.3,V,A*77
$IIRMC,163138,A,4630.044,N,00640.704,E,05.4,273,210508,,,A*4E
$IIVHW,,,275,M,05.3,N,,*62
$IIVWR,078,R,08.6,N,,,,*60
$IIDPT,038.9,-1.0,*42
$IIGLL,4630.044,N,00640.704,E,163138,A,A*5E
$IIHDG,275,,,,*57
$IIMTW,+09.0,C*31
$IIMWV,080,R,08.9,N,A*1A
$IIMWV,113,T,09.1,N,A*1E
$IIRMC,163138,A,4630.044,N,00640.704,E,05.4,273,210508,,,A*4E
$IIVHW,,,275,M,05.3,N,,*62
$IIVWR,080,R,08.9,N,,,,*68
$IIDPT,034.9,-1.0,*4E
$IIGLL,4630.044,N,00640.699,E,163140,A,A*54
$IIHDG,275,,,,*57
$IIMTW,+09.0,C*31
$IIMWV,086,R,09.0,N,A*14
$IIMWV,113,T,09.4,N,A*1B
$IIRMB,A,0.03,R,,VIDY,,,,,002.94,282,05.4,V,A*70
$IIRMC,163140,A,4630.044,N,00640.699,E,05.6,273,210508,,,A*46
$IIVHW,,,275,M,05.3,N,,*62
$IIVWR,091,R,09.2,N,,,,*62
$IIDPT,040.7,-1.0,*43
$IIGLL,4630.044,N,00640.699,E,163140,A,A*54
$IIHDG,275,,,,*57
$IIMTW,+09.0,C*31
$IIMWV,091,R,09.2,N,A*10
$IIMWV,117,T,10.1,N,A*12
$IIRMC,163140,A,4630.044,N,00640.699,E,05.6,273,210508,,,A*46
$IIVHW,,,275,M,05.3,N,,*62
$IIVWR,094,R,09.3,N,,,,*66
$IIDPT,042.7,-1.0,*41
$IIGLL,4630.044,N,00640.694,E,163142,A,A*5B
$IIHDG,275,,,,*57
$IIMTW,+09.0,C*31
$IIMWV,094,R,09.3,N,A*14
$IIMWV,121,T,10.6,N,A*10
$IIRMB,A,0.03,R,,VIDY,,,,,002.93,282,05.5,V,A*76
$IIRMC,163142,A,4630.044,N,00640.694,E,05.6,274,210508,,,A*4E
$IIVHW,,,277,M,05.4,N,,*67
$IIVWR,095,R,09.6,N,,,,*62
$IIDPT,041.2,-1.0,*47
$IIGLL,4630.044,N,00640.694,E,163142,A,A*5B
$IIHDG,277,,,,*55
$IIMTW,+09.0,C*31
$IIMWV,095,R,09.6,N,A*10
$IIMWV,123,T,11.4,N,A*11
$IIRMB,A,0.03,R,,VIDY,,,,,002.93,282,05.5,V,A*76
$IIRMC,163144,A,4630.044,N,00640.690,E,05.6,274,210508,,,A*4C
$IIVHW,,,279,M,05.4,N,,*69
$IIVWR,094,R,09.9,N,,,,*6C
$IIDPT,040.0,-1.0,*44
$IIGLL,4630.044,N,00640.690,E,163144,A,A*59
$IIHDG,280,,,,*5D
$IIMTW,+09.0,C*31
$IIMWV,092,R,10.2,N,A*1B
$IIMWV,122,T,11.6,N,A*12
$IIRMC,163144,A,4630.044,N,00640.690,E,05.6,274,210508,,,A*4C
$IIVHW,,,280,M,05.5,N,,*6E
$IIVWR,092,R,10.2,N,,,,*69
$IIDPT,040.0,-1.0,*44
$IIGLL,4630.044,N,00640.685,E,163146,A,A*5F
$IIHDG,281,,,,*5C
$IIMTW,+09.0,C*31
$IIMWV,090,R,10.8,N,A*13
$IIMWV,120,T,11.7,N,A*11
$IIRMB,A,0.03,R,,VIDY,,,,,002.93,282,05.6,V,A*75
$IIRMC,163146,A,4630.044,N,00640.685,E,05.7,275,210508,,,A*4A
$IIVHW,,,281,M,05.6,N,,*6C
$IIVWR,090,R,11.2,N,,,,*6A
$IIDPT,038.9,-1.0,*42
$IIGLL,4630.044,N,00640.685,E,163146,A,A*5F
$IIHDG,281,,,,*5C
$IIMTW,+09.0,C*31
$IIMWV,090,R,11.2,N,A*18
$IIMWV,117,T,12.1,N,A*10
$IIRMC,163146,A,4630.044,N,00640.685,E,05.7,275,210508,,,A*4A
$IIVHW,,,280,M,05.7,N,,*6C
$IIVWR,091,R,11.8,N,,,,*61
$IIDPT,038.9,-1.0,*42
$IIGLL,4630.044,N,00640.681,E,163148,A,A*55
$IIHDG,280,,,,*5D
$IIMTW,+09.0,C*31
$IIMWV,091,R,11.8,N,A*13
$IIMWV,117,T,12.5,N,A*14
$IIRMB,A,0.03,R,,VIDY,,,,,002.92,282,05.7,V,A*75
$IIRMC,163148,A,4630.044,N,00640.681,E,06.3,279,210508,,,A*4B
$IIVHW,,,279,M,05.8,N,,*65
$IIVWR,092,R,12.3,N,,,,*6A
$IIDPT,038.9,-1.0,*42
$IIGLL,4630.044,N,00640.681,E,163148,A,A*55
$IIHDG,279,,,,*5B
$IIMTW,+09.0,C*31
$IIMWV,092,R,12.3,N,A*18
$IIMWV,117,T,13.7,N,A*17
$IIRMB,A,0.03,R,,VIDY,,,,,002.92,282,06.4,V,A*75
$IIRMC,163150,A,4630.045,N,00640.675,E,06.5,278,210508,,,A*4F
$IIVHW,,,278,M,05.9,N,,*65
$IIVWR,093,R,12.6,N,,,,*6E
$IIDPT,038.8,-1.0,*43
$IIGLL,4630.045,N,00640.675,E,163150,A,A*56
$IIHDG,277,,,,*55
$IIMTW,+08.5,C*35
$IIMWV,094,R,12.5,N,A*18
$IIMWV,117,T,14.1,N,A*16
$IIRMC,163150,A,4630.045,N,00640.675,E,06.5,278,210508,,,A*4F
$IIVHW,,,277,M,06.0,N,,*60
$IIVWR,094,R,12.5,N,,,,*6A
$IIDPT,040.2,-1.0,*46
$IIGLL,4630.045,N,00640.670,E,163152,A,A*51
$IIHDG,276,,,,*54
$IIMTW,+08.5,C*35
$IIMWV,094,R,12.4,N,A*19
$IIMWV,119,T,14.2,N,A*1B
$IIRMB,A,0.03,R,,VIDY,,,,,002.92,282,06.6,V,A*77
$IIRMC,163152,A,4630.045,N,00640.670,E,06.6,277,210508,,,A*44
$IIVHW,,,276,M,06.0,N,,*61
$IIVWR,093,R,11.8,N,,,,*63
$IIDPT,038.9,-1.0,*42
$IIGLL,4630.045,N,00640.670,E,163152,A,A*51
$IIHDG,276,,,,*54
$IIMTW,+08.5,C*35
$IIMWV,093,R,11.8,N,A*11
$IIMWV,119,T,14.1,N,A*18
$IIRMC,163152,A,4630.045,N,00640.670,E,06.6,277,210508,,,A*44
$IIVHW,,,276,M,06.1,N,,*60
$IIVWR,091,R,11.6,N,,,,*6F
$IIDPT,037.0,-1.0,*44
$IIGLL,4630.046,N,00640.665,E,163154,A,A*50
$IIHDG,276,,,,*54
$IIMTW,+08.5,C*35
$IIMWV,091,R,11.6,N,A*1D
$IIMWV,119,T,13.5,N,A*1B
$IIRMB,A,0.03,R,,VIDY,,,,,002.91,282,06.6,V,A*74
$IIRMC,163154,A,4630.046,N,00640.665,E,06.9,283,210508,,,A*41
$IIVHW,,,276,M,06.1,N,,*60
$IIVWR,088,R,11.2,N,,,,*63
$IIDPT,036.2,-1.0,*47
$IIGLL,4630.046,N,00640.665,E,163154,A,A*50
$IIHDG,276,,,,*54
$IIMTW,+08.5,C*35
$IIMWV,088,R,11.2,N,A*11
$IIMWV,117,T,12.6,N,A*17
$IIRMB,A,0.03,R,,VIDY,,,,,002.91,282,06.4,V,A*76
$IIRMC,163156,A,4630.047,N,00640.659,E,06.5,276,210508,,,A*4B
$IIVHW,,,275,M,06.1,N,,*63
$IIVWR,090,R,10.9,N,,,,*60
$IIDPT,036.2,-1.0,*47
$IIGLL,4630.047,N,00640.659,E,163156,A,A*5C
$IIHDG,275,,,,*57
$IIMTW,+09.0,C*31
$IIMWV,091,R,10.7,N,A*1D
$IIMWV,120,T,12.5,N,A*10
$IIRMC,163156,A,4630.047,N,00640.659,E,06.5,276,210508,,,A*4B
$IIVHW,,,275,M,06.1,N,,*63
$IIVWR,091,R,10.7,N,,,,*6F
$IIDPT,036.2,-1.0,*47
$IIGLL,4630.048,N,00640.654,E,163158,A,A*50
$IIHDG,275,,,,*57
$IIMTW,+09.0,C*31
$IIMWV,088,R,10.8,N,A*1A
$IIMWV,121,T,12.4,N,A*10
$IIRMB,A,0.03,R,,VIDY,,,,,002.90,282,06.5,V,A*76
$IIRMC,163158,A,4630.048,N,00640.654,E,06.2,255,210508,,,A*41
$IIVHW,,,275,M,06.1,N,,*63
$IIVWR,086,R,10.9,N,,,,*67
$IIDPT,036.2,-1.0,*47
$IIGLL,4630.048,N,00640.654,E,163158,A,A*50
$IIHDG,275,,,,*57
$IIMTW,+09.0,C*31
$IIMWV,086,R,10.9,N,A*15
$IIMWV,119,T,12.3,N,A*1C
$IIRMC,163158,A,4630.048,N,00640.654,E,06.2,255,210508,,,A*41
$IIVHW,,,274,M,06.1,N,,*62
$IIVWR,088,R,10.8,N,,,,*68
$IIDPT,036.2,-1.0,*47
$IIGLL,4630.048,N,00640.649,E,163200,A,A*52
$IIHDG,274,,,,*56
$IIMTW,+09.0,C*31
$IIMWV,088,R,10.8,N,A*1A
$IIMWV,117,T,12.2,N,A*13
$IIRMB,A,0.03,R,,VIDY,,,,,002.90,282,05.8,V,A*78
$IIRMC,163200,A,4630.048,N,00640.649,E,06.3,274,210508,,,A*41
$IIVHW,,,275,M,06.1,N,,*63
$IIVWR,089,R,10.7,N,,,,*66
$IIDPT,037.8,-1.0,*4C
$IIGLL,4630.048,N,00640.649,E,163200,A,A*52
$IIHDG,275,,,,*57
$IIMTW,+09.0,C*31
$IIMWV,089,R,10.7,N,A*14
$IIMWV,119,T,12.2,N,A*1D
$IIRMB,A,0.03,R,,VIDY,,,,,002.90,282,06.1,V,A*72
$IIRMC,163202,A,4630.048,N,00640.644,E,06.3,275,210508,,,A*4F
$IIVHW,,,275,M,06.1,N,,*63
$IIVWR,091,R,10.6,N,,,,*6E
$IIDPT,042.4,-1.0,*42
$IIGLL,4630.048,N,00640.644,E,163202,A,A*5D
$IIHDG,275,,,,*57
$IIMTW,+09.0,C*31
$IIMWV,091,R,10.8,N,A*12
$IIMWV,121,T,12.3,N,A*17
$IIRMC,163202,A,4630.048,N,00640.644,E,06.3,275,210508,,,A*4F
$IIVHW,,,275,M,06.1,N,,*63
$IIVWR,091,R,10.8,N,,,,*60
$IIDPT,050.2,-1.0,*47
$IIGLL,4630.048,N,00640.639,E,163204,A,A*51
$IIHDG,275,,,,*57
$IIMTW,+09.0,C*31
$IIMWV,092,R,11.4,N,A*1C
$IIMWV,120,T,12.5,N,A*10
$IIRMB,A,0.03,R,,VIDY,,,,,002.89,282,06.4,V,A*7F
$IIRMC,163204,A,4630.048,N,00640.639,E,06.4,274,210508,,,A*45
$IIVHW,,,275,M,06.1,N,,*63
$IIVWR,093,R,11.7,N,,,,*6C
$IIDPT,051.9,-1.0,*4D
$IIGLL,4630.048,N,00640.639,E,163204,A,A*51
$IIHDG,275,,,,*57
$IIMTW,+09.0,C*31
$IIMWV,093,R,11.7,N,A*1E
$IIMWV,119,T,13.0,N,A*1E
$IIRMC,163204,A,4630.048,N,00640.639,E,06.4,274,210508,,,A*45
$IIVHW,,,275,M,06.1,N,,*63
$IIVWR,093,R,11.8,N,,,,*63
$IIDPT,047.3,-1.0,*40
$IIGLL,4630.048,N,00640.634,E,163206,A,A*5E
$IIHDG,275,,,,*57
$IIMTW,+08.5,C*35
$IIMWV,093,R,11.8,N,A*11
$IIMWV,120,T,13.4,N,A*10
$IIRMB,A,0.03,R,,VIDY,,,,,002.89,282,06.3,V,A*78
$IIRMC,163206,A,4630.048,N,00640.634,E,06.5,273,210508,,,A*4C
$IIVHW,,,275,M,06.1,N,,*63
$IIVWR,093,R,11.7,N,,,,*6C
$IIDPT,051.8,-1.0,*4C
$IIGLL,4630.048,N,00640.634,E,163206,A,A*5E
$IIHDG,275,,,,*57
$IIMTW,+08.5,C*35
$IIMWV,093,R,11.7,N,A*1E
$IIMWV,120,T,13.4,N,A*10
$IIRMB,A,0.03,R,,VIDY,,,,,002.89,282,06.4,V,A*7F
$IIRMC,163208,A,4630.049,N,00640.629,E,06.3,272,210508,,,A*48
$IIVHW,,,275,M,06.2,N,,*60
$IIVWR,093,R,11.3,N,,,,*68
$IIDPT,045.8,-1.0,*49
$IIGLL,4630.049,N,00640.629,E,163208,A,A*5D
$IIHDG,275,,,,*57
$IIMTW,+08.5,C*35
$IIMWV,092,R,11.5,N,A*1D
$IIMWV,121,T,13.1,N,A*14
$IIRMC,163208,A,4630.049,N,00640.629,E,06.3,272,210508,,,A*48
$IIVHW,,,275,M,06.2,N,,*60
$IIVWR,092,R,11.5,N,,,,*6F
$IIDPT,041.6,-1.0,*43
$IIGLL,4630.049,N,00640.623,E,163210,A,A*5E
$IIHDG,275,,,,*57
$IIMTW,+08.5,C*35
$IIMWV,093,R,11.7,N,A*1E
$IIMWV,120,T,13.2,N,A*16
$IIRMB,A,0.03,R,,VIDY,,,,,002.88,282,06.3,V,A*79
$IIRMC,163210,A,4630.049,N,00640.623,E,06.4,275,210508,,,A*4B
$IIVHW,,,275,M,06.2,N,,*60
$IIVWR,094,R,12.1,N,,,,*6E
$IIDPT,040.9,-1.0,*4D
$IIGLL,4630.049,N,00640.623,E,163210,A,A*5E
$IIHDG,275,,,,*57
$IIMTW,+08.5,C*35
$IIMWV,094,R,12.1,N,A*1C
$IIMWV,120,T,13.5,N,A*11
$IIRMC,163210,A,4630.049,N,00640.623,E,06.4,275,210508,,,A*4B
$IIVHW,,,275,M,06.3,N,,*61
$IIVWR,096,R,12.2,N,,,,*6F
$IIDPT,042.1,-1.0,*47
$IIGLL,4630.049,N,00640.618,E,163212,A,A*54
$IIHDG,275,,,,*57
$IIMTW,+08.5,C*35
$IIMWV,096,R,12.2,N,A*1D
$IIMWV,121,T,14.0,N,A*12
$IIRMB,A,0.03,R,,VIDY,,,,,002.88,282,06.4,V,A*7E
$IIRMC,163212,A,4630.049,N,00640.618,E,06.4,276,210508,,,A*42
$IIVHW,,,274,M,06.3,N,,*60
$IIVWR,096,R,12.2,N,,,,*6F
$IIDPT,042.1,-1.0,*47
$IIGLL,4630.049,N,00640.618,E,163212,A,A*54
$IIHDG,274,,,,*56
$IIMTW,+08.5,C*35
$IIMWV,096,R,12.2,N,A*1D
$IIMWV,122,T,14.1,N,A*10
$IIRMB,A,0.03,R,,VIDY,,,,,002.88,282,06.4,V,A*7E
$IIRMC,163214,A,4630.049,N,00640.613,E,06.4,276,210508,,,A*4F
$IIVHW,,,275,M,06.3,N,,*61
$IIVWR,097,R,12.2,N,,,,*6E
$IIDPT,041.0,-1.0,*45
$IIGLL,4630.049,N,00640.613,E,163214,A,A*59
$IIHDG,274,,,,*56
$IIMTW,+08.5,C*35
$IIMWV,098,R,11.9,N,A*1B
$IIMWV,123,T,14.2,N,A*12
$IIRMC,163214,A,4630.049,N,00640.613,E,06.4,276,210508,,,A*4F
$IIVHW,,,274,M,06.3,N,,*60
$IIVWR,098,R,11.9,N,,,,*69
$IIDPT,042.5,-1.0,*43
$IIGLL,4630.050,N,00640.608,E,163216,A,A*59
$IIHDG,275,,,,*57
$IIMTW,+08.5,C*35
$IIMWV,099,R,12.0,N,A*10
$IIMWV,124,T,14.1,N,A*16
$IIRMB,A,0.03,R,,VIDY,,,,,002.87,282,06.4,V,A*71
$IIRMC,163216,A,4630.050,N,00640.608,E,06.5,274,210508,,,A*4C
$IIVHW,,,275,M,06.3,N,,*61
$IIVWR,100,R,12.4,N,,,,*67
$IIDPT,041.6,-1.0,*43
$IIGLL,4630.050,N,00640.608,E,163216,A,A*59
$IIHDG,274,,,,*56
$IIMTW,+08.5,C*35
$IIMWV,100,R,12.4,N,A*15
$IIMWV,125,T,14.3,N,A*15
$IIRMC,163216,A,4630.050,N,00640.608,E,06.5,274,210508,,,A*4C
$IIVHW,,,274,M,06.2,N,,*61
$IIVWR,101,R,12.1,N,,,,*63
$IIDPT,041.7,-1.0,*42
$IIGLL,4630.050,N,00640.603,E,163218,A,A*5C
$IIHDG,274,,,,*56
$IIMTW,+08.5,C*35
$IIMWV,101,R,12.1,N,A*11
$IIMWV,125,T,14.7,N,A*11
$IIRMB,A,0.04,R,,VIDY,,,,,002.87,282,06.4,V,A*76
$IIRMC,163218,A,4630.050,N,00640.603,E,06.5,270,210508,,,A*4D
$IIVHW,,,274,M,06.3,N,,*60
$IIVWR,101,R,11.8,N,,,,*69
$IIDPT,044.1,-1.0,*41
$IIGLL,4630.050,N,00640.603,E,163218,A,A*5C
$IIHDG,274,,,,*56
$IIMTW,+08.5,C*35
$IIMWV,101,R,11.8,N,A*1B
$IIMWV,127,T,14.3,N,A*17
$IIRMB,A,0.04,R,,VIDY,,,,,002.87,283,06.3,V,A*70
$IIRMC,163220,A,4630.049,N,00640.597,E,06.5,271,210508,,,A*41
$IIVHW,,,273,M,06.3,N,,*67
$IIVWR,100,R,11.4,N,,,,*64
$IIDPT,044.1,-1.0,*41
$IIGLL,4630.049,N,00640.597,E,163220,A,A*51
$IIHDG,273,,,,*51
$IIMTW,+08.5,C*35
$IIMWV,100,R,11.3,N,A*11
$IIMWV,127,T,13.8,N,A*1B
$IIRMC,163220,A,4630.049,N,00640.597,E,06.5,271,210508,,,A*41
$IIVHW,,,273,M,06.2,N,,*66
$IIVWR,100,R,11.3,N,,,,*63
$IIDPT,044.4,-1.0,*44
$IIGLL,4630.049,N,00640.592,E,163222,A,A*56
$IIHDG,273,,,,*51
$IIMTW,+08.5,C*35
$IIMWV,099,R,11.3,N,A*10
$IIMWV,127,T,13.7,N,A*14
$IIRMB,A,0.04,R,,VIDY,,,,,002.86,283,06.3,V,A*71
$IIRMC,163222,A,4630.049,N,00640.592,E,06.3,274,210508,,,A*45
$IIVHW,,,273,M,06.2,N,,*66
$IIVWR,098,R,11.0,N,,,,*60
$IIDPT,052.5,-1.0,*42
$IIGLL,4630.049,N,00640.592,E,163222,A,A*56
$IIHDG,273,,,,*51
$IIMTW,+08.5,C*35
$IIMWV,098,R,11.0,N,A*12
$IIMWV,126,T,13.7,N,A*15
$IIRMC,163222,A,4630.049,N,00640.592,E,06.3,274,210508,,,A*45
$IIVHW,,,273,M,06.2,N,,*66
$IIVWR,098,R,10.6,N,,,,*67
$IIDPT,054.0,-1.0,*41
$IIGLL,4630.050,N,00640.587,E,163224,A,A*5C
$IIHDG,273,,,,*51
$IIMTW,+08.5,C*35
$IIMWV,098,R,10.6,N,A*15
$IIMWV,126,T,13.3,N,A*11
$IIRMB,A,0.04,R,,VIDY,,,,,002.86,283,06.3,V,A*71
$IIRMC,163224,A,4630.050,N,00640.587,E,06.4,272,210508,,,A*4E
$IIVHW,,,273,M,06.1,N,,*65
$IIVWR,098,R,10.4,N,,,,*65
$IIDPT,055.7,-1.0,*47
$IIGLL,4630.050,N,00640.587,E,163224,A,A*5C
$IIHDG,273,,,,*51
$IIMTW,+09.0,C*31
$IIMWV,098,R,10.4,N,A*17
$IIMWV,127,T,12.7,N,A*15
$IIRMB,A,0.04,R,,VIDY,,,,,002.86,283,06.3,V,A*71
$IIRMC,163226,A,4630.050,N,00640.582,E,06.3,272,210508,,,A*4E
$IIVHW,,,273,M,06.1,N,,*65
$IIVWR,098,R,10.2,N,,,,*63
$IIDPT,055.7,-1.0,*47
$IIGLL,4630.050,N,00640.582,E,163226,A,A*5B
$IIHDG,273,,,,*51
$IIMTW,+09.0,C*31
$IIMWV,099,R,10.3,N,A*11
$IIMWV,127,T,12.5,N,A*17
$IIRMC,163226,A,4630.050,N,00640.582,E,06.3,272,210508,,,A*4E
$IIVHW,,,273,M,06.1,N,,*65
$IIVWR,099,R,10.3,N,,,,*63
$IIDPT,058.7,-1.0,*4A
$IIGLL,4630.050,N,00640.577,E,163228,A,A*5F
$IIHDG,273,,,,*51
$IIMTW,+09.0,C*31
$IIMWV,100,R,10.0,N,A*13
$IIMWV,128,T,12.7,N,A*1A
$IIRMB,A,0.04,R,,VIDY,,,,,002.85,283,06.2,V,A*73
$IIRMC,163228,A,4630.050,N,00640.577,E,06.2,273,210508,,,A*4A
$IIVHW,,,273,M,06.1,N,,*65
$IIVWR,097,R,09.9,N,,,,*6F
$IIDPT,062.9,-1.0,*4D
$IIGLL,4630.050,N,00640.577,E,163228,A,A*5F
$IIHDG,273,,,,*51
$IIMTW,+09.0,C*31
$IIMWV,097,R,09.9,N,A*1D
$IIMWV,129,T,12.5,N,A*19
$IIRMC,163228,A,4630.050,N,00640.577,E,06.2,273,210508,,,A*4A
$IIVHW,,,272,M,06.0,N,,*65
$IIVWR,096,R,09.4,N,,,,*63
$IIDPT,053.2,-1.0,*44
$IIGLL,4630.050,N,00640.572,E,163230,A,A*53
$IIHDG,272,,,,*50
$IIMTW,+09.0,C*31
$IIMWV,096,R,09.4,N,A*11
$IIMWV,126,T,12.1,N,A*12
$IIRMB,A,0.04,R,,VIDY,,,,,002.85,283,06.2,V,A*73
$IIRMC,163230,A,4630.050,N,00640.572,E,06.2,274,210508,,,A*41
$IIVHW,,,272,M,06.0,N,,*65
$IIVWR,094,R,08.9,N,,,,*6D
$IIDPT,051.8,-1.0,*4C
$IIGLL,4630.050,N,00640.572,E,163230,A,A*53
$IIHDG,272,,,,*50
$IIMTW,+09.0,C*31
$IIMWV,094,R,08.9,N,A*1F
$IIMWV,127,T,11.1,N,A*10
$IIVHW,,,272,M,06.0,N,,*65
$IIVWR,095,R,08.5,N,,,,*60
$IIDPT,055.7,-1.0,*47
$IIGLL,4630.050,N,00640.567,E,163232,A,A*55
$IIHDG,273,,,,*51
$IIMTW,+09.0,C*31
$IIMWV,097,R,08.2,N,A*17
$IIMWV,128,T,10.8,N,A*17
$IIRMC,163232,A,4630.050,N,00640.567,E,06.0,274,210508,,,A*45
$IIVHW,,,273,M,06.0,N,,*64
$IIVWR,097,R,08.2,N,,,,*65
$IIDPT,053.4,-1.0,*42
$IIGLL,4630.050,N,00640.562,E,163234,A,A*56
$IIHDG,273,,,,*51
$IIMTW,+09.0,C*31
$IIMWV,096,R,07.8,N,A*13
$IIMWV,130,T,10.6,N,A*10
$IIRMB,A,0.04,R,,VIDY,,,,,002.84,283,06.0,V,A*70
$IIRMC,163234,A,4630.050,N,00640.562,E,06.1,271,210508,,,A*42
$IIVHW,,,273,M,05.9,N,,*6E
$IIVWR,098,R,07.6,N,,,,*61
$IIDPT,052.3,-1.0,*44
$IIGLL,4630.050,N,00640.562,E,163234,A,A*56
$IIHDG,272,,,,*50
$IIMTW,+09.0,C*31
$IIMWV,098,R,07.6,N,A*13
$IIMWV,131,T,10.2,N,A*15
$IIRMC,163234,A,4630.050,N,00640.562,E,06.1,271,210508,,,A*42
$IIVHW,,,272,M,05.9,N,,*6F
$IIVWR,099,R,07.6,N,,,,*60
$IIDPT,054.5,-1.0,*44
$IIGLL,4630.050,N,00640.557,E,163236,A,A*52
$IIHDG,272,,,,*50
$IIMTW,+09.0,C*31
$IIMWV,099,R,07.6,N,A*12
$IIMWV,133,T,10.2,N,A*17
$IIRMB,A,0.04,R,,VIDY,,,,,002.84,283,05.9,V,A*7A
$IIRMC,163236,A,4630.050,N,00640.557,E,06.0,272,210508,,,A*44
$IIVHW,,,272,M,05.9,N,,*6F
$IIVWR,100,R,07.6,N,,,,*61
$IIDPT,054.5,-1.0,*44
$IIGLL,4630.050,N,00640.557,E,163236,A,A*52
$IIHDG,272,,,,*50
$IIMTW,+09.0,C*31
$IIMWV,100,R,07.6,N,A*13
$IIMWV,134,T,10.2,N,A*10
$IIRMB,A,0.04,R,,VIDY,,,,,002.84,283,05.9,V,A*7A
$IIRMC,163238,A,4630.050,N,00640.552,E,05.9,272,210508,,,A*45
$IIVHW,,,272,M,05.8,N,,*6E
$IIVWR,102,R,07.6,N,,,,*63
$IIDPT,057.5,-1.0,*47
$IIGLL,4630.050,N,00640.552,E,163238,A,A*59
$IIHDG,273,,,,*51
$IIMTW,+09.0,C*31
$IIMWV,104,R,07.2,N,A*13
$IIMWV,135,T,10.4,N,A*17
$IIRMC,163238,A,4630.050,N,00640.552,E,05.9,272,210508,,,A*45
$IIVHW,,,273,M,05.7,N,,*60
$IIVWR,104,R,07.2,N,,,,*61
$IIDPT,058.7,-1.0,*4A
$IIGLL,4630.050,N,00640.548,E,163240,A,A*5D
$IIHDG,274,,,,*56
$IIMTW,+09.0,C*31
$IIMWV,107,R,07.4,N,A*16
$IIMWV,137,T,10.1,N,A*10
$IIRMB,A,0.04,R,,VIDY,,,,,002.83,283,05.7,V,A*73
$IIRMC,163240,A,4630.050,N,00640.548,E,05.9,274,210508,,,A*47
$IIVHW,,,274,M,05.7,N,,*67
$IIVWR,112,R,07.2,N,,,,*66
$IIDPT,061.4,-1.0,*43
$IIGLL,4630.050,N,00640.548,E,163240,A,A*5D
$IIHDG,275,,,,*57
$IIMTW,+09.0,C*31
$IIMWV,112,R,07.2,N,A*14
$IIMWV,138,T,10.5,N,A*1B
$IIRMC,163240,A,4630.050,N,00640.548,E,05.9,274,210508,,,A*47
$IIVHW,,,275,M,05.6,N,,*67
$IIVWR,110,R,07.0,N,,,,*66
$IIDPT,058.7,-1.0,*4A
$IIGLL,4630.050,N,00640.543,E,163242,A,A*54
$IIHDG,275,,,,*57
$IIMTW,+09.0,C*31
$IIMWV,110,R,07.0,N,A*14
$IIMWV,142,T,10.6,N,A*15
$IIRMB,A,0.04,R,,VIDY,,,,,002.83,283,05.6,V,A*72
$IIRMC,163242,A,4630.050,N,00640.543,E,05.7,276,210508,,,A*42
$IIVHW,,,275,M,05.6,N,,*67
$IIVWR,108,R,06.9,N,,,,*67
$IIDPT,052.1,-1.0,*46
$IIGLL,4630.050,N,00640.543,E,163242,A,A*54
$IIHDG,275,,,,*57
$IIMTW,+09.0,C*31
$IIMWV,108,R,06.9,N,A*15
$IIMWV,140,T,10.0,N,A*11
$IIRMB,A,0.04,R,,VIDY,,,,,002.83,283,05.6,V,A*72
$IIRMC,163244,A,4630.051,N,00640.539,E,05.6,274,210508,,,A*4B
$IIVHW,,,275,M,05.6,N,,*67
$IIVWR,000,R,00.0,N,,,,*61
$IIDPT,052.1,-1.0,*46
$IIGLL,4630.051,N,00640.539,E,163244,A,A*5E
$IIHDG,275,,,,*57
$IIMTW,+09.0,C*31
$IIMWV,112,R,07.1,N,A*17
