$IIVHW,,,163,M,00.0,N,,*60
$IIVWR,038,R,00.0,N,,,,*6A
$IIDPT,003.5,-1.0,*46
$IIGLL,4630.062,N,00641.124,E,163332,A,A*57
$IIHDG,164,,,,*54
$IIMTW,+12.5,C*3E
$IIMWV,040,R,00.0,N,A*17
$IIMWV,038,T,00.0,N,A*1E
$IIRMC,163332,A,4630.062,N,00641.124,E,00.9,000,040608,,,A*4D
$IIVHW,,,164,M,00.0,N,,*67
$IIVWR,040,R,00.0,N,,,,*65
$IIDPT,003.5,-1.0,*46
$IIGLL,4630.062,N,00641.124,E,163334,A,A*51
$IIHDG,167,,,,*57
$IIMTW,+12.5,C*3E
$IIMWV,043,R,00.0,N,A*14
$IIMWV,040,T,00.0,N,A*11
$IIRMB,A,0.00,L,,VIDY,,,,,003.22,281,-00.8,V,A*46
$IIRMC,163334,A,4630.062,N,00641.124,E,00.9,000,040608,,,A*4B
$IIVHW,,,168,M,00.0,N,,*6B
$IIVWR,046,R,00.0,N,,,,*63
$IIDPT,003.5,-1.0,*46
$IIGLL,4630.062,N,00641.124,E,163334,A,A*51
$IIHDG,168,,,,*58
$IIMTW,+12.5,C*3E
$IIMWV,046,R,00.0,N,A*11
$IIMWV,043,T,00.0,N,A*12
$IIRMC,163336,A,4630.062,N,00641.125,E,01.0,000,040608,,,A*40
$IIVHW,,,171,M,00.0,N,,*63
$IIVWR,049,R,00.0,N,,,,*6C
$IIDPT,003.5,-1.0,*46
$IIGLL,4630.062,N,00641.125,E,163336,A,A*52
$IIHDG,171,,,,*50
$IIMTW,+12.5,C*3E
$IIMWV,049,R,00.0,N,A*1E
$IIMWV,049,T,00.0,N,A*18
$IIRMB,A,0.00,L,,VIDY,,,,,003.22,281,-00.8,V,A*46
$IIRMC,163336,A,4630.062,N,00641.125,E,01.0,000,040608,,,A*40
$IIVHW,,,173,M,00.0,N,,*61
$IIVWR,053,R,00.0,N,,,,*67
$IIDPT,003.5,-1.0,*46
$IIGLL,4630.062,N,00641.125,E,163336,A,A*52
$IIHDG,177,,,,*56
$IIMTW,+12.5,C*3E
$IIMWV,050,R,00.0,N,A*16
$IIMWV,053,T,00.0,N,A*13
$IIRMB,A,0.00,L,,VIDY,,,,,003.22,281,-00.9,V,A*47
$IIRMC,163338,A,4630.060,N,00641.124,E,00.8,125,040608,,,A*42
$IIVHW,,,177,M,00.0,N,,*65
$IIVWR,050,R,00.0,N,,,,*64
$IIDPT,003.5,-1.0,*46
$IIGLL,4630.060,N,00641.124,E,163338,A,A*5F
$IIHDG,179,,,,*58
$IIMTW,+12.5,C*3E
$IIMWV,049,R,00.0,N,A*1E
$IIMWV,050,T,00.0,N,A*10
$IIRMC,163338,A,4630.060,N,00641.124,E,00.8,125,040608,,,A*42
$IIVHW,,,179,M,00.0,N,,*6B
$IIVWR,049,R,00.0,N,,,,*6C
$IIDPT,003.6,-1.0,*45
$IIGLL,4630.057,N,00641.125,E,163340,A,A*55
$IIHDG,181,,,,*5F
$IIMTW,+12.5,C*3E
$IIMWV,049,R,00.0,N,A*1E
$IIMWV,049,T,00.0,N,A*18
$IIRMB,A,0.00,L,,VIDY,,,,,003.22,281,-00.7,V,A*49
$IIRMC,163340,A,4630.057,N,00641.125,E,00.9,127,040608,,,A*4B
$IIVHW,,,183,M,00.0,N,,*6E
$IIVWR,049,R,00.0,N,,,,*6C
$IIDPT,003.6,-1.0,*45
$IIGLL,4630.057,N,00641.125,E,163340,A,A*55
$IIHDG,183,,,,*5D
$IIMTW,+12.5,C*3E
$IIMWV,049,R,00.0,N,A*1E
$IIMWV,049,T,00.0,N,A*18
$IIRMB,A,0.01,R,,VIDY,,,,,003.22,281,-00.8,V,A*59
$IIRMC,163342,A,4630.056,N,00641.126,E,00.9,127,040608,,,A*4B
$IIVHW,,,187,M,00.0,N,,*6A
$IIVWR,049,R,00.0,N,,,,*6C
$IIDPT,003.7,-1.0,*44
$IIGLL,4630.056,N,00641.126,E,163342,A,A*55
$IIHDG,188,,,,*56
$IIMTW,+12.5,C*3E
$IIMWV,048,R,00.0,N,A*1F
$IIMWV,049,T,00.0,N,A*18
$IIRMC,163342,A,4630.056,N,00641.126,E,00.9,127,040608,,,A*4B
$IIVHW,,,188,M,00.0,N,,*65
$IIVWR,048,R,00.0,N,,,,*6D
$IIDPT,017.0,-1.0,*46
$IIGLL,4630.057,N,00641.126,E,163344,A,A*52
$IIHDG,189,,,,*57
$IIMTW,+12.5,C*3E
$IIMWV,043,R,00.0,N,A*14
$IIMWV,048,T,00.0,N,A*19
$IIRMB,A,0.01,R,,VIDY,,,,,003.22,281,-00.8,V,A*59
$IIRMC,163344,A,4630.057,N,00641.126,E,00.8,125,040608,,,A*4F
$IIVHW,,,189,M,00.0,N,,*64
$IIVWR,043,R,00.0,N,,,,*66
$IIDPT,017.1,-1.0,*47
$IIGLL,4630.057,N,00641.126,E,163344,A,A*52
$IIHDG,189,,,,*57
$IIMTW,+12.5,C*3E
$IIMWV,043,R,00.0,N,A*14
$IIMWV,043,T,00.0,N,A*12
$IIRMC,163344,A,4630.057,N,00641.126,E,00.8,125,040608,,,A*4F
$IIVHW,,,188,M,00.0,N,,*65
$IIVWR,043,R,00.0,N,,,,*66
$IIDPT,004.2,-1.0,*46
$IIGLL,4630.057,N,00641.126,E,163346,A,A*50
$IIHDG,188,,,,*56
$IIMTW,+12.5,C*3E
$IIMWV,043,R,00.0,N,A*14
$IIMWV,042,T,00.0,N,A*13
$IIRMB,A,0.00,L,,VIDY,,,,,003.22,281,00.0,V,A*63
$IIRMC,163348,A,4630.057,N,00641.127,E,00.0,126,040608,,,A*49
$IIVHW,,,186,M,00.0,N,,*6B
$IIVWR,044,R,00.0,N,,,,*61
$IIDPT,004.2,-1.0,*46
$IIGLL,4630.057,N,00641.127,E,163348,A,A*5F
$IIHDG,186,,,,*58
$IIMTW,+12.5,C*3E
$IIMWV,044,R,00.0,N,A*13
$IIMWV,044,T,00.0,N,A*15
$IIRMB,A,0.01,R,,VIDY,,,,,003.22,281,00.0,V,A*7C
$IIRMC,163348,A,4630.057,N,00641.127,E,00.0,126,040608,,,A*49
$IIVHW,,,185,M,00.0,N,,*68
$IIVWR,046,R,00.0,N,,,,*63
$IIDPT,004.0,-1.0,*44
$IIGLL,4630.057,N,00641.127,E,163348,A,A*5F
$IIHDG,183,,,,*5D
$IIMTW,+13.0,C*3A
$IIMWV,051,R,00.0,N,A*17
$IIMWV,046,T,00.0,N,A*17
$IIRMB,A,0.00,L,,VIDY,,,,,003.22,281,00.0,V,A*63
$IIRMC,163350,A,4630.057,N,00641.128,E,00.0,126,040608,,,A*4F
$IIVHW,,,183,M,00.0,N,,*6E
$IIVWR,051,R,00.0,N,,,,*65
$IIDPT,003.8,-1.0,*4B
$IIGLL,4630.057,N,00641.128,E,163350,A,A*59
$IIHDG,181,,,,*5F
$IIMTW,+13.0,C*3A
$IIMWV,054,R,00.0,N,A*12
$IIMWV,051,T,00.0,N,A*11
$IIRMC,163350,A,4630.057,N,00641.128,E,00.0,126,040608,,,A*4F
$IIVHW,,,181,M,00.0,N,,*6C
$IIVWR,057,R,00.0,N,,,,*63
$IIDPT,003.8,-1.0,*4B
$IIGLL,4630.056,N,00641.128,E,163352,A,A*5A
$IIHDG,179,,,,*58
$IIMTW,+13.0,C*3A
$IIMWV,057,R,00.0,N,A*11
$IIMWV,054,T,00.0,N,A*14
$IIRMB,A,0.01,R,,VIDY,,,,,003.22,281,,V,A*62
$IIRMC,163352,A,4630.056,N,00641.128,E,00.0,126,040608,,,A*4C
$IIVHW,,,177,M,00.0,N,,*65
$IIVWR,058,R,00.0,N,,,,*6C
$IIDPT,003.8,-1.0,*4B
$IIGLL,4630.056,N,00641.128,E,163352,A,A*5A
$IIHDG,177,,,,*56
$IIMTW,+13.0,C*3A
$IIMWV,058,R,00.0,N,A*1E
$IIMWV,057,T,00.0,N,A*17
$IIRMC,163354,A,4630.056,N,00641.129,E,00.0,126,040608,,,A*4B
$IIVHW,,,175,M,00.0,N,,*67
$IIVWR,061,R,00.0,N,,,,*66
$IIDPT,003.8,-1.0,*4B
$IIGLL,4630.056,N,00641.129,E,163354,A,A*5D
$IIHDG,175,,,,*54
$IIMTW,+13.0,C*3A
$IIMWV,061,R,00.0,N,A*14
$IIMWV,061,T,00.0,N,A*12
$IIRMB,A,0.01,R,,VIDY,,,,,003.22,281,,V,A*62
$IIRMC,163354,A,4630.056,N,00641.129,E,00.0,126,040608,,,A*4B
$IIVHW,,,174,M,00.0,N,,*66
$IIVWR,059,R,00.0,N,,,,*6D
$IIDPT,003.8,-1.0,*4B
$IIGLL,4630.056,N,00641.129,E,163354,A,A*5D
$IIHDG,174,,,,*55
$IIMTW,+13.0,C*3A
$IIMWV,057,R,00.0,N,A*11
$IIMWV,059,T,00.0,N,A*19
$IIRMB,A,0.01,R,,VIDY,,,,,003.22,281,,V,A*62
$IIRMC,163356,A,4630.056,N,00641.129,E,00.0,126,040608,,,A*49
$IIVHW,,,174,M,00.0,N,,*66
$IIVWR,057,R,00.0,N,,,,*63
$IIDPT,004.0,-1.0,*44
$IIGLL,4630.056,N,00641.130,E,163358,A,A*59
$IIHDG,171,,,,*50
$IIMTW,+13.0,C*3A
$IIMWV,055,R,00.0,N,A*13
$IIMWV,056,T,00.0,N,A*16
$IIRMB,A,0.01,R,,VIDY,,,,,003.22,281,,V,A*62
$IIRMC,163358,A,4630.056,N,00641.130,E,00.0,126,040608,,,A*4F
$IIVHW,,,171,M,00.0,N,,*63
$IIVWR,053,R,00.0,N,,,,*67
$IIDPT,003.9,-1.0,*4A
$IIGLL,4630.056,N,00641.130,E,163358,A,A*59
$IIHDG,172,,,,*53
$IIMTW,+13.0,C*3A
$IIMWV,053,R,00.0,N,A*15
$IIMWV,055,T,00.0,N,A*15
$IIRMC,163358,A,4630.056,N,00641.130,E,00.0,126,040608,,,A*4F
$IIVHW,,,173,M,00.0,N,,*61
$IIVWR,051,R,00.0,N,,,,*65
$IIDPT,003.9,-1.0,*4A
$IIGLL,4630.055,N,00641.130,E,163400,A,A*50
$IIHDG,173,,,,*52
$IIMTW,+13.0,C*3A
$IIMWV,051,R,00.0,N,A*17
$IIMWV,053,T,00.0,N,A*13
$IIRMB,A,0.01,R,,VIDY,,,,,003.22,281,,V,A*62
$IIRMC,163400,A,4630.055,N,00641.130,E,00.0,126,040608,,,A*46
$IIVHW,,,173,M,00.0,N,,*61
$IIVWR,048,R,00.0,N,,,,*6D
$IIDPT,003.9,-1.0,*4A
$IIGLL,4630.055,N,00641.130,E,163400,A,A*50
$IIHDG,173,,,,*52
$IIMTW,+13.0,C*3A
$IIMWV,048,R,00.0,N,A*1F
$IIMWV,048,T,00.0,N,A*19
$IIRMB,A,0.01,R,,VIDY,,,,,003.22,281,,V,A*62
$IIRMC,163402,A,4630.055,N,00641.131,E,00.0,126,040608,,,A*45
$IIVHW,,,173,M,00.0,N,,*61
$IIVWR,048,R,00.0,N,,,,*6D
$IIDPT,004.0,-1.0,*44
$IIGLL,4630.055,N,00641.131,E,163402,A,A*53
$IIHDG,173,,,,*52
$IIMTW,+13.0,C*3A
$IIMWV,047,R,00.0,N,A*10
$IIMWV,048,T,00.0,N,A*19
$IIRMC,163402,A,4630.055,N,00641.131,E,00.0,126,040608,,,A*45
$IIVHW,,,173,M,00.0,N,,*61
$IIVWR,047,R,00.0,N,,,,*62
$IIDPT,004.0,-1.0,*44
$IIGLL,4630.055,N,00641.131,E,163404,A,A*55
$IIHDG,174,,,,*55
$IIMTW,+13.0,C*3A
$IIMWV,049,R,00.0,N,A*1E
$IIMWV,047,T,00.0,N,A*16
$IIRMB,A,0.01,R,,VIDY,,,,,003.22,281,,V,A*62
$IIRMC,163404,A,4630.055,N,00641.131,E,00.0,126,040608,,,A*43
$IIVHW,,,174,M,00.0,N,,*66
$IIVWR,050,R,00.0,N,,,,*64
$IIDPT,004.1,-1.0,*45
$IIGLL,4630.055,N,00641.131,E,163404,A,A*55
$IIHDG,175,,,,*54
$IIMTW,+13.0,C*3A
$IIMWV,050,R,00.0,N,A*16
$IIMWV,049,T,00.0,N,A*18
$IIRMC,163404,A,4630.055,N,00641.131,E,00.0,126,040608,,,A*43
$IIVHW,,,175,M,00.0,N,,*67
$IIVWR,051,R,00.0,N,,,,*65
$IIDPT,004.1,-1.0,*45
$IIGLL,4630.055,N,00641.132,E,163406,A,A*54
$IIHDG,175,,,,*54
$IIMTW,+13.0,C*3A
$IIMWV,051,R,00.0,N,A*17
$IIMWV,050,T,00.0,N,A*10
$IIRMB,A,0.01,R,,VIDY,,,,,003.23,281,,V,A*63
$IIRMC,163406,A,4630.055,N,00641.132,E,00.0,126,040608,,,A*42
$IIVHW,,,176,M,00.0,N,,*64
$IIVWR,050,R,00.0,N,,,,*64
$IIDPT,004.1,-1.0,*45
$IIGLL,4630.055,N,00641.132,E,163406,A,A*54
$IIHDG,176,,,,*57
$IIMTW,+13.0,C*3A
$IIMWV,050,R,00.0,N,A*16
$IIMWV,050,T,00.0,N,A*10
$IIRMB,A,0.01,R,,VIDY,,,,,003.23,281,,V,A*63
$IIRMC,163408,A,4630.054,N,00641.132,E,00.0,126,040608,,,A*4D
$IIVHW,,,177,M,00.0,N,,*65
$IIVWR,050,R,00.0,N,,,,*64
$IIDPT,004.1,-1.0,*45
$IIGLL,4630.054,N,00641.132,E,163408,A,A*5B
$IIHDG,178,,,,*59
$IIMTW,+13.0,C*3A
$IIMWV,051,R,00.0,N,A*17
$IIMWV,050,T,00.0,N,A*10
$IIRMC,163408,A,4630.054,N,00641.132,E,00.0,126,040608,,,A*4D
$IIVHW,,,178,M,00.0,N,,*6A
$IIVWR,051,R,00.0,N,,,,*65
$IIDPT,004.3,-1.0,*47
$IIGLL,4630.054,N,00641.133,E,163410,A,A*53
$IIHDG,178,,,,*59
$IIMTW,+13.0,C*3A
$IIMWV,053,R,00.0,N,A*15
$IIMWV,051,T,00.0,N,A*11
$IIRMB,A,0.01,R,,VIDY,,,,,003.23,281,,V,A*63
$IIRMC,163410,A,4630.054,N,00641.133,E,00.0,126,040608,,,A*45
$IIVHW,,,178,M,00.0,N,,*6A
$IIVWR,051,R,00.0,N,,,,*65
$IIDPT,004.8,-1.0,*4C
$IIGLL,4630.054,N,00641.133,E,163410,A,A*53
$IIHDG,179,,,,*58
$IIMTW,+13.0,C*3A
$IIMWV,051,R,00.0,N,A*17
$IIMWV,053,T,00.0,N,A*13
$IIRMC,163410,A,4630.054,N,00641.133,E,00.0,126,040608,,,A*45
$IIVHW,,,179,M,00.0,N,,*6B
$IIVWR,052,R,00.0,N,,,,*66
$IIDPT,004.2,-1.0,*46
$IIGLL,4630.054,N,00641.133,E,163412,A,A*51
$IIHDG,180,,,,*5E
$IIMTW,+13.0,C*3A
$IIMWV,052,R,00.0,N,A*14
$IIMWV,051,T,00.0,N,A*11
$IIRMB,A,0.01,R,,VIDY,,,,,003.23,281,,V,A*63
$IIRMC,163412,A,4630.054,N,00641.133,E,00.0,126,040608,,,A*47
$IIVHW,,,181,M,00.0,N,,*6C
$IIVWR,046,R,00.0,N,,,,*63
$IIDPT,004.2,-1.0,*46
$IIGLL,4630.054,N,00641.133,E,163412,A,A*51
$IIHDG,181,,,,*5F
$IIMTW,+13.0,C*3A
$IIMWV,046,R,00.0,N,A*11
$IIMWV,046,T,00.0,N,A*17
$IIRMB,A,0.01,R,,VIDY,,,,,003.23,281,,V,A*63
$IIRMC,163414,A,4630.054,N,00641.134,E,00.0,126,040608,,,A*46
$IIVHW,,,182,M,00.0,N,,*6F
$IIVWR,042,R,00.0,N,,,,*67
$IIDPT,004.2,-1.0,*46
$IIGLL,4630.054,N,00641.134,E,163414,A,A*50
$IIHDG,182,,,,*5C
$IIMTW,+13.0,C*3A
$IIMWV,042,R,00.0,N,A*15
$IIMWV,042,T,00.0,N,A*13
$IIRMC,163414,A,4630.054,N,00641.134,E,00.0,126,040608,,,A*46
$IIVHW,,,182,M,00.0,N,,*6F
$IIVWR,042,R,00.0,N,,,,*67
$IIDPT,004.2,-1.0,*46
$IIGLL,4630.053,N,00641.134,E,163416,A,A*55
$IIHDG,183,,,,*5D
$IIMTW,+13.0,C*3A
$IIMWV,040,R,00.0,N,A*17
$IIMWV,042,T,00.0,N,A*13
$IIRMB,A,0.01,R,,VIDY,,,,,003.23,281,,V,A*63
$IIRMC,163416,A,4630.053,N,00641.134,E,00.0,126,040608,,,A*43
$IIVHW,,,183,M,00.0,N,,*6E
$IIVWR,036,R,00.0,N,,,,*64
$IIDPT,004.3,-1.0,*47
$IIGLL,4630.053,N,00641.134,E,163416,A,A*55
$IIHDG,184,,,,*5A
$IIMTW,+13.0,C*3A
$IIMWV,036,R,00.0,N,A*16
$IIMWV,040,T,00.0,N,A*11
$IIRMC,163416,A,4630.053,N,00641.134,E,00.0,126,040608,,,A*43
$IIVHW,,,184,M,00.0,N,,*69
$IIVWR,036,R,00.0,N,,,,*64
$IIDPT,004.3,-1.0,*47
$IIGLL,4630.053,N,00641.135,E,163418,A,A*5A
$IIHDG,186,,,,*58
$IIMTW,+13.0,C*3A
$IIMWV,036,R,00.0,N,A*16
$IIMWV,036,T,00.0,N,A*10
$IIRMB,A,0.01,R,,VIDY,,,,,003.23,281,,V,A*63
$IIRMC,163418,A,4630.053,N,00641.135,E,00.0,126,040608,,,A*4C
$IIVHW,,,186,M,00.0,N,,*6B
$IIVWR,035,R,00.0,N,,,,*67
$IIDPT,004.3,-1.0,*47
$IIGLL,4630.053,N,00641.135,E,163418,A,A*5A
$IIHDG,186,,,,*58
$IIMTW,+13.0,C*3A
$IIMWV,035,R,00.0,N,A*15
$IIMWV,035,T,00.0,N,A*13
$IIRMC,163418,A,4630.053,N,00641.135,E,00.0,126,040608,,,A*4C
$IIVHW,,,188,M,00.0,N,,*65
$IIVWR,033,R,00.0,N,,,,*61
$IIDPT,004.3,-1.0,*47
$IIGLL,4630.053,N,00641.135,E,163418,A,A*5A
$IIHDG,188,,,,*56
$IIMTW,+13.0,C*3A
$IIMWV,033,R,00.0,N,A*13
$IIMWV,033,T,00.0,N,A*15
$IIRMC,163418,A,4630.053,N,00641.135,E,00.0,126,040608,,,A*4C
$IIVHW,,,189,M,00.0,N,,*64
$IIVWR,033,R,00.0,N,,,,*61
$IIDPT,004.3,-1.0,*47
$IIGLL,4630.053,N,00641.135,E,163418,A,A*5A
$IIHDG,189,,,,*57
$IIMTW,+13.0,C*3A
$IIMWV,033,R,00.0,N,A*13
$IIMWV,033,T,00.0,N,A*15
$IIRMB,A,0.01,R,,VIDY,,,,,003.22,281,00.0,V,A*7C
$IIRMC,163422,A,4630.051,N,00641.131,E,00.6,172,040608,,,A*44
$IIVHW,,,189,M,00.0,N,,*64
$IIVWR,033,R,00.0,N,,,,*61
$IIDPT,004.4,-1.0,*40
$IIGLL,4630.051,N,00641.131,E,163422,A,A*55
$IIHDG,191,,,,*5E
$IIMTW,+13.0,C*3A
$IIMWV,030,R,00.0,N,A*10
$IIMWV,033,T,00.0,N,A*15
$IIRMC,163422,A,4630.051,N,00641.131,E,00.6,172,040608,,,A*44
$IIVHW,,,191,M,00.0,N,,*6D
$IIVWR,030,R,00.0,N,,,,*62
$IIDPT,005.0,-1.0,*45
$IIGLL,4630.051,N,00641.131,E,163424,A,A*53
$IIHDG,192,,,,*5D
$IIMTW,+13.0,C*3A
$IIMWV,028,R,00.0,N,A*19
$IIMWV,030,T,00.0,N,A*16
$IIRMB,A,0.01,R,,VIDY,,,,,003.23,281,-00.2,V,A*52
$IIRMC,163424,A,4630.051,N,00641.131,E,00.6,172,040608,,,A*42
$IIVHW,,,193,M,00.0,N,,*6F
$IIVWR,025,R,00.0,N,,,,*66
$IIDPT,004.6,-1.0,*42
$IIGLL,4630.051,N,00641.131,E,163424,A,A*53
$IIHDG,193,,,,*5C
$IIMTW,+13.0,C*3A
$IIMWV,025,R,00.0,N,A*14
$IIMWV,028,T,00.0,N,A*1F
$IIRMC,163426,A,4630.050,N,00641.131,E,00.6,172,040608,,,A*41
$IIVHW,,,193,M,00.0,N,,*6F
$IIVWR,025,R,00.0,N,,,,*66
$IIDPT,004.6,-1.0,*42
$IIGLL,4630.050,N,00641.131,E,163426,A,A*50
$IIHDG,193,,,,*5C
$IIMTW,+13.0,C*3A
$IIMWV,025,R,00.0,N,A*14
$IIMWV,025,T,00.0,N,A*12
$IIRMB,A,0.01,R,,VIDY,,,,,003.23,281,-00.2,V,A*52
$IIRMC,163426,A,4630.050,N,00641.131,E,00.6,172,040608,,,A*41
$IIVHW,,,195,M,00.0,N,,*69
$IIVWR,023,R,00.0,N,,,,*60
$IIDPT,004.6,-1.0,*42
$IIGLL,4630.050,N,00641.131,E,163426,A,A*50
$IIHDG,196,,,,*59
$IIMTW,+13.0,C*3A
$IIMWV,024,R,00.0,N,A*15
$IIMWV,023,T,00.0,N,A*14
$IIRMB,A,0.01,R,,VIDY,,,,,003.23,281,-00.2,V,A*52
$IIRMC,163428,A,4630.050,N,00641.131,E,00.6,172,040608,,,A*4F
$IIVHW,,,196,M,00.0,N,,*6A
$IIVWR,024,R,00.0,N,,,,*67
$IIDPT,004.6,-1.0,*42
$IIGLL,4630.050,N,00641.131,E,163428,A,A*5E
$IIHDG,197,,,,*58
$IIMTW,+13.0,C*3A
$IIMWV,028,R,00.0,N,A*19
$IIMWV,024,T,00.0,N,A*13
$IIRMC,163428,A,4630.050,N,00641.131,E,00.6,172,040608,,,A*4F
$IIVHW,,,197,M,00.0,N,,*6B
$IIVWR,030,R,00.0,N,,,,*62
$IIDPT,004.6,-1.0,*42
$IIGLL,4630.050,N,00641.131,E,163430,A,A*57
$IIHDG,197,,,,*58
$IIMTW,+13.0,C*3A
$IIMWV,030,R,00.0,N,A*10
$IIMWV,028,T,00.0,N,A*1F
$IIRMB,A,0.01,R,,VIDY,,,,,003.23,281,-00.2,V,A*52
$IIRMC,163430,A,4630.050,N,00641.131,E,00.6,172,040608,,,A*46
$IIVHW,,,200,M,00.0,N,,*66
$IIVWR,027,R,00.0,N,,,,*64
$IIDPT,005.0,-1.0,*45
$IIGLL,4630.050,N,00641.131,E,163430,A,A*57
$IIHDG,200,,,,*55
$IIMTW,+13.0,C*3A
$IIMWV,027,R,00.0,N,A*16
$IIMWV,027,T,00.0,N,A*10
$IIRMB,A,0.01,R,,VIDY,,,,,003.23,281,-00.2,V,A*52
$IIRMC,163432,A,4630.049,N,00641.131,E,00.6,172,040608,,,A*4C
$IIVHW,,,200,M,00.0,N,,*66
$IIVWR,029,R,00.0,N,,,,*6A
$IIDPT,005.0,-1.0,*45
$IIGLL,4630.049,N,00641.131,E,163432,A,A*5D
$IIHDG,201,,,,*54
$IIMTW,+12.5,C*3E
$IIMWV,028,R,00.0,N,A*19
$IIMWV,029,T,00.0,N,A*1E
$IIRMC,163432,A,4630.049,N,00641.131,E,00.6,172,040608,,,A*4C
$IIVHW,,,201,M,00.0,N,,*67
$IIVWR,028,R,00.0,N,,,,*6B
$IIDPT,004.8,-1.0,*4C
$IIGLL,4630.049,N,00641.131,E,163434,A,A*5B
$IIHDG,203,,,,*56
$IIMTW,+12.5,C*3E
$IIMWV,025,R,00.0,N,A*14
$IIMWV,028,T,00.0,N,A*1F
$IIRMB,A,0.01,R,,VIDY,,,,,003.23,281,-00.2,V,A*52
$IIRMC,163434,A,4630.049,N,00641.131,E,00.6,172,040608,,,A*4A
$IIVHW,,,203,M,00.0,N,,*65
$IIVWR,025,R,00.0,N,,,,*66
$IIDPT,004.7,-1.0,*43
$IIGLL,4630.049,N,00641.131,E,163434,A,A*5B
$IIHDG,203,,,,*56
$IIMTW,+12.5,C*3E
$IIMWV,025,R,00.0,N,A*14
$IIMWV,025,T,00.0,N,A*12
$IIRMC,163434,A,4630.049,N,00641.131,E,00.6,172,040608,,,A*4A
$IIVHW,,,205,M,00.0,N,,*63
$IIVWR,028,R,00.0,N,,,,*6B
$IIDPT,004.7,-1.0,*43
$IIGLL,4630.049,N,00641.131,E,163436,A,A*59
$IIHDG,205,,,,*50
$IIMTW,+12.5,C*3E
$IIMWV,028,R,00.0,N,A*19
$IIMWV,025,T,00.0,N,A*12
$IIRMB,A,0.01,R,,VIDY,,,,,003.23,281,-00.2,V,A*52
$IIRMC,163436,A,4630.049,N,00641.131,E,00.6,172,040608,,,A*48
$IIVHW,,,205,M,00.0,N,,*63
$IIVWR,026,R,00.0,N,,,,*65
$IIDPT,004.7,-1.0,*43
$IIGLL,4630.049,N,00641.131,E,163436,A,A*59
$IIHDG,205,,,,*50
$IIMTW,+12.5,C*3E
$IIMWV,026,R,00.0,N,A*17
$IIMWV,026,T,00.0,N,A*11
$IIRMB,A,0.01,R,,VIDY,,,,,003.23,281,-00.2,V,A*52
$IIRMC,163438,A,4630.048,N,00641.131,E,00.6,172,040608,,,A*47
$IIVHW,,,206,M,00.0,N,,*60
$IIVWR,021,R,00.0,N,,,,*62
$IIDPT,004.7,-1.0,*43
$IIGLL,4630.048,N,00641.131,E,163438,A,A*56
$IIHDG,207,,,,*52
$IIMTW,+12.5,C*3E
$IIMWV,019,R,00.0,N,A*1B
$IIMWV,021,T,00.0,N,A*16
$IIRMC,163438,A,4630.048,N,00641.131,E,00.6,172,040608,,,A*47
$IIVHW,,,207,M,00.0,N,,*61
$IIVWR,019,R,00.0,N,,,,*69
$IIDPT,004.8,-1.0,*4C
$IIGLL,4630.048,N,00641.131,E,163440,A,A*59
$IIHDG,207,,,,*52
$IIMTW,+12.5,C*3E
$IIMWV,023,R,00.0,N,A*12
$IIMWV,019,T,00.0,N,A*1D
$IIRMB,A,0.01,R,,VIDY,,,,,003.23,281,-00.2,V,A*52
$IIRMC,163440,A,4630.048,N,00641.131,E,00.6,172,040608,,,A*48
$IIVHW,,,207,M,00.0,N,,*61
$IIVWR,025,R,00.0,N,,,,*66
$IIDPT,005.0,-1.0,*45
$IIGLL,4630.048,N,00641.131,E,163440,A,A*59
$IIHDG,207,,,,*52
$IIMTW,+12.5,C*3E
$IIMWV,025,R,00.0,N,A*14
$IIMWV,023,T,00.0,N,A*14
$IIRMC,163440,A,4630.048,N,00641.131,E,00.6,172,040608,,,A*48
$IIVHW,,,208,M,00.0,N,,*6E
$IIVWR,025,R,00.0,N,,,,*66
$IIDPT,013.1,-1.0,*43
$IIGLL,4630.048,N,00641.132,E,163442,A,A*58
$IIHDG,208,,,,*5D
$IIMTW,+12.5,C*3E
$IIMWV,025,R,00.0,N,A*14
$IIMWV,025,T,00.0,N,A*12
$IIRMB,A,0.01,R,,VIDY,,,,,003.23,281,-00.2,V,A*52
$IIRMC,163442,A,4630.048,N,00641.132,E,00.6,172,040608,,,A*49
$IIVHW,,,208,M,00.0,N,,*6E
$IIVWR,023,R,00.0,N,,,,*60
$IIDPT,012.3,-1.0,*40
$IIGLL,4630.048,N,00641.132,E,163442,A,A*58
$IIHDG,208,,,,*5D
$IIMTW,+12.5,C*3E
$IIMWV,023,R,00.0,N,A*12
$IIMWV,023,T,00.0,N,A*14
$IIRMB,A,0.01,R,,VIDY,,,,,003.23,281,-00.2,V,A*52
$IIRMC,163444,A,4630.047,N,00641.132,E,00.6,172,040608,,,A*40
$IIVHW,,,209,M,00.0,N,,*6F
$IIVWR,020,R,00.0,N,,,,*63
$IIDPT,012.3,-1.0,*40
$IIGLL,4630.047,N,00641.132,E,163444,A,A*51
$IIHDG,210,,,,*54
$IIMTW,+12.5,C*3E
$IIMWV,015,R,00.0,N,A*17
$IIMWV,020,T,00.0,N,A*17
$IIRMC,163444,A,4630.047,N,00641.132,E,00.6,172,040608,,,A*40
$IIVHW,,,210,M,00.0,N,,*67
$IIVWR,015,R,00.0,N,,,,*65
$IIDPT,013.3,-1.0,*41
$IIGLL,4630.047,N,00641.132,E,163446,A,A*53
$IIHDG,209,,,,*5C
$IIMTW,+12.5,C*3E
$IIMWV,018,R,00.5,N,A*1F
$IIMWV,015,T,00.0,N,A*11
$IIRMB,A,0.01,R,,VIDY,,,,,003.23,281,-00.2,V,A*52
$IIRMC,163446,A,4630.047,N,00641.132,E,00.6,172,040608,,,A*42
$IIVHW,,,209,M,00.0,N,,*6F
$IIVWR,026,R,00.5,N,,,,*60
$IIDPT,005.2,-1.0,*47
$IIGLL,4630.047,N,00641.132,E,163446,A,A*53
$IIHDG,210,,,,*54
$IIMTW,+12.5,C*3E
$IIMWV,026,R,00.5,N,A*12
$IIMWV,018,T,00.5,N,A*19
$IIRMC,163446,A,4630.047,N,00641.132,E,00.6,172,040608,,,A*42
$IIVHW,,,209,M,00.0,N,,*6F
$IIVWR,027,R,00.4,N,,,,*60
$IIDPT,005.2,-1.0,*47
$IIGLL,4630.047,N,00641.132,E,163448,A,A*5D
$IIHDG,209,,,,*5C
$IIMTW,+12.5,C*3E
$IIMWV,027,R,00.4,N,A*12
$IIMWV,026,T,00.5,N,A*14
$IIRMB,A,0.01,R,,VIDY,,,,,003.23,281,-00.2,V,A*52
$IIRMC,163448,A,4630.047,N,00641.132,E,00.6,172,040608,,,A*4C
$IIVHW,,,210,M,00.0,N,,*67
$IIVWR,021,R,00.3,N,,,,*61
$IIDPT,005.2,-1.0,*47
$IIGLL,4630.047,N,00641.132,E,163448,A,A*5D
$IIHDG,210,,,,*54
$IIMTW,+12.5,C*3E
$IIMWV,021,R,00.3,N,A*13
$IIMWV,021,T,00.3,N,A*15
$IIRMB,A,0.01,R,,VIDY,,,,,003.22,281,-01.0,V,A*50
$IIRMC,163450,A,4630.047,N,00641.126,E,01.0,172,040608,,,A*47
$IIVHW,,,210,M,00.0,N,,*67
$IIVWR,017,R,00.2,N,,,,*65
$IIDPT,005.2,-1.0,*47
$IIGLL,4630.047,N,00641.126,E,163450,A,A*51
$IIHDG,210,,,,*54
$IIMTW,+12.5,C*3E
$IIMWV,017,R,00.2,N,A*17
$IIMWV,017,T,00.2,N,A*11
$IIRMC,163450,A,4630.047,N,00641.126,E,01.0,172,040608,,,A*47
$IIVHW,,,210,M,00.0,N,,*67
$IIVWR,017,R,00.2,N,,,,*65
$IIDPT,005.3,-1.0,*46
$IIGLL,4630.046,N,00641.133,E,163452,A,A*56
$IIHDG,211,,,,*55
$IIMTW,+12.5,C*3E
$IIMWV,014,R,00.1,N,A*17
$IIMWV,017,T,00.2,N,A*11
$IIRMB,A,0.01,R,,VIDY,,,,,003.23,281,-01.0,V,A*51
$IIRMC,163452,A,4630.046,N,00641.133,E,00.0,172,040608,,,A*41
$IIVHW,,,211,M,00.0,N,,*66
$IIVWR,011,R,00.1,N,,,,*60
$IIDPT,005.3,-1.0,*46
$IIGLL,4630.046,N,00641.133,E,163452,A,A*56
$IIHDG,211,,,,*55
$IIMTW,+12.5,C*3E
$IIMWV,011,R,00.1,N,A*12
$IIMWV,014,T,00.1,N,A*11
$IIRMC,163452,A,4630.046,N,00641.133,E,00.0,172,040608,,,A*41
$IIVHW,,,211,M,00.0,N,,*66
$IIVWR,008,R,00.1,N,,,,*68
$IIDPT,005.3,-1.0,*46
$IIGLL,4630.045,N,00641.133,E,163454,A,A*53
$IIHDG,211,,,,*55
$IIMTW,+12.5,C*3E
$IIMWV,008,R,00.1,N,A*1A
$IIMWV,011,T,00.1,N,A*14
$IIRMB,A,0.02,R,,VIDY,,,,,003.23,281,-01.0,V,A*52
$IIRMC,163454,A,4630.045,N,00641.133,E,00.0,172,040608,,,A*44
$IIVHW,,,212,M,00.0,N,,*65
$IIVWR,012,R,00.1,N,,,,*63
$IIDPT,005.3,-1.0,*46
$IIGLL,4630.045,N,00641.133,E,163454,A,A*53
$IIHDG,212,,,,*56
$IIMTW,+12.5,C*3E
$IIMWV,012,R,00.1,N,A*11
$IIMWV,012,T,00.1,N,A*17
$IIRMB,A,0.02,R,,VIDY,,,,,003.23,281,,V,A*60
$IIRMC,163456,A,4630.045,N,00641.133,E,00.0,172,040608,,,A*46
$IIVHW,,,212,M,00.0,N,,*65
$IIVWR,013,R,00.0,N,,,,*63
$IIDPT,005.5,-1.0,*40
$IIGLL,4630.045,N,00641.133,E,163456,A,A*51
$IIHDG,213,,,,*57
$IIMTW,+12.5,C*3E
$IIMWV,011,R,00.0,N,A*13
$IIMWV,013,T,00.0,N,A*17
$IIRMC,163456,A,4630.045,N,00641.133,E,00.0,172,040608,,,A*46
$IIVHW,,,213,M,00.0,N,,*64
$IIVWR,011,R,00.0,N,,,,*61
$IIDPT,005.5,-1.0,*40
$IIGLL,4630.045,N,00641.134,E,163458,A,A*58
$IIHDG,214,,,,*50
$IIMTW,+12.5,C*3E
$IIMWV,013,R,00.0,N,A*11
$IIMWV,011,T,00.0,N,A*15
$IIRMB,A,0.02,R,,VIDY,,,,,003.23,281,,V,A*60
$IIRMC,163458,A,4630.045,N,00641.134,E,00.0,172,040608,,,A*4F
$IIVHW,,,214,M,00.0,N,,*63
$IIVWR,016,R,00.0,N,,,,*66
$IIDPT,005.6,-1.0,*43
$IIGLL,4630.045,N,00641.134,E,163458,A,A*58
$IIHDG,214,,,,*50
$IIMTW,+12.5,C*3E
$IIMWV,016,R,00.0,N,A*14
$IIMWV,013,T,00.0,N,A*17
$IIRMC,163458,A,4630.045,N,00641.134,E,00.0,172,040608,,,A*4F
$IIVHW,,,214,M,00.0,N,,*63
$IIVWR,017,R,00.0,N,,,,*67
$IIDPT,011.7,-1.0,*47
$IIGLL,4630.044,N,00641.134,E,163500,A,A*55
$IIHDG,215,,,,*51
$IIMTW,+12.5,C*3E
$IIMWV,017,R,00.0,N,A*15
$IIMWV,016,T,00.0,N,A*12
$IIRMB,A,0.02,R,,VIDY,,,,,003.23,281,,V,A*60
$IIRMC,163500,A,4630.044,N,00641.134,E,00.0,172,040608,,,A*42
$IIVHW,,,215,M,00.0,N,,*62
$IIVWR,017,R,00.0,N,,,,*67
$IIDPT,005.9,-1.0,*4C
$IIGLL,4630.044,N,00641.134,E,163500,A,A*55
$IIHDG,215,,,,*51
$IIMTW,+12.5,C*3E
$IIMWV,017,R,00.0,N,A*15
$IIMWV,017,T,00.0,N,A*13
$IIRMB,A,0.01,R,,VIDY,,,,,003.23,281,,V,A*63
$IIRMC,163502,A,4630.047,N,00641.131,E,00.0,172,040608,,,A*46
$IIVHW,,,217,M,00.0,N,,*60
$IIVWR,017,R,00.0,N,,,,*67
$IIDPT,005.9,-1.0,*4C
$IIGLL,4630.047,N,00641.131,E,163502,A,A*51
$IIHDG,217,,,,*53
$IIMTW,+12.5,C*3E
$IIMWV,018,R,00.0,N,A*1A
$IIMWV,017,T,00.0,N,A*13
$IIRMC,163502,A,4630.047,N,00641.131,E,00.0,172,040608,,,A*46
$IIVHW,,,217,M,00.0,N,,*60
$IIVWR,018,R,00.0,N,,,,*68
$IIDPT,005.9,-1.0,*4C
$IIGLL,4630.046,N,00641.131,E,163504,A,A*56
$IIHDG,218,,,,*5C
$IIMTW,+12.5,C*3E
$IIMWV,018,R,00.0,N,A*1A
$IIMWV,018,T,00.0,N,A*1C
$IIRMB,A,0.01,R,,VIDY,,,,,003.23,281,,V,A*63
$IIRMC,163504,A,4630.046,N,00641.131,E,00.0,172,040608,,,A*41
$IIVHW,,,218,M,00.0,N,,*6F
$IIVWR,018,R,00.0,N,,,,*68
$IIDPT,005.9,-1.0,*4C
$IIGLL,4630.046,N,00641.131,E,163504,A,A*56
$IIHDG,218,,,,*5C
$IIMTW,+12.5,C*3E
$IIMWV,018,R,00.0,N,A*1A
$IIMWV,018,T,00.0,N,A*1C
$IIRMC,163504,A,4630.046,N,00641.131,E,00.0,172,040608,,,A*41
$IIVHW,,,218,M,00.0,N,,*6F
$IIVWR,020,R,00.0,N,,,,*63
$IIDPT,006.1,-1.0,*47
$IIGLL,4630.046,N,00641.127,E,163506,A,A*53
$IIHDG,218,,,,*5C
$IIMTW,+12.5,C*3E
$IIMWV,020,R,00.0,N,A*11
$IIMWV,018,T,00.0,N,A*1C
$IIRMB,A,0.02,R,,VIDY,,,,,003.22,281,00.0,V,A*7F
$IIRMC,163506,A,4630.046,N,00641.127,E,00.6,209,040608,,,A*4D
$IIVHW,,,218,M,00.0,N,,*6F
$IIVWR,017,R,00.0,N,,,,*67
$IIDPT,006.1,-1.0,*47
$IIGLL,4630.046,N,00641.127,E,163506,A,A*53
$IIHDG,218,,,,*5C
$IIMTW,+12.5,C*3E
$IIMWV,017,R,00.0,N,A*15
$IIMWV,017,T,00.0,N,A*13
$IIRMB,A,0.02,R,,VIDY,,,,,003.22,281,00.1,V,A*7E
$IIRMC,163508,A,4630.046,N,00641.126,E,00.8,205,040608,,,A*40
$IIVHW,,,218,M,00.0,N,,*6F
$IIVWR,014,R,00.0,N,,,,*64
$IIDPT,006.3,-1.0,*45
$IIGLL,4630.046,N,00641.126,E,163508,A,A*5C
$IIHDG,218,,,,*5C
$IIMTW,+12.5,C*3E
$IIMWV,010,R,00.0,N,A*12
$IIMWV,014,T,00.0,N,A*10
$IIRMC,163508,A,4630.046,N,00641.126,E,00.8,205,040608,,,A*40
$IIVHW,,,218,M,00.0,N,,*6F
$IIVWR,010,R,00.0,N,,,,*60
$IIDPT,006.3,-1.0,*45
$IIGLL,4630.047,N,00641.125,E,163510,A,A*57
$IIHDG,217,,,,*53
$IIMTW,+12.5,C*3E
$IIMWV,005,R,00.0,N,A*16
$IIMWV,010,T,00.0,N,A*14
$IIRMB,A,0.02,R,,VIDY,,,,,003.22,281,00.2,V,A*7D
$IIRMC,163510,A,4630.047,N,00641.125,E,01.0,208,040608,,,A*4F
$IIVHW,,,217,M,00.0,N,,*60
$IIVWR,004,R,00.0,N,,,,*65
$IIDPT,006.3,-1.0,*45
$IIGLL,4630.047,N,00641.125,E,163510,A,A*57
$IIHDG,217,,,,*53
$IIMTW,+12.5,C*3E
$IIMWV,004,R,00.0,N,A*17
$IIMWV,005,T,00.0,N,A*10
$IIRMC,163510,A,4630.047,N,00641.125,E,01.0,208,040608,,,A*4F
$IIVHW,,,218,M,00.0,N,,*6F
$IIVWR,005,R,00.0,N,,,,*64
$IIDPT,006.3,-1.0,*45
$IIGLL,4630.046,N,00641.124,E,163512,A,A*55
$IIHDG,218,,,,*5C
$IIMTW,+12.5,C*3E
$IIMWV,005,R,00.0,N,A*16
$IIMWV,004,T,00.0,N,A*11
$IIRMB,A,0.02,R,,VIDY,,,,,003.22,281,00.3,V,A*7C
$IIRMC,163512,A,4630.046,N,00641.124,E,00.9,218,040608,,,A*44
$IIVHW,,,220,M,00.0,N,,*64
$IIVWR,005,R,00.0,N,,,,*64
$IIDPT,006.3,-1.0,*45
$IIGLL,4630.046,N,00641.124,E,163512,A,A*55
$IIHDG,220,,,,*57
$IIMTW,+12.5,C*3E
$IIMWV,005,R,00.0,N,A*16
$IIMWV,005,T,00.0,N,A*10
$IIRMB,A,0.02,R,,VIDY,,,,,003.22,281,00.4,V,A*7B
$IIRMC,163514,A,4630.046,N,00641.124,E,01.1,213,040608,,,A*40
$IIVHW,,,221,M,00.0,N,,*65
$IIVWR,005,R,00.0,N,,,,*64
$IIDPT,012.0,-1.0,*43
$IIGLL,4630.046,N,00641.124,E,163514,A,A*53
$IIHDG,223,,,,*54
$IIMTW,+13.0,C*3A
$IIMWV,006,R,00.0,N,A*15
$IIMWV,005,T,00.0,N,A*10
$IIRMC,163514,A,4630.046,N,00641.124,E,01.1,213,040608,,,A*40
$IIVHW,,,223,M,00.0,N,,*67
$IIVWR,006,R,00.0,N,,,,*67
$IIDPT,015.0,-1.0,*44
$IIGLL,4630.045,N,00641.123,E,163516,A,A*55
$IIHDG,223,,,,*54
$IIMTW,+13.0,C*3A
$IIMWV,005,R,00.0,N,A*16
$IIMWV,006,T,00.0,N,A*13
$IIRMB,A,0.02,R,,VIDY,,,,,003.22,281,00.4,V,A*7B
$IIRMC,163516,A,4630.045,N,00641.123,E,00.9,213,040608,,,A*4F
$IIVHW,,,223,M,00.0,N,,*67
$IIVWR,002,R,00.0,N,,,,*63
$IIDPT,020.2,-1.0,*40
$IIGLL,4630.045,N,00641.123,E,163516,A,A*55
$IIHDG,225,,,,*52
$IIMTW,+13.0,C*3A
$IIMWV,002,R,00.0,N,A*11
$IIMWV,005,T,00.0,N,A*10
$IIRMC,163516,A,4630.045,N,00641.123,E,00.9,213,040608,,,A*4F
$IIVHW,,,225,M,00.0,N,,*61
$IIVWR,002,R,00.0,N,,,,*63
$IIDPT,020.2,-1.0,*40
$IIGLL,4630.044,N,00641.121,E,163518,A,A*58
$IIHDG,225,,,,*52
$IIMTW,+13.0,C*3A
$IIMWV,002,R,00.0,N,A*11
$IIMWV,002,T,00.0,N,A*17
$IIRMB,A,0.02,R,,VIDY,,,,,003.22,281,00.0,V,A*7F
$IIRMC,163518,A,4630.044,N,00641.121,E,00.9,213,040608,,,A*42
$IIVHW,,,226,M,00.0,N,,*62
$IIVWR,001,R,00.0,N,,,,*60
$IIDPT,020.2,-1.0,*40
$IIGLL,4630.044,N,00641.121,E,163518,A,A*58
$IIHDG,226,,,,*51
$IIMTW,+13.0,C*3A
$IIMWV,001,R,00.0,N,A*12
$IIMWV,001,T,00.0,N,A*14
$IIRMB,A,0.02,R,,VIDY,,,,,003.22,281,00.5,V,A*7A
$IIRMC,163520,A,4630.043,N,00641.120,E,01.0,231,040608,,,A*47
$IIVHW,,,226,M,00.0,N,,*62
$IIVWR,001,R,00.0,N,,,,*60
$IIDPT,018.2,-1.0,*4B
$IIGLL,4630.043,N,00641.120,E,163520,A,A*55
$IIHDG,227,,,,*50
$IIMTW,+13.0,C*3A
$IIMWV,001,R,00.0,N,A*12
$IIMWV,001,T,00.0,N,A*14
$IIRMC,163520,A,4630.043,N,00641.120,E,01.0,231,040608,,,A*47
$IIVHW,,,227,M,00.0,N,,*63
$IIVWR,001,R,00.0,N,,,,*60
$IIDPT,017.7,-1.0,*41
$IIGLL,4630.042,N,00641.120,E,163522,A,A*56
$IIHDG,227,,,,*50
$IIMTW,+12.5,C*3E
$IIMWV,001,R,00.0,N,A*12
$IIMWV,001,T,00.0,N,A*14
$IIRMB,A,0.02,R,,VIDY,,,,,003.22,281,00.5,V,A*7A
$IIRMC,163522,A,4630.042,N,00641.120,E,01.0,223,040608,,,A*47
$IIVHW,,,227,M,00.0,N,,*63
$IIVWR,003,R,00.0,N,,,,*62
$IIDPT,017.7,-1.0,*41
$IIGLL,4630.042,N,00641.120,E,163522,A,A*56
$IIHDG,227,,,,*50
$IIMTW,+12.5,C*3E
$IIMWV,003,R,00.0,N,A*10
$IIMWV,001,T,00.0,N,A*14
$IIRMC,163522,A,4630.042,N,00641.120,E,01.0,223,040608,,,A*47
$IIVHW,,,227,M,00.0,N,,*63
$IIVWR,004,R,00.5,N,,,,*60
$IIDPT,018.5,-1.0,*4C
$IIGLL,4630.042,N,00641.119,E,163524,A,A*5A
$IIHDG,227,,,,*50
$IIMTW,+12.5,C*3E
$IIMWV,004,R,00.5,N,A*12
$IIMWV,003,T,00.0,N,A*16
$IIRMB,A,0.02,R,,VIDY,,,,,003.22,281,00.5,V,A*7A
$IIRMC,163524,A,4630.042,N,00641.119,E,00.9,225,040608,,,A*45
$IIVHW,,,226,M,00.0,N,,*62
$IIVWR,005,R,00.5,N,,,,*61
$IIDPT,018.5,-1.0,*4C
$IIGLL,4630.042,N,00641.119,E,163524,A,A*5A
$IIHDG,226,,,,*51
$IIMTW,+12.5,C*3E
$IIMWV,005,R,00.5,N,A*13
$IIMWV,005,T,00.5,N,A*15
$IIRMB,A,0.02,R,,VIDY,,,,,003.22,281,00.5,V,A*7A
$IIRMC,163526,A,4630.042,N,00641.119,E,00.9,224,040608,,,A*46
$IIVHW,,,227,M,00.0,N,,*63
$IIVWR,005,R,00.9,N,,,,*6D
$IIDPT,018.5,-1.0,*4C
$IIGLL,4630.042,N,00641.119,E,163526,A,A*58
$IIHDG,227,,,,*50
$IIMTW,+12.5,C*3E
$IIMWV,004,R,00.7,N,A*10
$IIMWV,005,T,00.9,N,A*19
$IIRMC,163526,A,4630.042,N,00641.119,E,00.9,224,040608,,,A*46
$IIVHW,,,227,M,00.0,N,,*63
$IIVWR,004,R,00.7,N,,,,*62
$IIDPT,018.5,-1.0,*4C
$IIGLL,4630.041,N,00641.118,E,163528,A,A*54
$IIHDG,226,,,,*51
$IIMTW,+12.5,C*3E
$IIMWV,001,R,01.1,N,A*12
$IIMWV,004,T,00.7,N,A*16
$IIRMB,A,0.02,R,,VIDY,,,,,003.22,281,00.5,V,A*7A
$IIRMC,163528,A,4630.041,N,00641.118,E,00.9,223,040608,,,A*4D
$IIVHW,,,226,M,00.0,N,,*62
$IIVWR,002,R,01.3,N,,,,*61
$IIDPT,014.5,-1.0,*40
$IIGLL,4630.041,N,00641.118,E,163528,A,A*54
$IIHDG,226,,,,*51
$IIMTW,+12.5,C*3E
$IIMWV,002,R,01.3,N,A*13
$IIMWV,001,T,01.1,N,A*14
$IIRMC,163528,A,4630.041,N,00641.118,E,00.9,223,040608,,,A*4D
$IIVHW,,,224,M,00.0,N,,*60
$IIVWR,002,R,01.6,N,,,,*64
$IIDPT,014.5,-1.0,*40
$IIGLL,4630.041,N,00641.118,E,163530,A,A*5D
$IIHDG,224,,,,*53
$IIMTW,+13.0,C*3A
$IIMWV,002,R,01.6,N,A*16
$IIMWV,000,T,01.2,N,A*16
$IIRMB,A,0.02,R,,VIDY,,,,,003.22,281,00.6,V,A*79
$IIRMC,163530,A,4630.041,N,00641.118,E,01.3,219,040608,,,A*46
$IIVHW,,,224,M,00.2,N,,*62
$IIVWR,001,R,01.8,N,,,,*69
$IIDPT,014.5,-1.0,*40
$IIGLL,4630.041,N,00641.118,E,163530,A,A*5D
$IIHDG,224,,,,*53
$IIMTW,+13.0,C*3A
$IIMWV,001,R,01.8,N,A*1B
$IIMWV,000,T,01.5,N,A*11
$IIRMB,A,0.02,R,,VIDY,,,,,003.22,281,00.6,V,A*79
$IIRMC,163532,A,4630.040,N,00641.117,E,01.4,218,040608,,,A*4C
$IIVHW,,,224,M,00.4,N,,*64
$IIVWR,001,R,01.9,N,,,,*68
$IIDPT,018.0,-1.0,*49
$IIGLL,4630.040,N,00641.117,E,163532,A,A*51
$IIHDG,224,,,,*53
$IIMTW,+12.5,C*3E
$IIMWV,000,R,02.0,N,A*11
$IIMWV,000,T,01.5,N,A*11
$IIRMC,163532,A,4630.040,N,00641.117,E,01.4,218,040608,,,A*4C
$IIVHW,,,224,M,00.4,N,,*64
$IIVWR,000,R,02.0,N,,,,*63
$IIDPT,020.9,-1.0,*4B
$IIGLL,4630.040,N,00641.116,E,163534,A,A*56
$IIHDG,225,,,,*52
$IIMTW,+12.5,C*3E
$IIMWV,359,R,02.1,N,A*1F
$IIMWV,000,T,01.6,N,A*12
$IIRMB,A,0.02,R,,VIDY,,,,,003.22,281,00.9,V,A*76
$IIRMC,163534,A,4630.040,N,00641.116,E,01.5,222,040608,,,A*43
$IIVHW,,,225,M,00.6,N,,*67
$IIVWR,000,R,02.2,N,,,,*61
$IIDPT,020.9,-1.0,*4B
$IIGLL,4630.040,N,00641.116,E,163534,A,A*56
$IIHDG,227,,,,*50
$IIMTW,+12.5,C*3E
$IIMWV,000,R,02.2,N,A*13
$IIMWV,000,T,01.5,N,A*11
$IIRMC,163534,A,4630.040,N,00641.116,E,01.5,222,040608,,,A*43
$IIVHW,,,228,M,00.6,N,,*6A
$IIVWR,002,L,02.2,N,,,,*7D
$IIDPT,021.4,-1.0,*47
$IIGLL,4630.039,N,00641.115,E,163536,A,A*59
$IIHDG,228,,,,*5F
$IIMTW,+12.5,C*3E
$IIMWV,358,R,02.2,N,A*1D
$IIMWV,000,T,01.5,N,A*11
$IIRMB,A,0.02,R,,VIDY,,,,,003.22,281,01.0,V,A*7E
$IIRMC,163536,A,4630.039,N,00641.115,E,01.8,228,040608,,,A*4B
$IIVHW,,,229,M,00.8,N,,*65
$IIVWR,002,L,02.4,N,,,,*7B
$IIDPT,018.1,-1.0,*48
$IIGLL,4630.039,N,00641.115,E,163536,A,A*59
$IIHDG,229,,,,*5E
$IIMTW,+13.0,C*3A
$IIMWV,358,R,02.4,N,A*1B
$IIMWV,000,T,01.5,N,A*11
$IIRMB,A,0.02,R,,VIDY,,,,,003.22,281,01.1,V,A*7F
$IIRMC,163538,A,4630.038,N,00641.114,E,01.7,232,040608,,,A*41
$IIVHW,,,230,M,01.0,N,,*64
$IIVWR,000,R,02.4,N,,,,*67
$IIDPT,018.1,-1.0,*48
$IIGLL,4630.038,N,00641.114,E,163538,A,A*57
$IIHDG,232,,,,*54
$IIMTW,+13.0,C*3A
$IIMWV,002,R,02.3,N,A*10
$IIMWV,000,T,01.4,N,A*10
$IIRMC,163538,A,4630.038,N,00641.114,E,01.7,232,040608,,,A*41
$IIVHW,,,232,M,01.1,N,,*67
$IIVWR,002,R,02.3,N,,,,*62
$IIDPT,018.1,-1.0,*48
$IIGLL,4630.038,N,00641.113,E,163540,A,A*5F
$IIHDG,232,,,,*54
$IIMTW,+13.0,C*3A
$IIMWV,001,R,02.5,N,A*15
$IIMWV,000,T,01.1,N,A*15
$IIRMB,A,0.03,R,,VIDY,,,,,003.22,281,01.2,V,A*7D
$IIRMC,163540,A,4630.038,N,00641.113,E,01.9,233,040608,,,A*46
$IIVHW,,,232,M,01.3,N,,*65
$IIVWR,003,L,02.5,N,,,,*7B
$IIDPT,022.0,-1.0,*40
$IIGLL,4630.038,N,00641.113,E,163540,A,A*5F
$IIHDG,232,,,,*54
$IIMTW,+13.0,C*3A
$IIMWV,357,R,02.5,N,A*15
$IIMWV,000,T,01.2,N,A*16
$IIRMC,163540,A,4630.038,N,00641.113,E,01.9,233,040608,,,A*46
$IIVHW,,,232,M,01.5,N,,*63
$IIVWR,003,L,02.5,N,,,,*7B
$IIDPT,022.1,-1.0,*41
$IIGLL,4630.037,N,00641.112,E,163542,A,A*53
$IIHDG,232,,,,*54
$IIMTW,+13.0,C*3A
$IIMWV,357,R,02.5,N,A*15
$IIMWV,355,T,01.1,N,A*16
$IIRMB,A,0.03,R,,VIDY,,,,,003.22,281,01.3,V,A*7C
$IIRMC,163542,A,4630.037,N,00641.112,E,02.0,231,040608,,,A*42
$IIVHW,,,232,M,01.6,N,,*60
$IIVWR,005,L,02.5,N,,,,*7D
$IIDPT,022.1,-1.0,*41
$IIGLL,4630.037,N,00641.112,E,163542,A,A*53
$IIHDG,232,,,,*54
$IIMTW,+13.0,C*3A
$IIMWV,355,R,02.5,N,A*17
$IIMWV,348,T,00.9,N,A*13
$IIRMB,A,0.03,R,,VIDY,,,,,003.21,281,01.3,V,A*7F
$IIRMC,163544,A,4630.037,N,00641.110,E,02.1,232,040608,,,A*44
$IIVHW,,,232,M,01.7,N,,*61
$IIVWR,006,L,02.6,N,,,,*7D
$IIDPT,021.5,-1.0,*46
$IIGLL,4630.037,N,00641.110,E,163544,A,A*57
$IIHDG,233,,,,*55
$IIMTW,+13.0,C*3A
$IIMWV,354,R,03.0,N,A*12
$IIMWV,346,T,00.8,N,A*1C
$IIRMC,163544,A,4630.037,N,00641.110,E,02.1,232,040608,,,A*44
$IIVHW,,,233,M,01.7,N,,*60
$IIVWR,006,L,03.0,N,,,,*7A
$IIDPT,018.5,-1.0,*4C
$IIGLL,4630.036,N,00641.109,E,163546,A,A*5C
$IIHDG,234,,,,*52
$IIMTW,+13.0,C*3A
$IIMWV,356,R,03.0,N,A*10
$IIMWV,345,T,01.1,N,A*17
$IIRMB,A,0.03,R,,VIDY,,,,,003.21,281,01.5,V,A*79
$IIRMC,163546,A,4630.036,N,00641.109,E,02.3,239,040608,,,A*46
$IIVHW,,,234,M,01.8,N,,*68
$IIVWR,000,R,02.9,N,,,,*6A
$IIDPT,015.8,-1.0,*4C
$IIGLL,4630.036,N,00641.109,E,163546,A,A*5C
$IIHDG,236,,,,*50
$IIMTW,+13.0,C*3A
$IIMWV,000,R,02.9,N,A*18
$IIMWV,350,T,01.1,N,A*13
$IIRMC,163546,A,4630.036,N,00641.109,E,02.3,239,040608,,,A*46
$IIVHW,,,236,M,01.9,N,,*6B
$IIVWR,002,L,02.8,N,,,,*77
$IIDPT,015.8,-1.0,*4C
$IIGLL,4630.035,N,00641.108,E,163548,A,A*50
$IIHDG,236,,,,*50
$IIMTW,+13.0,C*3A
$IIMWV,358,R,02.8,N,A*17
$IIMWV,000,T,01.0,N,A*14
$IIRMB,A,0.03,R,,VIDY,,,,,003.21,281,01.7,V,A*7B
$IIRMC,163548,A,4630.035,N,00641.108,E,02.3,238,040608,,,A*4B
$IIVHW,,,237,M,02.0,N,,*60
$IIVWR,001,R,02.8,N,,,,*6A
$IIDPT,015.8,-1.0,*4C
$IIGLL,4630.035,N,00641.108,E,163548,A,A*50
$IIHDG,237,,,,*51
$IIMTW,+13.0,C*3A
$IIMWV,001,R,02.8,N,A*18
$IIMWV,000,T,00.8,N,A*1D
$IIRMB,A,0.03,R,,VIDY,,,,,003.21,281,01.4,V,A*78
$IIRMC,163550,A,4630.034,N,00641.106,E,02.4,238,040608,,,A*4A
$IIVHW,,,237,M,02.0,N,,*60
$IIVWR,001,L,02.8,N,,,,*74
$IIDPT,017.1,-1.0,*47
$IIGLL,4630.034,N,00641.106,E,163550,A,A*56
$IIHDG,239,,,,*5F
$IIMTW,+13.0,C*3A
$IIMWV,002,R,02.9,N,A*1A
$IIMWV,000,T,00.7,N,A*12
$IIRMC,163550,A,4630.034,N,00641.106,E,02.4,238,040608,,,A*4A
$IIVHW,,,239,M,02.1,N,,*6F
$IIVWR,002,R,02.9,N,,,,*68
$IIDPT,019.2,-1.0,*4A
$IIGLL,4630.034,N,00641.104,E,163552,A,A*56
$IIHDG,240,,,,*51
$IIMTW,+13.0,C*3A
$IIMWV,359,R,03.0,N,A*1F
$IIMWV,000,T,00.8,N,A*1D
$IIRMB,A,0.03,R,,VIDY,,,,,003.21,281,01.8,V,A*74
$IIRMC,163552,A,4630.034,N,00641.104,E,02.4,242,040608,,,A*47
$IIVHW,,,240,M,02.1,N,,*61
$IIVWR,002,R,03.5,N,,,,*65
$IIDPT,019.6,-1.0,*4E
$IIGLL,4630.034,N,00641.104,E,163552,A,A*56
$IIHDG,240,,,,*51
$IIMTW,+13.0,C*3A
$IIMWV,002,R,03.5,N,A*17
$IIMWV,000,T,00.8,N,A*1D
$IIRMC,163552,A,4630.034,N,00641.104,E,02.4,242,040608,,,A*47
$IIVHW,,,243,M,02.2,N,,*61
$IIVWR,003,R,03.5,N,,,,*64
$IIDPT,019.4,-1.0,*4C
$IIGLL,4630.033,N,00641.103,E,163554,A,A*50
$IIHDG,243,,,,*52
$IIMTW,+12.5,C*3E
$IIMWV,003,R,03.5,N,A*16
$IIMWV,005,T,01.3,N,A*12
$IIRMB,A,0.03,R,,VIDY,,,,,003.21,281,02.0,V,A*7F
$IIRMC,163554,A,4630.033,N,00641.103,E,02.5,243,040608,,,A*41
$IIVHW,,,244,M,02.2,N,,*66
$IIVWR,000,R,03.5,N,,,,*67
$IIDPT,019.1,-1.0,*49
$IIGLL,4630.033,N,00641.103,E,163554,A,A*50
$IIHDG,244,,,,*55
$IIMTW,+12.5,C*3E
$IIMWV,000,R,03.5,N,A*15
$IIMWV,000,T,01.2,N,A*16
$IIRMB,A,0.03,R,,VIDY,,,,,003.21,281,02.1,V,A*7E
$IIRMC,163556,A,4630.033,N,00641.101,E,02.6,247,040608,,,A*46
$IIVHW,,,246,M,02.3,N,,*65
$IIVWR,004,R,03.5,N,,,,*63
$IIDPT,019.1,-1.0,*49
$IIGLL,4630.033,N,00641.101,E,163556,A,A*50
$IIHDG,248,,,,*59
$IIMTW,+12.5,C*3E
$IIMWV,003,R,03.5,N,A*16
$IIMWV,009,T,01.2,N,A*1F
$IIRMC,163556,A,4630.033,N,00641.101,E,02.6,247,040608,,,A*46
$IIVHW,,,248,M,02.3,N,,*6B
$IIVWR,003,R,03.5,N,,,,*64
$IIDPT,019.1,-1.0,*49
$IIGLL,4630.032,N,00641.099,E,163558,A,A*5F
$IIHDG,250,,,,*50
$IIMTW,+12.5,C*3E
$IIMWV,003,R,03.8,N,A*1B
$IIMWV,004,T,01.5,N,A*15
$IIRMB,A,0.03,R,,VIDY,,,,,003.21,281,02.1,V,A*7E
$IIRMC,163558,A,4630.032,N,00641.099,E,02.6,247,040608,,,A*49
$IIVHW,,,250,M,02.4,N,,*65
$IIVWR,002,L,03.7,N,,,,*79
$IIDPT,020.3,-1.0,*41
$IIGLL,4630.032,N,00641.097,E,163600,A,A*5F
$IIHDG,250,,,,*50
$IIMTW,+12.5,C*3E
$IIMWV,358,R,03.7,N,A*19
$IIMWV,004,T,01.4,N,A*14
$IIRMB,A,0.03,R,,VIDY,,,,,003.21,281,02.1,V,A*7E
$IIRMC,163600,A,4630.032,N,00641.097,E,02.5,248,040608,,,A*45
$IIVHW,,,250,M,02.4,N,,*65
$IIVWR,003,L,04.1,N,,,,*79
$IIDPT,020.7,-1.0,*45
$IIGLL,4630.032,N,00641.097,E,163600,A,A*5F
$IIHDG,250,,,,*50
$IIMTW,+13.0,C*3A
$IIMWV,357,R,04.1,N,A*17
$IIMWV,353,T,01.6,N,A*17
$IIRMB,A,0.03,R,,VIDY,,,,,003.21,281,02.1,V,A*7E
$IIRMC,163602,A,4630.031,N,00641.095,E,02.5,248,040608,,,A*46
$IIVHW,,,251,M,02.5,N,,*65
$IIVWR,002,L,04.1,N,,,,*78
$IIDPT,020.7,-1.0,*45
$IIGLL,4630.031,N,00641.095,E,163602,A,A*5C
$IIHDG,251,,,,*51
$IIMTW,+13.0,C*3A
$IIMWV,356,R,04.2,N,A*15
$IIMWV,356,T,01.6,N,A*12
$IIRMC,163602,A,4630.031,N,00641.095,E,02.5,248,040608,,,A*46
$IIVHW,,,251,M,02.5,N,,*65
$IIVWR,004,L,04.2,N,,,,*7D
$IIDPT,019.5,-1.0,*4D
$IIGLL,4630.031,N,00641.093,E,163604,A,A*5C
$IIHDG,252,,,,*52
$IIMTW,+13.0,C*3A
$IIMWV,358,R,04.1,N,A*18
$IIMWV,353,T,01.7,N,A*16
$IIRMB,A,0.04,R,,VIDY,,,,,003.20,281,02.1,V,A*78
$IIRMC,163604,A,4630.031,N,00641.093,E,02.5,248,040608,,,A*46
$IIVHW,,,252,M,02.5,N,,*66
$IIVWR,002,L,04.2,N,,,,*7B
$IIDPT,021.2,-1.0,*41
$IIGLL,4630.031,N,00641.093,E,163604,A,A*5C
$IIHDG,253,,,,*53
$IIMTW,+13.0,C*3A
$IIMWV,358,R,04.2,N,A*1B
$IIMWV,356,T,01.6,N,A*12
$IIRMC,163604,A,4630.031,N,00641.093,E,02.5,248,040608,,,A*46
$IIVHW,,,254,M,02.6,N,,*63
$IIVWR,002,L,04.5,N,,,,*7C
$IIDPT,021.2,-1.0,*41
$IIGLL,4630.030,N,00641.091,E,163606,A,A*5D
$IIHDG,254,,,,*54
$IIMTW,+13.0,C*3A
$IIMWV,358,R,04.5,N,A*1C
$IIMWV,356,T,01.6,N,A*12
$IIRMB,A,0.04,R,,VIDY,,,,,003.20,281,02.1,V,A*78
$IIRMC,163606,A,4630.030,N,00641.091,E,02.8,256,040608,,,A*45
$IIVHW,,,255,M,02.6,N,,*62
$IIVWR,002,L,04.5,N,,,,*7C
$IIDPT,022.0,-1.0,*40
$IIGLL,4630.030,N,00641.091,E,163606,A,A*5D
$IIHDG,255,,,,*55
$IIMTW,+13.0,C*3A
$IIMWV,358,R,04.5,N,A*1C
$IIMWV,357,T,01.8,N,A*1D
$IIRMB,A,0.04,R,,VIDY,,,,,003.20,282,02.6,V,A*7C
$IIRMC,163608,A,4630.030,N,00641.089,E,02.9,257,040608,,,A*42
$IIVHW,,,256,M,02.7,N,,*60
$IIVWR,001,L,04.5,N,,,,*7F
$IIDPT,022.0,-1.0,*40
$IIGLL,4630.030,N,00641.089,E,163608,A,A*5A
$IIHDG,257,,,,*57
$IIMTW,+13.0,C*3A
$IIMWV,358,R,04.6,N,A*1F
$IIMWV,000,T,01.8,N,A*1C
$IIRMB,A,0.04,R,,VIDY,,,,,003.20,282,02.7,V,A*7D
$IIRMC,163610,A,4630.030,N,00641.087,E,02.9,260,040608,,,A*41
$IIVHW,,,257,M,02.8,N,,*6E
$IIVWR,002,L,04.6,N,,,,*7F
$IIDPT,026.4,-1.0,*40
$IIGLL,4630.029,N,00641.084,E,163612,A,A*54
$IIHDG,257,,,,*57
$IIMTW,+13.0,C*3A
$IIMWV,358,R,04.6,N,A*1F
$IIMWV,357,T,01.8,N,A*1D
$IIRMB,A,0.04,R,,VIDY,,,,,003.20,282,02.8,V,A*72
$IIRMC,163612,A,4630.029,N,00641.084,E,02.9,261,040608,,,A*49
$IIVHW,,,257,M,02.8,N,,*6E
$IIVWR,003,L,04.6,N,,,,*7E
$IIDPT,026.4,-1.0,*40
$IIGLL,4630.029,N,00641.084,E,163612,A,A*54
$IIHDG,258,,,,*58
$IIMTW,+13.0,C*3A
$IIMWV,357,R,04.6,N,A*10
$IIMWV,357,T,01.7,N,A*12
$IIRMC,163612,A,4630.029,N,00641.084,E,02.9,261,040608,,,A*49
$IIVHW,,,258,M,02.8,N,,*61
$IIVWR,004,L,04.6,N,,,,*79
$IIDPT,028.0,-1.0,*4A
$IIGLL,4630.029,N,00641.082,E,163614,A,A*54
$IIHDG,258,,,,*58
$IIMTW,+12.5,C*3E
$IIMWV,356,R,04.6,N,A*11
$IIMWV,353,T,01.7,N,A*16
$IIRMB,A,0.04,R,,VIDY,,,,,003.20,282,02.7,V,A*7D
$IIRMC,163614,A,4630.029,N,00641.082,E,03.0,261,040608,,,A*41
$IIVHW,,,259,M,02.8,N,,*60
$IIVWR,004,L,04.6,N,,,,*79
$IIDPT,025.5,-1.0,*42
$IIGLL,4630.029,N,00641.082,E,163614,A,A*54
$IIHDG,259,,,,*59
$IIMTW,+13.5,C*3F
$IIMWV,356,R,04.6,N,A*11
$IIMWV,350,T,01.7,N,A*15
$IIRMB,A,0.04,R,,VIDY,,,,,003.20,282,02.8,V,A*72
$IIRMC,163616,A,4630.029,N,00641.080,E,03.1,260,040608,,,A*41
$IIVHW,,,259,M,02.9,N,,*61
$IIVWR,003,L,04.6,N,,,,*7E
$IIDPT,023.6,-1.0,*47
$IIGLL,4630.029,N,00641.080,E,163616,A,A*54
$IIHDG,259,,,,*59
$IIMTW,+12.5,C*3E
$IIMWV,356,R,04.6,N,A*11
$IIMWV,353,T,01.7,N,A*16
$IIRMC,163616,A,4630.029,N,00641.080,E,03.1,260,040608,,,A*41
$IIVHW,,,259,M,02.9,N,,*61
$IIVWR,004,L,04.6,N,,,,*79
$IIDPT,023.2,-1.0,*43
$IIGLL,4630.029,N,00641.077,E,163618,A,A*52
$IIHDG,258,,,,*58
$IIMTW,+12.5,C*3E
$IIMWV,355,R,04.4,N,A*10
$IIMWV,349,T,01.6,N,A*1C
$IIRMB,A,0.04,R,,VIDY,,,,,003.19,282,02.9,V,A*79
$IIRMC,163618,A,4630.029,N,00641.077,E,03.0,262,040608,,,A*44
$IIVHW,,,258,M,03.0,N,,*68
$IIVWR,004,L,04.4,N,,,,*7B
$IIDPT,023.2,-1.0,*43
$IIGLL,4630.029,N,00641.077,E,163618,A,A*52
$IIHDG,259,,,,*59
$IIMTW,+12.5,C*3E
$IIMWV,356,R,04.4,N,A*13
$IIMWV,348,T,01.4,N,A*1F
$IIRMC,163618,A,4630.029,N,00641.077,E,03.0,262,040608,,,A*44
$IIVHW,,,258,M,03.0,N,,*68
$IIVWR,004,L,04.4,N,,,,*7B
$IIDPT,022.8,-1.0,*48
$IIGLL,4630.029,N,00641.075,E,163620,A,A*5B
$IIHDG,258,,,,*58
$IIMTW,+12.5,C*3E
$IIMWV,356,R,04.4,N,A*13
$IIMWV,348,T,01.4,N,A*1F
$IIRMB,A,0.04,R,,VIDY,,,,,003.19,282,02.9,V,A*79
$IIRMC,163620,A,4630.029,N,00641.075,E,03.1,261,040608,,,A*4F
$IIVHW,,,259,M,03.0,N,,*69
$IIVWR,004,L,04.4,N,,,,*7B
$IIDPT,023.1,-1.0,*40
$IIGLL,4630.029,N,00641.075,E,163620,A,A*5B
$IIHDG,259,,,,*59
$IIMTW,+12.5,C*3E
$IIMWV,356,R,04.4,N,A*13
$IIMWV,348,T,01.4,N,A*1F
$IIRMB,A,0.04,R,,VIDY,,,,,003.19,282,02.9,V,A*79
$IIRMC,163622,A,4630.028,N,00641.072,E,03.1,262,040608,,,A*48
$IIVHW,,,259,M,03.0,N,,*69
$IIVWR,004,L,04.9,N,,,,*76
$IIDPT,024.0,-1.0,*46
$IIGLL,4630.028,N,00641.072,E,163622,A,A*5F
$IIHDG,259,,,,*59
$IIMTW,+12.5,C*3E
$IIMWV,357,R,04.9,N,A*1F
$IIMWV,351,T,01.8,N,A*1B
$IIRMC,163622,A,4630.028,N,00641.072,E,03.1,262,040608,,,A*48
$IIVHW,,,259,M,03.0,N,,*69
$IIVWR,003,L,04.9,N,,,,*71
$IIDPT,024.4,-1.0,*42
$IIGLL,4630.028,N,00641.070,E,163624,A,A*5B
$IIHDG,259,,,,*59
$IIMTW,+12.5,C*3E
$IIMWV,356,R,04.9,N,A*1E
$IIMWV,354,T,01.8,N,A*1E
$IIRMB,A,0.04,R,,VIDY,,,,,003.19,282,03.0,V,A*71
$IIRMC,163624,A,4630.028,N,00641.070,E,03.2,264,040608,,,A*49
$IIVHW,,,259,M,03.0,N,,*69
$IIVWR,004,L,04.8,N,,,,*77
$IIDPT,024.4,-1.0,*42
$IIGLL,4630.028,N,00641.070,E,163624,A,A*5B
$IIHDG,258,,,,*58
$IIMTW,+12.5,C*3E
$IIMWV,356,R,04.8,N,A*1F
$IIMWV,351,T,01.8,N,A*1B
$IIRMC,163624,A,4630.028,N,00641.070,E,03.2,264,040608,,,A*49
$IIVHW,,,258,M,03.1,N,,*69
$IIVWR,004,L,04.5,N,,,,*7A
$IIDPT,025.6,-1.0,*41
$IIGLL,4630.028,N,00641.067,E,163626,A,A*5F
$IIHDG,258,,,,*58
$IIMTW,+13.0,C*3A
$IIMWV,356,R,04.5,N,A*12
$IIMWV,350,T,01.7,N,A*15
$IIRMB,A,0.04,R,,VIDY,,,,,003.19,282,03.0,V,A*71
$IIRMC,163626,A,4630.028,N,00641.067,E,03.1,260,040608,,,A*4A
$IIVHW,,,259,M,03.1,N,,*68
$IIVWR,004,L,04.5,N,,,,*7A
$IIDPT,026.4,-1.0,*40
$IIGLL,4630.028,N,00641.067,E,163626,A,A*5F
$IIHDG,259,,,,*59
$IIMTW,+13.0,C*3A
$IIMWV,356,R,04.5,N,A*12
$IIMWV,348,T,01.4,N,A*1F
$IIRMB,A,0.04,R,,VIDY,,,,,003.19,282,03.0,V,A*71
$IIRMC,163628,A,4630.028,N,00641.065,E,03.1,261,040608,,,A*47
$IIVHW,,,259,M,03.1,N,,*68
$IIVWR,004,L,04.5,N,,,,*7A
$IIDPT,025.0,-1.0,*47
$IIGLL,4630.028,N,00641.065,E,163628,A,A*53
$IIHDG,258,,,,*58
$IIMTW,+13.0,C*3A
$IIMWV,354,R,04.5,N,A*10
$IIMWV,347,T,01.3,N,A*17
$IIRMC,163628,A,4630.028,N,00641.065,E,03.1,261,040608,,,A*47
$IIVHW,,,258,M,03.1,N,,*69
$IIVWR,006,L,04.5,N,,,,*78
$IIDPT,025.8,-1.0,*4F
$IIGLL,4630.027,N,00641.062,E,163630,A,A*52
$IIHDG,258,,,,*58
$IIMTW,+13.0,C*3A
$IIMWV,355,R,04.7,N,A*13
$IIMWV,342,T,01.2,N,A*13
$IIRMB,A,0.04,R,,VIDY,,,,,003.18,282,02.9,V,A*78
$IIRMC,163630,A,4630.027,N,00641.062,E,03.1,259,040608,,,A*4D
$IIVHW,,,258,M,03.2,N,,*6A
$IIVWR,004,L,04.7,N,,,,*78
$IIDPT,025.7,-1.0,*40
$IIGLL,4630.027,N,00641.060,E,163632,A,A*52
$IIHDG,257,,,,*57
$IIMTW,+13.0,C*3A
$IIMWV,356,R,04.7,N,A*10
$IIMWV,349,T,01.5,N,A*1F
$IIRMB,A,0.04,R,,VIDY,,,,,003.18,282,02.9,V,A*78
$IIRMC,163632,A,4630.027,N,00641.060,E,03.2,257,040608,,,A*40
$IIVHW,,,257,M,03.2,N,,*65
$IIVWR,004,L,04.7,N,,,,*78
$IIDPT,025.7,-1.0,*40
$IIGLL,4630.027,N,00641.060,E,163632,A,A*52
$IIHDG,257,,,,*57
$IIMTW,+13.0,C*3A
$IIMWV,356,R,04.7,N,A*10
$IIMWV,349,T,01.5,N,A*1F
$IIRMB,A,0.04,R,,VIDY,,,,,003.18,282,02.8,V,A*79
$IIRMC,163634,A,4630.027,N,00641.057,E,02.8,270,040608,,,A*4C
$IIVHW,,,256,M,03.2,N,,*64
$IIVWR,002,L,05.1,N,,,,*79
$IIDPT,025.8,-1.0,*4F
$IIGLL,4630.027,N,00641.057,E,163634,A,A*50
$IIHDG,256,,,,*56
$IIMTW,+13.0,C*3A
$IIMWV,359,R,05.2,N,A*1B
$IIMWV,357,T,01.9,N,A*1C
$IIRMC,163634,A,4630.027,N,00641.057,E,02.8,270,040608,,,A*4C
$IIVHW,,,256,M,03.1,N,,*67
$IIVWR,001,L,05.2,N,,,,*79
$IIDPT,028.7,-1.0,*4D
$IIGLL,4630.027,N,00641.055,E,163636,A,A*50
$IIHDG,256,,,,*56
$IIMTW,+13.0,C*3A
$IIMWV,001,R,05.0,N,A*17
$IIMWV,357,T,02.0,N,A*16
$IIRMB,A,0.04,R,,VIDY,,,,,003.18,282,02.8,V,A*79
$IIRMC,163636,A,4630.027,N,00641.055,E,02.9,264,040608,,,A*48
$IIVHW,,,256,M,03.1,N,,*67
$IIVWR,001,R,04.9,N,,,,*6D
$IIDPT,031.8,-1.0,*4A
$IIGLL,4630.027,N,00641.055,E,163636,A,A*50
$IIHDG,256,,,,*56
$IIMTW,+13.0,C*3A
$IIMWV,001,R,04.9,N,A*1F
$IIMWV,003,T,01.8,N,A*1F
$IIRMC,163636,A,4630.027,N,00641.055,E,02.9,264,040608,,,A*48
$IIVHW,,,256,M,03.1,N,,*67
$IIVWR,004,R,05.5,N,,,,*65
$IIDPT,032.1,-1.0,*40
$IIGLL,4630.026,N,00641.052,E,163638,A,A*58
$IIHDG,256,,,,*56
$IIMTW,+13.0,C*3A
$IIMWV,004,R,05.5,N,A*17
$IIMWV,000,T,01.7,N,A*13
$IIRMB,A,0.05,R,,VIDY,,,,,003.18,282,03.0,V,A*71
$IIRMC,163638,A,4630.026,N,00641.052,E,03.1,263,040608,,,A*4E
$IIVHW,,,257,M,03.1,N,,*66
$IIVWR,005,R,05.3,N,,,,*62
$IIDPT,032.0,-1.0,*41
$IIGLL,4630.026,N,00641.052,E,163638,A,A*58
$IIHDG,257,,,,*57
$IIMTW,+13.0,C*3A
$IIMWV,005,R,05.3,N,A*10
$IIMWV,011,T,02.1,N,A*16
$IIRMB,A,0.05,R,,VIDY,,,,,003.18,282,03.0,V,A*71
$IIRMC,163640,A,4630.026,N,00641.050,E,03.2,262,040608,,,A*41
$IIVHW,,,258,M,03.1,N,,*69
$IIVWR,007,R,05.2,N,,,,*61
$IIDPT,030.1,-1.0,*42
$IIGLL,4630.026,N,00641.050,E,163640,A,A*55
$IIHDG,259,,,,*59
$IIMTW,+12.5,C*3E
$IIMWV,008,R,05.0,N,A*1E
$IIMWV,017,T,02.0,N,A*11
$IIRMC,163640,A,4630.026,N,00641.050,E,03.2,262,040608,,,A*41
$IIVHW,,,259,M,03.1,N,,*68
$IIVWR,008,R,05.0,N,,,,*6C
$IIDPT,027.7,-1.0,*42
$IIGLL,4630.026,N,00641.047,E,163642,A,A*51
$IIHDG,260,,,,*53
$IIMTW,+12.5,C*3E
$IIMWV,012,R,05.4,N,A*11
$IIMWV,025,T,02.1,N,A*11
$IIRMB,A,0.05,R,,VIDY,,,,,003.17,282,03.1,V,A*7F
$IIRMC,163642,A,4630.026,N,00641.047,E,03.3,257,040608,,,A*42
$IIVHW,,,260,M,03.1,N,,*62
$IIVWR,010,R,04.9,N,,,,*6D
$IIDPT,028.1,-1.0,*4B
$IIGLL,4630.026,N,00641.045,E,163644,A,A*55
$IIHDG,260,,,,*53
$IIMTW,+12.5,C*3E
$IIMWV,010,R,04.9,N,A*1F
$IIMWV,029,T,02.2,N,A*1E
$IIRMB,A,0.05,R,,VIDY,,,,,003.17,282,03.0,V,A*7E
$IIRMC,163644,A,4630.026,N,00641.045,E,03.2,263,040608,,,A*40
$IIVHW,,,260,M,03.2,N,,*61
$IIVWR,010,R,04.9,N,,,,*6D
$IIDPT,028.3,-1.0,*49
$IIGLL,4630.026,N,00641.045,E,163644,A,A*55
$IIHDG,260,,,,*53
$IIMTW,+13.0,C*3A
$IIMWV,010,R,04.9,N,A*1F
$IIMWV,027,T,01.7,N,A*16
$IIRMB,A,0.05,R,,VIDY,,,,,003.17,282,03.1,V,A*7F
$IIRMC,163646,A,4630.025,N,00641.042,E,03.2,263,040608,,,A*46
$IIVHW,,,261,M,03.2,N,,*60
$IIVWR,010,R,04.8,N,,,,*6C
$IIDPT,029.1,-1.0,*4A
$IIGLL,4630.025,N,00641.042,E,163646,A,A*53
$IIHDG,261,,,,*52
$IIMTW,+13.0,C*3A
$IIMWV,007,R,04.8,N,A*18
$IIMWV,028,T,01.7,N,A*19
$IIRMC,163646,A,4630.025,N,00641.042,E,03.2,263,040608,,,A*46
$IIVHW,,,261,M,03.1,N,,*63
$IIVWR,007,R,04.8,N,,,,*6A
$IIDPT,029.2,-1.0,*49
$IIGLL,4630.025,N,00641.040,E,163648,A,A*5F
$IIHDG,261,,,,*52
$IIMTW,+13.0,C*3A
$IIMWV,006,R,04.7,N,A*16
$IIMWV,018,T,01.5,N,A*18
$IIRMB,A,0.05,R,,VIDY,,,,,003.17,282,03.1,V,A*7F
$IIRMC,163648,A,4630.025,N,00641.040,E,03.2,263,040608,,,A*4A
$IIVHW,,,261,M,03.1,N,,*63
$IIVWR,005,R,04.7,N,,,,*67
$IIDPT,031.0,-1.0,*42
$IIGLL,4630.025,N,00641.040,E,163648,A,A*5F
$IIHDG,261,,,,*52
$IIMTW,+13.0,C*3A
$IIMWV,005,R,04.7,N,A*15
$IIMWV,016,T,01.4,N,A*17
$IIRMC,163648,A,4630.025,N,00641.040,E,03.2,263,040608,,,A*4A
$IIVHW,,,261,M,03.1,N,,*63
$IIVWR,003,R,04.7,N,,,,*61
$IIDPT,031.0,-1.0,*42
$IIGLL,4630.025,N,00641.037,E,163650,A,A*56
$IIHDG,261,,,,*52
$IIMTW,+13.0,C*3A
$IIMWV,003,R,04.7,N,A*13
$IIMWV,015,T,01.5,N,A*15
$IIRMB,A,0.05,R,,VIDY,,,,,003.17,282,03.1,V,A*7F
$IIRMC,163650,A,4630.025,N,00641.037,E,03.3,263,040608,,,A*42
$IIVHW,,,262,M,03.2,N,,*63
$IIVWR,002,R,04.8,N,,,,*6F
$IIDPT,030.3,-1.0,*40
$IIGLL,4630.025,N,00641.037,E,163650,A,A*56
$IIHDG,262,,,,*51
$IIMTW,+13.0,C*3A
$IIMWV,002,R,04.8,N,A*1D
$IIMWV,004,T,01.6,N,A*16
$IIRMB,A,0.05,R,,VIDY,,,,,003.17,282,03.1,V,A*7F
$IIRMC,163652,A,4630.025,N,00641.034,E,03.3,267,040608,,,A*47
$IIVHW,,,262,M,03.2,N,,*63
$IIVWR,001,R,04.6,N,,,,*62
$IIDPT,029.2,-1.0,*49
$IIGLL,4630.025,N,00641.034,E,163652,A,A*57
$IIHDG,263,,,,*50
$IIMTW,+13.0,C*3A
$IIMWV,002,R,04.7,N,A*12
$IIMWV,000,T,01.4,N,A*10
$IIRMC,163652,A,4630.025,N,00641.034,E,03.3,267,040608,,,A*47
$IIVHW,,,263,M,03.2,N,,*62
$IIVWR,002,R,04.7,N,,,,*60
$IIDPT,028.5,-1.0,*4F
$IIGLL,4630.025,N,00641.032,E,163654,A,A*57
$IIHDG,262,,,,*51
$IIMTW,+13.0,C*3A
$IIMWV,000,R,04.7,N,A*10
$IIMWV,004,T,01.5,N,A*15
$IIRMB,A,0.05,R,,VIDY,,,,,003.16,282,03.1,V,A*7E
$IIRMC,163654,A,4630.025,N,00641.032,E,03.3,265,040608,,,A*45
$IIVHW,,,262,M,03.2,N,,*63
$IIVWR,001,L,04.7,N,,,,*7D
$IIDPT,028.1,-1.0,*4B
$IIGLL,4630.025,N,00641.032,E,163654,A,A*57
$IIHDG,262,,,,*51
$IIMTW,+13.0,C*3A
$IIMWV,359,R,04.7,N,A*1F
$IIMWV,000,T,01.5,N,A*11
$IIRMC,163654,A,4630.025,N,00641.032,E,03.3,265,040608,,,A*45
$IIVHW,,,262,M,03.2,N,,*63
$IIVWR,000,R,05.1,N,,,,*65
$IIDPT,028.4,-1.0,*4E
$IIGLL,4630.025,N,00641.029,E,163656,A,A*5F
$IIHDG,262,,,,*51
$IIMTW,+13.0,C*3A
$IIMWV,000,R,05.1,N,A*17
$IIMWV,000,T,01.5,N,A*11
$IIRMB,A,0.05,R,,VIDY,,,,,003.16,282,03.2,V,A*7D
$IIRMC,163656,A,4630.025,N,00641.029,E,03.3,264,040608,,,A*4C
$IIVHW,,,263,M,03.2,N,,*62
$IIVWR,001,L,05.2,N,,,,*79
$IIDPT,028.4,-1.0,*4E
$IIGLL,4630.025,N,00641.029,E,163656,A,A*5F
$IIHDG,263,,,,*50
$IIMTW,+13.0,C*3A
$IIMWV,359,R,05.2,N,A*1B
$IIMWV,357,T,01.9,N,A*1C
$IIRMB,A,0.05,R,,VIDY,,,,,003.16,282,03.2,V,A*7D
$IIRMC,163658,A,4630.024,N,00641.026,E,03.3,265,040608,,,A*4D
$IIVHW,,,263,M,03.2,N,,*62
$IIVWR,002,L,05.1,N,,,,*79
$IIDPT,029.1,-1.0,*4A
$IIGLL,4630.024,N,00641.026,E,163658,A,A*5F
$IIHDG,262,,,,*51
$IIMTW,+13.0,C*3A
$IIMWV,358,R,05.3,N,A*1B
$IIMWV,357,T,01.8,N,A*1D
$IIRMC,163658,A,4630.024,N,00641.026,E,03.3,265,040608,,,A*4D
$IIVHW,,,262,M,03.2,N,,*63
$IIVWR,002,L,05.3,N,,,,*7B
$IIDPT,030.9,-1.0,*4A
$IIGLL,4630.024,N,00641.024,E,163700,A,A*51
$IIHDG,262,,,,*51
$IIMTW,+13.0,C*3A
$IIMWV,358,R,05.4,N,A*1C
$IIMWV,357,T,02.0,N,A*16
$IIRMB,A,0.05,R,,VIDY,,,,,003.16,282,03.2,V,A*7D
$IIRMC,163700,A,4630.024,N,00641.024,E,03.4,264,040608,,,A*45
$IIVHW,,,262,M,03.2,N,,*63
$IIVWR,003,L,05.4,N,,,,*7D
$IIDPT,029.3,-1.0,*48
$IIGLL,4630.024,N,00641.024,E,163700,A,A*51
$IIHDG,263,,,,*50
$IIMTW,+13.0,C*3A
$IIMWV,357,R,05.4,N,A*13
$IIMWV,357,T,02.1,N,A*17
$IIRMC,163700,A,4630.024,N,00641.024,E,03.4,264,040608,,,A*45
$IIVHW,,,264,M,03.2,N,,*65
$IIVWR,003,L,05.3,N,,,,*7A
$IIDPT,029.7,-1.0,*4C
$IIGLL,4630.024,N,00641.021,E,163702,A,A*56
$IIHDG,264,,,,*57
$IIMTW,+13.0,C*3A
$IIMWV,357,R,05.3,N,A*14
$IIMWV,355,T,02.1,N,A*15
$IIRMB,A,0.05,R,,VIDY,,,,,003.16,282,03.2,V,A*7D
$IIRMC,163704,A,4630.024,N,00641.018,E,03.3,267,040608,,,A*4A
$IIVHW,,,264,M,03.3,N,,*64
$IIVWR,003,L,05.2,N,,,,*7B
$IIDPT,029.2,-1.0,*49
$IIGLL,4630.024,N,00641.018,E,163704,A,A*5A
$IIHDG,264,,,,*57
$IIMTW,+13.5,C*3F
$IIMWV,357,R,05.2,N,A*15
$IIMWV,354,T,01.9,N,A*1F
$IIRMB,A,0.05,R,,VIDY,,,,,003.15,282,03.2,V,A*7E
$IIRMC,163704,A,4630.024,N,00641.018,E,03.3,267,040608,,,A*4A
$IIVHW,,,265,M,03.3,N,,*65
$IIVWR,003,L,05.3,N,,,,*7A
$IIDPT,028.5,-1.0,*4F
$IIGLL,4630.024,N,00641.018,E,163704,A,A*5A
$IIHDG,263,,,,*50
$IIMTW,+13.0,C*3A
$IIMWV,357,R,05.2,N,A*15
$IIMWV,354,T,02.0,N,A*15
$IIRMB,A,0.05,R,,VIDY,,,,,003.15,282,03.2,V,A*7E
$IIRMC,163706,A,4630.024,N,00641.016,E,03.3,265,040608,,,A*44
$IIVHW,,,263,M,03.3,N,,*63
$IIVWR,003,L,05.2,N,,,,*7B
$IIDPT,029.9,-1.0,*42
$IIGLL,4630.024,N,00641.016,E,163706,A,A*56
$IIHDG,262,,,,*51
$IIMTW,+13.0,C*3A
$IIMWV,356,R,05.2,N,A*14
$IIMWV,354,T,01.9,N,A*1F
$IIRMC,163706,A,4630.024,N,00641.016,E,03.3,265,040608,,,A*44
$IIVHW,,,262,M,03.3,N,,*62
$IIVWR,003,L,05.3,N,,,,*7A
$IIDPT,032.0,-1.0,*41
$IIGLL,4630.024,N,00641.013,E,163708,A,A*5D
$IIHDG,262,,,,*51
$IIMTW,+13.0,C*3A
$IIMWV,357,R,05.3,N,A*14
$IIMWV,351,T,01.9,N,A*1A
$IIRMB,A,0.05,R,,VIDY,,,,,003.15,282,03.1,V,A*7D
$IIRMC,163708,A,4630.024,N,00641.013,E,03.3,264,040608,,,A*4E
$IIVHW,,,261,M,03.2,N,,*60
$IIVWR,004,L,05.2,N,,,,*7C
$IIDPT,032.0,-1.0,*41
$IIGLL,4630.024,N,00641.013,E,163708,A,A*5D
$IIHDG,261,,,,*52
$IIMTW,+13.0,C*3A
$IIMWV,356,R,05.2,N,A*14
$IIMWV,351,T,01.9,N,A*1A
$IIRMB,A,0.05,R,,VIDY,,,,,003.15,282,03.1,V,A*7D
$IIRMC,163710,A,4630.024,N,00641.011,E,03.2,266,040608,,,A*46
$IIVHW,,,262,M,03.2,N,,*63
$IIVWR,002,L,05.1,N,,,,*79
$IIDPT,032.0,-1.0,*41
$IIGLL,4630.024,N,00641.011,E,163710,A,A*56
$IIHDG,262,,,,*51
$IIMTW,+13.0,C*3A
$IIMWV,359,R,05.2,N,A*1B
$IIMWV,357,T,01.8,N,A*1D
$IIRMC,163710,A,4630.024,N,00641.011,E,03.2,266,040608,,,A*46
$IIVHW,,,262,M,03.2,N,,*63
$IIVWR,001,L,05.2,N,,,,*79
$IIDPT,032.0,-1.0,*41
$IIGLL,4630.024,N,00641.008,E,163712,A,A*5C
$IIHDG,261,,,,*52
$IIMTW,+13.0,C*3A
$IIMWV,359,R,05.0,N,A*19
$IIMWV,357,T,02.0,N,A*16
$IIRMB,A,0.05,R,,VIDY,,,,,003.15,282,03.1,V,A*7D
$IIRMC,163712,A,4630.024,N,00641.008,E,03.1,265,040608,,,A*4C
$IIVHW,,,261,M,03.1,N,,*63
$IIVWR,001,L,04.9,N,,,,*73
$IIDPT,031.5,-1.0,*47
$IIGLL,4630.024,N,00641.008,E,163712,A,A*5C
$IIHDG,261,,,,*52
$IIMTW,+12.5,C*3E
$IIMWV,359,R,04.9,N,A*11
$IIMWV,357,T,01.8,N,A*1D
$IIRMC,163712,A,4630.024,N,00641.008,E,03.1,265,040608,,,A*4C
$IIVHW,,,263,M,02.9,N,,*68
$IIVWR,001,L,05.3,N,,,,*78
$IIDPT,032.3,-1.0,*42
$IIGLL,4630.023,N,00641.003,E,163716,A,A*54
$IIHDG,263,,,,*50
$IIMTW,+12.5,C*3E
$IIMWV,359,R,05.3,N,A*1A
$IIMWV,357,T,02.3,N,A*15
$IIRMB,A,0.05,R,,VIDY,,,,,003.14,282,02.8,V,A*74
$IIRMC,163718,A,4630.023,N,00641.001,E,02.9,268,040608,,,A*4C
$IIVHW,,,263,M,02.9,N,,*68
$IIVWR,002,L,05.2,N,,,,*7A
$IIDPT,032.7,-1.0,*46
$IIGLL,4630.023,N,00641.001,E,163718,A,A*58
$IIHDG,263,,,,*50
$IIMTW,+12.5,C*3E
$IIMWV,358,R,05.2,N,A*1A
$IIMWV,357,T,02.2,N,A*14
$IIRMB,A,0.06,R,,VIDY,,,,,003.14,282,02.8,V,A*77
$IIRMC,163718,A,4630.023,N,00641.001,E,02.9,268,040608,,,A*4C
$IIVHW,,,264,M,02.9,N,,*6F
$IIVWR,003,L,05.0,N,,,,*79
$IIDPT,032.7,-1.0,*46
$IIGLL,4630.023,N,00641.001,E,163718,A,A*58
$IIHDG,265,,,,*56
$IIMTW,+13.5,C*3F
$IIMWV,356,R,05.0,N,A*16
$IIMWV,355,T,02.1,N,A*15
$IIRMB,A,0.06,R,,VIDY,,,,,003.14,282,02.8,V,A*77
$IIRMC,163720,A,4630.023,N,00640.999,E,02.8,270,040608,,,A*46
$IIVHW,,,265,M,02.8,N,,*6F
$IIVWR,004,L,05.0,N,,,,*7E
$IIDPT,035.1,-1.0,*47
$IIGLL,4630.023,N,00640.999,E,163720,A,A*5A
$IIHDG,267,,,,*54
$IIMTW,+13.0,C*3A
$IIMWV,355,R,04.9,N,A*1D
$IIMWV,352,T,02.2,N,A*11
$IIRMC,163720,A,4630.023,N,00640.999,E,02.8,270,040608,,,A*46
$IIVHW,,,267,M,02.7,N,,*62
$IIVWR,005,L,04.8,N,,,,*76
$IIDPT,035.1,-1.0,*47
$IIGLL,4630.023,N,00640.996,E,163722,A,A*57
$IIHDG,269,,,,*5A
$IIMTW,+13.0,C*3A
$IIMWV,355,R,04.8,N,A*1C
$IIMWV,349,T,02.1,N,A*18
$IIRMB,A,0.06,R,,VIDY,,,,,003.14,282,02.8,V,A*77
$IIRMC,163722,A,4630.023,N,00640.996,E,02.7,275,040608,,,A*41
$IIVHW,,,271,M,02.7,N,,*65
$IIVWR,008,L,04.8,N,,,,*7B
$IIDPT,035.4,-1.0,*42
$IIGLL,4630.023,N,00640.996,E,163722,A,A*57
$IIHDG,271,,,,*53
$IIMTW,+13.0,C*3A
$IIMWV,352,R,04.8,N,A*1B
$IIMWV,343,T,02.0,N,A*13
$IIRMB,A,0.06,R,,VIDY,,,,,003.14,282,02.8,V,A*77
$IIRMC,163724,A,4630.023,N,00640.994,E,02.7,275,040608,,,A*45
$IIVHW,,,272,M,02.7,N,,*66
$IIVWR,010,L,04.7,N,,,,*7D
$IIDPT,036.7,-1.0,*42
$IIGLL,4630.023,N,00640.994,E,163724,A,A*53
$IIHDG,272,,,,*50
$IIMTW,+13.0,C*3A
$IIMWV,352,R,04.4,N,A*17
$IIMWV,340,T,02.0,N,A*10
$IIRMC,163724,A,4630.023,N,00640.994,E,02.7,275,040608,,,A*45
$IIVHW,,,272,M,02.6,N,,*67
$IIVWR,008,L,04.4,N,,,,*77
$IIDPT,038.7,-1.0,*4C
$IIGLL,4630.024,N,00640.992,E,163726,A,A*50
$IIHDG,271,,,,*53
$IIMTW,+13.0,C*3A
$IIMWV,353,R,04.4,N,A*16
$IIMWV,339,T,01.7,N,A*1A
$IIRMB,A,0.06,R,,VIDY,,,,,003.14,282,02.6,V,A*79
$IIRMC,163726,A,4630.024,N,00640.992,E,02.6,272,040608,,,A*40
$IIVHW,,,271,M,02.6,N,,*64
$IIVWR,005,L,04.4,N,,,,*7A
$IIDPT,038.7,-1.0,*4C
$IIGLL,4630.024,N,00640.992,E,163726,A,A*50
$IIHDG,269,,,,*5A
$IIMTW,+13.0,C*3A
$IIMWV,355,R,04.4,N,A*10
$IIMWV,343,T,01.6,N,A*16
$IIRMC,163726,A,4630.024,N,00640.992,E,02.6,272,040608,,,A*40
$IIVHW,,,267,M,02.4,N,,*61
$IIVWR,007,L,04.5,N,,,,*79
$IIDPT,038.7,-1.0,*4C
$IIGLL,4630.024,N,00640.990,E,163728,A,A*5C
$IIHDG,267,,,,*54
$IIMTW,+13.0,C*3A
$IIMWV,353,R,04.5,N,A*17
$IIMWV,351,T,01.8,N,A*1B
$IIRMB,A,0.06,R,,VIDY,,,,,003.14,282,02.5,V,A*7A
$IIRMC,163728,A,4630.024,N,00640.990,E,02.5,274,040608,,,A*49
$IIVHW,,,266,M,02.4,N,,*60
$IIVWR,007,L,04.5,N,,,,*79
$IIDPT,038.7,-1.0,*4C
$IIGLL,4630.024,N,00640.990,E,163728,A,A*5C
$IIHDG,266,,,,*55
$IIMTW,+13.0,C*3A
$IIMWV,353,R,04.5,N,A*17
$IIMWV,346,T,02.0,N,A*16
$IIRMB,A,0.06,R,,VIDY,,,,,003.13,282,02.4,V,A*7C
$IIRMC,163730,A,4630.024,N,00640.988,E,02.4,268,040608,,,A*45
$IIVHW,,,265,M,02.4,N,,*63
$IIVWR,004,L,04.5,N,,,,*7A
$IIDPT,035.9,-1.0,*4F
$IIGLL,4630.024,N,00640.988,E,163730,A,A*5C
$IIHDG,265,,,,*56
$IIMTW,+13.0,C*3A
$IIMWV,356,R,04.3,N,A*14
$IIMWV,352,T,02.1,N,A*12
$IIRMC,163730,A,4630.024,N,00640.988,E,02.4,268,040608,,,A*45
$IIVHW,,,265,M,02.3,N,,*64
$IIVWR,004,L,04.3,N,,,,*7C
$IIDPT,034.3,-1.0,*44
$IIGLL,4630.024,N,00640.986,E,163732,A,A*50
$IIHDG,264,,,,*57
$IIMTW,+13.0,C*3A
$IIMWV,356,R,04.3,N,A*14
$IIMWV,351,T,02.0,N,A*10
$IIRMB,A,0.06,R,,VIDY,,,,,003.13,282,02.3,V,A*7B
$IIRMC,163732,A,4630.024,N,00640.986,E,02.4,267,040608,,,A*46
$IIVHW,,,264,M,02.2,N,,*64
$IIVWR,004,L,04.4,N,,,,*7B
$IIDPT,034.3,-1.0,*44
$IIGLL,4630.024,N,00640.986,E,163732,A,A*50
$IIHDG,264,,,,*57
$IIMTW,+13.0,C*3A
$IIMWV,356,R,04.4,N,A*13
$IIMWV,351,T,02.0,N,A*10
$IIRMC,163732,A,4630.024,N,00640.986,E,02.4,267,040608,,,A*46
$IIVHW,,,263,M,02.1,N,,*60
$IIVWR,003,L,04.4,N,,,,*7C
$IIDPT,034.0,-1.0,*47
$IIGLL,4630.024,N,00640.984,E,163734,A,A*54
$IIHDG,263,,,,*50
$IIMTW,+13.0,C*3A
$IIMWV,357,R,04.4,N,A*12
$IIMWV,352,T,02.2,N,A*11
$IIRMB,A,0.06,R,,VIDY,,,,,003.13,282,02.3,V,A*7B
$IIRMC,163734,A,4630.024,N,00640.984,E,02.3,264,040608,,,A*46
$IIVHW,,,262,M,02.1,N,,*61
$IIVWR,002,L,04.3,N,,,,*7A
$IIDPT,034.0,-1.0,*47
$IIGLL,4630.024,N,00640.984,E,163734,A,A*54
$IIHDG,262,,,,*51
$IIMTW,+13.0,C*3A
$IIMWV,358,R,04.3,N,A*1A
$IIMWV,357,T,02.2,N,A*14
$IIRMB,A,0.06,R,,VIDY,,,,,003.13,282,02.2,V,A*7A
$IIRMC,163736,A,4630.024,N,00640.982,E,02.2,266,040608,,,A*41
$IIVHW,,,261,M,02.1,N,,*62
$IIVWR,002,L,04.7,N,,,,*7E
$IIDPT,034.0,-1.0,*47
$IIGLL,4630.024,N,00640.982,E,163736,A,A*50
$IIHDG,259,,,,*59
$IIMTW,+13.0,C*3A
$IIMWV,359,R,04.5,N,A*1D
$IIMWV,358,T,02.6,N,A*1F
$IIRMC,163736,A,4630.024,N,00640.982,E,02.2,266,040608,,,A*41
$IIVHW,,,259,M,02.1,N,,*69
$IIVWR,001,L,04.5,N,,,,*7F
$IIDPT,034.4,-1.0,*43
$IIGLL,4630.024,N,00640.981,E,163738,A,A*5D
$IIHDG,259,,,,*59
$IIMTW,+13.0,C*3A
$IIMWV,000,R,04.5,N,A*12
$IIMWV,000,T,02.4,N,A*13
$IIRMB,A,0.06,R,,VIDY,,,,,003.13,282,02.1,V,A*79
$IIRMC,163738,A,4630.024,N,00640.981,E,02.2,262,040608,,,A*48
$IIVHW,,,259,M,02.1,N,,*69
$IIVWR,001,R,04.2,N,,,,*66
$IIDPT,034.4,-1.0,*43
$IIGLL,4630.024,N,00640.981,E,163738,A,A*5D
$IIHDG,258,,,,*58
$IIMTW,+12.5,C*3E
$IIMWV,001,R,04.2,N,A*14
$IIMWV,000,T,02.3,N,A*14
$IIRMC,163738,A,4630.024,N,00640.981,E,02.2,262,040608,,,A*48
$IIVHW,,,259,M,02.1,N,,*69
$IIVWR,001,R,04.1,N,,,,*65
$IIDPT,034.4,-1.0,*43
$IIGLL,4630.023,N,00640.979,E,163740,A,A*52
$IIHDG,259,,,,*59
$IIMTW,+12.5,C*3E
$IIMWV,001,R,04.1,N,A*17
$IIMWV,000,T,02.1,N,A*16
$IIRMB,A,0.06,R,,VIDY,,,,,003.13,282,02.0,V,A*78
$IIRMC,163740,A,4630.023,N,00640.979,E,02.1,263,040608,,,A*45
$IIVHW,,,260,M,02.1,N,,*63
$IIVWR,003,R,04.1,N,,,,*67
$IIDPT,033.9,-1.0,*49
$IIGLL,4630.023,N,00640.979,E,163740,A,A*52
$IIHDG,260,,,,*53
$IIMTW,+12.5,C*3E
$IIMWV,003,R,04.1,N,A*15
$IIMWV,006,T,02.0,N,A*11
$IIRMB,A,0.06,R,,VIDY,,,,,003.13,282,02.1,V,A*79
$IIRMC,163742,A,4630.023,N,00640.977,E,02.1,264,040608,,,A*4E
$IIVHW,,,261,M,02.1,N,,*62
$IIVWR,003,R,04.0,N,,,,*66
$IIDPT,032.0,-1.0,*41
$IIGLL,4630.023,N,00640.977,E,163742,A,A*5E
$IIHDG,261,,,,*52
$IIMTW,+12.5,C*3E
$IIMWV,003,R,04.3,N,A*17
$IIMWV,006,T,01.9,N,A*1B
$IIRMC,163742,A,4630.023,N,00640.977,E,02.1,264,040608,,,A*4E
$IIVHW,,,261,M,02.0,N,,*63
$IIVWR,003,R,04.3,N,,,,*65
$IIDPT,031.9,-1.0,*4B
$IIGLL,4630.023,N,00640.976,E,163744,A,A*59
$IIHDG,263,,,,*50
$IIMTW,+12.5,C*3E
$IIMWV,003,R,04.5,N,A*11
$IIMWV,005,T,02.2,N,A*10
$IIRMB,A,0.06,R,,VIDY,,,,,003.13,282,02.0,V,A*78
$IIRMC,163744,A,4630.023,N,00640.976,E,02.1,266,040608,,,A*4B
$IIVHW,,,263,M,02.0,N,,*61
$IIVWR,004,R,05.0,N,,,,*60
$IIDPT,031.9,-1.0,*4B
$IIGLL,4630.023,N,00640.976,E,163744,A,A*59
$IIHDG,262,,,,*51
$IIMTW,+12.5,C*3E
$IIMWV,004,R,05.0,N,A*12
$IIMWV,005,T,02.4,N,A*16
$IIRMC,163744,A,4630.023,N,00640.976,E,02.1,266,040608,,,A*4B
$IIVHW,,,261,M,02.0,N,,*63
$IIVWR,004,R,04.7,N,,,,*66
$IIDPT,033.8,-1.0,*48
