$IIRMC,163646,A,4630.081,N,00641.062,E,00.0,135,180614,01,E,A*0F
$IIVHW,,,294,M,,,,*3B
$IIGLL,4630.081,N,00641.062,E,163646,A,A*5F
$IIHDG,294,,,01,E*1C
$IIMWV,178,R,05.0,N,A*18
$IIRMC,163647,A,4630.081,N,00641.062,E,00.0,135,180614,01,E,A*0E
$IIVHW,,,286,M,01.4,N,,*6D
$IIVLW,01517,N,000.0,N*51
$IIVWR,178,R,05.0,N,,,,*6A
$IIGLL,4630.081,N,00641.062,E,163647,A,A*5E
$IIHDG,286,,,01,E*1F
$IIMTW,+00.0,C*38
$IIMWV,192,R,06.2,N,A*1D
$IIMWV,179,T,06.5,N,A*19
$IIRMC,163648,A,4630.081,N,00641.062,E,00.0,135,180614,01,E,A*01
$IIVHW,,,281,M,01.2,N,,*6C
$IIVLW,01517,N,000.0,N*51
$IIVWR,168,L,06.2,N,,,,*74
$IIGLL,4630.081,N,00641.062,E,163648,A,A*51
$IIHDG,281,,,01,E*18
$IIMTW,+13.0,C*3A
$IIMWV,198,R,06.4,N,A*11
$IIMWV,190,T,07.3,N,A*19
$IIRMC,163649,A,4630.081,N,00641.062,E,00.0,135,180614,01,E,A*00
$IIVHW,,,279,M,00.9,N,,*61
$IIVLW,01517,N,000.0,N*51
$IIVWR,162,L,06.4,N,,,,*78
$IIDPT,001.9,-1.0,*48
$IIGLL,4630.081,N,00641.062,E,163649,A,A*50
$IIHDG,279,,,01,E*1F
$IIMTW,+13.0,C*3A
$IIMWV,204,R,06.3,N,A*10
$IIMWV,195,T,07.2,N,A*1D
$IIRMC,163650,A,4630.081,N,00641.062,E,00.0,135,180614,01,E,A*08
$IIVHW,,,276,M,00.7,N,,*60
$IIVLW,01517,N,000.0,N*51
$IIVWR,156,L,06.3,N,,,,*78
$IIDPT,001.9,-1.0,*48
$IIGLL,4630.081,N,00641.062,E,163650,A,A*58
$IIHDG,275,,,01,E*13
$IIMTW,+13.0,C*3A
$IIMWV,206,R,05.7,N,A*15
$IIMWV,201,T,06.9,N,A*19
$IIRMC,163651,A,4630.081,N,00641.062,E,00.0,135,180614,01,E,A*09
$IIVHW,,,275,M,00.6,N,,*62
$IIVLW,01517,N,000.0,N*51
$IIVWR,154,L,05.7,N,,,,*7D
$IIDPT,001.9,-1.0,*48
$IIGLL,4630.081,N,00641.062,E,163652,A,A*5A
$IIHDG,274,,,01,E*12
$IIMTW,+13.0,C*3A
$IIMWV,006,R,00.0,N,A*15
$IIMWV,203,T,06.3,N,A*11
$IIRMC,163652,A,4630.081,N,00641.062,E,00.0,135,180614,01,E,A*0A
$IIVHW,,,274,M,00.5,N,,*60
$IIVLW,01517,N,000.0,N*51
$IIVWR,006,R,00.0,N,,,,*67
$IIDPT,001.9,-1.0,*48
$IIGLL,4630.081,N,00641.062,E,163653,A,A*5B
$IIHDG,273,,,01,E*15
$IIMTW,+13.0,C*3A
$IIMWV,204,R,05.8,N,A*18
$IIMWV,006,T,00.5,N,A*16
$IIRMC,163653,A,4630.081,N,00641.062,E,00.0,135,180614,01,E,A*0B
$IIVHW,,,273,M,00.4,N,,*66
$IIVLW,01517,N,000.0,N*51
$IIVWR,158,L,05.5,N,,,,*73
$IIDPT,001.9,-1.0,*48
$IIGLL,4630.081,N,00641.062,E,163654,A,A*5C
$IIHDG,272,,,01,E*14
$IIMTW,+13.5,C*3F
$IIMWV,202,R,05.5,N,A*13
$IIMWV,202,T,06.0,N,A*13
$IIRMC,163654,A,4630.081,N,00641.062,E,00.0,135,180614,01,E,A*0C
$IIVHW,,,272,M,00.3,N,,*60
$IIVLW,01517,N,000.0,N*51
$IIVWR,157,L,06.2,N,,,,*78
$IIDPT,001.9,-1.0,*48
$IIGLL,4630.081,N,00641.062,E,163655,A,A*5D
$IIHDG,271,,,01,E*17
$IIMTW,+13.5,C*3F
$IIMWV,203,R,06.2,N,A*16
$IIMWV,200,T,05.8,N,A*1A
$IIRMC,163655,A,4630.081,N,00641.062,E,00.0,135,180614,01,E,A*0D
$IIVHW,,,271,M,00.2,N,,*62
$IIVLW,01517,N,000.0,N*51
$IIVWR,166,L,06.6,N,,,,*7E
$IIDPT,001.9,-1.0,*48
$IIGLL,4630.081,N,00641.062,E,163656,A,A*5E
$IIHDG,271,,,01,E*17
$IIMTW,+13.5,C*3F
$IIMWV,194,R,06.6,N,A*1F
$IIMWV,202,T,06.4,N,A*17
$IIRMC,163657,A,4630.081,N,00641.062,E,00.0,135,180614,01,E,A*0F
$IIVHW,,,271,M,00.1,N,,*61
$IIVLW,01517,N,000.0,N*51
$IIVWR,166,L,06.7,N,,,,*7F
$IIDPT,001.9,-1.0,*48
$IIGLL,4630.081,N,00641.062,E,163657,A,A*5F
$IIHDG,271,,,01,E*17
$IIMTW,+13.5,C*3F
$IIMWV,194,R,06.7,N,A*1E
$IIMWV,194,T,06.7,N,A*18
$IIRMC,163658,A,4630.081,N,00641.062,E,00.0,135,180614,01,E,A*00
$IIVHW,,,271,M,00.1,N,,*61
$IIVLW,01517,N,000.0,N*51
$IIVWR,165,L,06.0,N,,,,*7B
$IIDPT,001.9,-1.0,*48
$IIGLL,4630.081,N,00641.062,E,163658,A,A*50
$IIHDG,271,,,01,E*17
$IIMTW,+13.5,C*3F
$IIMWV,198,R,05.5,N,A*13
$IIMWV,194,T,06.1,N,A*1E
$IIRMC,163659,A,4630.081,N,00641.062,E,00.0,135,180614,01,E,A*01
$IIVHW,,,271,M,00.1,N,,*61
$IIVLW,01517,N,000.0,N*51
$IIVWR,162,L,05.5,N,,,,*7A
$IIDPT,001.9,-1.0,*48
$IIGLL,4630.081,N,00641.062,E,163659,A,A*51
$IIHDG,271,,,01,E*17
$IIMTW,+13.5,C*3F
$IIMWV,198,R,05.3,N,A*15
$IIMWV,198,T,05.5,N,A*15
$IIRMC,163700,A,4630.081,N,00641.062,E,00.0,135,180614,01,E,A*0C
$IIVHW,,,271,M,00.1,N,,*61
$IIVLW,01517,N,000.0,N*51
$IIVWR,162,L,05.3,N,,,,*7C
$IIDPT,001.9,-1.0,*48
$IIGLL,4630.081,N,00641.062,E,163700,A,A*5C
$IIHDG,271,,,01,E*17
$IIMTW,+13.5,C*3F
$IIMWV,202,R,05.3,N,A*15
$IIMWV,197,T,05.3,N,A*1C
$IIRMC,163701,A,4630.081,N,00641.062,E,00.0,135,180614,01,E,A*0D
$IIVHW,,,271,M,00.0,N,,*60
$IIVLW,01517,N,000.0,N*51
$IIVWR,158,L,05.3,N,,,,*75
$IIDPT,001.9,-1.0,*48
$IIGLL,4630.081,N,00641.062,E,163702,A,A*5E
$IIHDG,271,,,01,E*17
$IIMTW,+13.5,C*3F
$IIMWV,204,R,05.5,N,A*15
$IIMWV,201,T,05.3,N,A*10
$IIRMC,163702,A,4630.081,N,00641.062,E,00.0,135,180614,01,E,A*0E
$IIVHW,,,271,M,00.0,N,,*60
$IIVLW,01517,N,000.0,N*51
$IIVWR,156,L,05.5,N,,,,*7D
$IIDPT,001.9,-1.0,*48
$IIGLL,4630.081,N,00641.062,E,163703,A,A*5F
$IIHDG,271,,,01,E*17
$IIMTW,+13.5,C*3F
$IIMWV,205,R,05.4,N,A*15
$IIMWV,203,T,05.5,N,A*14
$IIRMC,163703,A,4630.081,N,00641.062,E,00.0,135,180614,01,E,A*0F
$IIVHW,,,271,M,00.0,N,,*60
$IIVLW,01517,N,000.0,N*51
$IIVWR,154,L,06.0,N,,,,*79
$IIDPT,001.9,-1.0,*48
$IIGLL,4630.081,N,00641.062,E,163704,A,A*58
$IIHDG,271,,,01,E*17
$IIMTW,+13.5,C*3F
$IIMWV,206,R,06.0,N,A*11
$IIMWV,204,T,05.4,N,A*12
$IIRMC,163704,A,4630.081,N,00641.062,E,00.0,135,180614,01,E,A*08
$IIVHW,,,271,M,00.0,N,,*60
$IIVLW,01517,N,000.0,N*51
$IIVWR,154,L,06.2,N,,,,*7B
$IIDPT,001.9,-1.0,*48
$IIGLL,4630.081,N,00641.062,E,163705,A,A*59
$IIHDG,271,,,01,E*17
$IIMTW,+13.5,C*3F
$IIMWV,206,R,06.2,N,A*13
$IIMWV,205,T,06.0,N,A*14
$IIRMC,163705,A,4630.081,N,00641.062,E,00.0,135,180614,01,E,A*09
$IIVHW,,,271,M,00.0,N,,*60
$IIVLW,01517,N,000.0,N*51
$IIVWR,154,L,06.2,N,,,,*7B
$IIDPT,001.9,-1.0,*48
$IIGLL,4630.081,N,00641.062,E,163706,A,A*5A
$IIHDG,271,,,01,E*17
$IIMTW,+13.5,C*3F
$IIMWV,206,R,06.2,N,A*13
$IIMWV,206,T,06.2,N,A*15
$IIRMC,163707,A,4630.081,N,00641.062,E,00.0,135,180614,01,E,A*0B
$IIVHW,,,271,M,00.0,N,,*60
$IIVLW,01517,N,000.0,N*51
$IIVWR,154,L,06.3,N,,,,*7A
$IIDPT,001.9,-1.0,*48
$IIGLL,4630.081,N,00641.062,E,163707,A,A*5B
$IIHDG,271,,,01,E*17
$IIMTW,+13.5,C*3F
$IIMWV,206,R,06.3,N,A*12
$IIMWV,206,T,06.3,N,A*14
$IIRMC,163708,A,4630.081,N,00641.062,E,00.0,135,180614,01,E,A*04
$IIVHW,,,271,M,00.0,N,,*60
$IIVLW,01517,N,000.0,N*51
$IIVWR,153,L,07.2,N,,,,*7D
$IIDPT,001.9,-1.0,*48
$IIGLL,4630.081,N,00641.062,E,163708,A,A*54
$IIHDG,271,,,01,E*17
$IIMTW,+13.5,C*3F
$IIMWV,206,R,06.9,N,A*18
$IIMWV,207,T,07.2,N,A*15
$IIRMC,163709,A,4630.081,N,00641.062,E,00.0,135,180614,01,E,A*05
$IIVHW,,,271,M,00.0,N,,*60
$IIVLW,01517,N,000.0,N*51
$IIVWR,154,L,06.9,N,,,,*70
$IIDPT,001.9,-1.0,*48
$IIGLL,4630.081,N,00641.062,E,163709,A,A*55
$IIHDG,271,,,01,E*17
$IIMTW,+13.5,C*3F
$IIMWV,207,R,07.4,N,A*15
$IIMWV,206,T,06.9,N,A*1E
$IIRMC,163710,A,4630.081,N,00641.062,E,00.0,135,180614,01,E,A*0D
$IIVHW,,,271,M,00.0,N,,*60
$IIVLW,01517,N,000.0,N*51
$IIVWR,153,L,07.4,N,,,,*7B
$IIDPT,001.9,-1.0,*48
$IIGLL,4630.081,N,00641.062,E,163710,A,A*5D
$IIHDG,271,,,01,E*17
$IIMTW,+13.5,C*3F
$IIMWV,207,R,07.0,N,A*11
$IIMWV,207,T,07.4,N,A*13
$IIRMC,163711,A,4630.081,N,00641.062,E,00.0,135,180614,01,E,A*0C
$IIVHW,,,271,M,00.0,N,,*60
$IIVLW,01517,N,000.0,N*51
$IIVWR,153,L,07.0,N,,,,*7F
$IIDPT,001.9,-1.0,*48
$IIGLL,4630.081,N,00641.062,E,163712,A,A*5F
$IIHDG,271,,,01,E*17
$IIMTW,+13.5,C*3F
$IIMWV,204,R,06.8,N,A*1B
$IIMWV,207,T,07.0,N,A*17
$IIRMC,163712,A,4630.081,N,00641.062,E,00.0,135,180614,01,E,A*0F
$IIVHW,,,271,M,00.0,N,,*60
$IIVLW,01517,N,000.0,N*51
$IIVWR,156,L,06.8,N,,,,*73
$IIDPT,001.9,-1.0,*48
$IIGLL,4630.081,N,00641.062,E,163713,A,A*5E
$IIHDG,271,,,01,E*17
$IIMTW,+13.5,C*3F
$IIMWV,200,R,06.5,N,A*12
$IIMWV,204,T,06.8,N,A*1D
$IIRMC,163713,A,4630.081,N,00641.062,E,00.0,135,180614,01,E,A*0E
$IIVHW,,,271,M,00.0,N,,*60
$IIVLW,01517,N,000.0,N*51
$IIVWR,157,L,07.3,N,,,,*78
$IIDPT,001.9,-1.0,*48
$IIGLL,4630.081,N,00641.062,E,163714,A,A*59
$IIHDG,271,,,01,E*17
$IIMTW,+13.5,C*3F
$IIMWV,203,R,07.3,N,A*16
$IIMWV,200,T,06.5,N,A*14
$IIRMC,163714,A,4630.081,N,00641.062,E,00.0,135,180614,01,E,A*09
$IIVHW,,,271,M,00.0,N,,*60
$IIVLW,01517,N,000.0,N*51
$IIVWR,155,L,06.9,N,,,,*71
$IIDPT,001.9,-1.0,*48
$IIGLL,4630.081,N,00641.062,E,163715,A,A*58
$IIHDG,271,,,01,E*17
$IIMTW,+13.5,C*3F
$IIMWV,205,R,06.9,N,A*1B
$IIMWV,203,T,07.3,N,A*10
$IIRMC,163715,A,4630.081,N,00641.062,E,00.0,135,180614,01,E,A*08
$IIVHW,,,271,M,00.0,N,,*60
$IIVLW,01517,N,000.0,N*51
$IIVWR,154,L,06.8,N,,,,*71
$IIDPT,001.9,-1.0,*48
$IIGLL,4630.081,N,00641.062,E,163716,A,A*5B
$IIHDG,271,,,01,E*17
$IIMTW,+13.5,C*3F
$IIMWV,206,R,06.8,N,A*19
$IIMWV,205,T,06.9,N,A*1D
$IIRMC,163717,A,4630.081,N,00641.062,E,00.0,135,180614,01,E,A*0A
$IIVHW,,,271,M,00.0,N,,*60
$IIVLW,01517,N,000.0,N*51
$IIVWR,158,L,06.6,N,,,,*73
$IIDPT,001.9,-1.0,*48
$IIGLL,4630.081,N,00641.062,E,163717,A,A*5A
$IIHDG,271,,,01,E*17
$IIMTW,+13.5,C*3F
$IIMWV,202,R,06.6,N,A*13
$IIMWV,202,T,06.6,N,A*15
$IIRMC,163718,A,4630.081,N,00641.062,E,00.0,135,180614,01,E,A*05
$IIVHW,,,271,M,00.0,N,,*60
$IIVLW,01517,N,000.0,N*51
$IIVWR,160,L,06.7,N,,,,*79
$IIDPT,001.9,-1.0,*48
$IIGLL,4630.081,N,00641.062,E,163718,A,A*55
$IIHDG,271,,,01,E*17
$IIMTW,+13.5,C*3F
$IIMWV,202,R,06.0,N,A*15
$IIMWV,200,T,06.7,N,A*16
$IIRMC,163719,A,4630.081,N,00641.062,E,00.0,135,180614,01,E,A*04
$IIVHW,,,271,M,00.0,N,,*60
$IIVLW,01517,N,000.0,N*51
$IIVWR,158,L,06.0,N,,,,*75
$IIDPT,001.9,-1.0,*48
$IIGLL,4630.081,N,00641.062,E,163719,A,A*54
$IIHDG,271,,,01,E*17
$IIMTW,+13.5,C*3F
$IIMWV,200,R,06.3,N,A*14
$IIMWV,202,T,06.0,N,A*13
$IIRMC,163720,A,4630.081,N,00641.062,E,00.0,135,180614,01,E,A*0E
$IIVHW,,,271,M,00.0,N,,*60
$IIVLW,01517,N,000.0,N*51
$IIVWR,160,L,06.3,N,,,,*7D
$IIDPT,001.9,-1.0,*48
$IIGLL,4630.081,N,00641.062,E,163720,A,A*5E
$IIHDG,271,,,01,E*17
$IIMTW,+13.5,C*3F
$IIMWV,200,R,06.5,N,A*12
$IIMWV,200,T,06.3,N,A*12
$IIRMC,163721,A,4630.081,N,00641.062,E,00.0,135,180614,01,E,A*0F
$IIVHW,,,271,M,00.0,N,,*60
$IIVLW,01517,N,000.0,N*51
$IIVWR,160,L,06.5,N,,,,*7B
$IIDPT,001.9,-1.0,*48
$IIGLL,4630.081,N,00641.062,E,163722,A,A*5C
$IIHDG,271,,,01,E*17
$IIMTW,+13.5,C*3F
$IIMWV,197,R,07.0,N,A*1B
$IIMWV,200,T,06.5,N,A*14
$IIRMC,163722,A,4630.081,N,00641.062,E,00.0,135,180614,01,E,A*0C
$IIVHW,,,271,M,00.0,N,,*60
$IIVLW,01517,N,000.0,N*51
$IIVWR,163,L,07.0,N,,,,*7C
$IIDPT,001.9,-1.0,*48
$IIGLL,4630.081,N,00641.062,E,163723,A,A*5D
$IIHDG,271,,,01,E*17
$IIMTW,+13.5,C*3F
$IIMWV,198,R,06.7,N,A*12
$IIMWV,197,T,07.0,N,A*1D
$IIRMC,163723,A,4630.081,N,00641.062,E,00.0,135,180614,01,E,A*0D
$IIVHW,,,271,M,00.0,N,,*60
$IIVLW,01517,N,000.0,N*51
$IIVWR,157,L,06.4,N,,,,*7E
$IIDPT,001.9,-1.0,*48
$IIGLL,4630.081,N,00641.062,E,163724,A,A*5A
$IIHDG,271,,,01,E*17
$IIMTW,+13.5,C*3F
$IIMWV,203,R,06.4,N,A*10
$IIMWV,198,T,06.7,N,A*14
$IIRMC,163724,A,4630.081,N,00641.062,E,00.0,135,180614,01,E,A*0A
$IIVHW,,,271,M,00.0,N,,*60
$IIVLW,01517,N,000.0,N*51
$IIVWR,156,L,06.3,N,,,,*78
$IIDPT,001.9,-1.0,*48
$IIGLL,4630.081,N,00641.062,E,163725,A,A*5B
$IIHDG,271,,,01,E*17
$IIMTW,+13.5,C*3F
$IIMWV,204,R,06.3,N,A*10
$IIMWV,203,T,06.4,N,A*16
$IIRMC,163725,A,4630.081,N,00641.062,E,00.0,135,180614,01,E,A*0B
$IIVHW,,,271,M,00.0,N,,*60
$IIVLW,01517,N,000.0,N*51
$IIVWR,156,L,06.4,N,,,,*7F
$IIDPT,001.9,-1.0,*48
$IIGLL,4630.081,N,00641.062,E,163726,A,A*58
$IIHDG,271,,,01,E*17
$IIMTW,+13.5,C*3F
$IIMWV,204,R,06.4,N,A*17
$IIMWV,204,T,06.3,N,A*16
$IIRMC,163727,A,4630.081,N,00641.062,E,00.0,135,180614,01,E,A*09
$IIVHW,,,270,M,00.0,N,,*61
$IIVLW,01517,N,000.0,N*51
$IIVWR,157,L,05.7,N,,,,*7E
$IIDPT,001.9,-1.0,*48
$IIGLL,4630.081,N,00641.062,E,163727,A,A*59
$IIHDG,270,,,01,E*16
$IIMTW,+13.5,C*3F
$IIMWV,203,R,05.7,N,A*10
$IIMWV,203,T,05.7,N,A*16
$IIRMC,163728,A,4630.081,N,00641.062,E,00.0,135,180614,01,E,A*06
$IIVHW,,,270,M,00.0,N,,*61
$IIVLW,01517,N,000.0,N*51
$IIVWR,157,L,05.5,N,,,,*7C
$IIDPT,001.9,-1.0,*48
$IIGLL,4630.081,N,00641.062,E,163728,A,A*56
$IIHDG,270,,,01,E*16
$IIMTW,+13.5,C*3F
$IIMWV,208,R,06.3,N,A*1C
$IIMWV,203,T,05.5,N,A*14
$IIRMC,163729,A,4630.081,N,00641.062,E,00.0,135,180614,01,E,A*07
$IIVHW,,,270,M,00.0,N,,*61
$IIVLW,01517,N,000.0,N*51
$IIVWR,152,L,06.3,N,,,,*7C
$IIDPT,001.9,-1.0,*48
$IIGLL,4630.081,N,00641.062,E,163729,A,A*57
$IIHDG,270,,,01,E*16
$IIMTW,+13.5,C*3F
$IIMWV,204,R,06.6,N,A*15
$IIMWV,208,T,06.3,N,A*1A
$IIRMC,163730,A,4630.081,N,00641.061,E,00.0,135,180614,01,E,A*0C
$IIVHW,,,269,M,00.0,N,,*69
$IIVLW,01517,N,000.0,N*51
$IIVWR,156,L,06.6,N,,,,*7D
$IIDPT,001.9,-1.0,*48
$IIGLL,4630.081,N,00641.061,E,163730,A,A*5C
$IIHDG,269,,,01,E*1E
$IIMTW,+13.5,C*3F
$IIMWV,206,R,07.5,N,A*15
$IIMWV,204,T,06.6,N,A*13
$IIRMC,163731,A,4630.081,N,00641.061,E,00.0,135,180614,01,E,A*0D
$IIVHW,,,269,M,00.0,N,,*69
$IIVLW,01517,N,000.0,N*51
$IIVWR,154,L,07.5,N,,,,*7D
$IIDPT,001.9,-1.0,*48
$IIGLL,4630.081,N,00641.061,E,163732,A,A*5E
$IIHDG,269,,,01,E*1E
$IIMTW,+13.5,C*3F
$IIMWV,205,R,07.7,N,A*14
$IIMWV,206,T,07.5,N,A*13
$IIRMC,163732,A,4630.081,N,00641.061,E,00.0,135,180614,01,E,A*0E
$IIVHW,,,269,M,00.0,N,,*69
$IIVLW,01517,N,000.0,N*51
$IIVWR,155,L,07.7,N,,,,*7E
$IIDPT,001.9,-1.0,*48
$IIGLL,4630.081,N,00641.061,E,163733,A,A*5F
$IIHDG,269,,,01,E*1E
$IIMTW,+13.5,C*3F
$IIMWV,205,R,07.8,N,A*1B
$IIMWV,205,T,07.7,N,A*12
$IIRMC,163733,A,4630.081,N,00641.061,E,00.0,135,180614,01,E,A*0F
$IIVHW,,,269,M,00.0,N,,*69
$IIVLW,01517,N,000.0,N*51
$IIVWR,156,L,07.9,N,,,,*73
$IIDPT,001.9,-1.0,*48
$IIGLL,4630.081,N,00641.061,E,163734,A,A*58
$IIHDG,269,,,01,E*1E
$IIMTW,+13.5,C*3F
$IIMWV,204,R,07.9,N,A*1B
$IIMWV,205,T,07.8,N,A*1D
$IIRMC,163734,A,4630.081,N,00641.061,E,00.0,135,180614,01,E,A*08
$IIVHW,,,269,M,00.0,N,,*69
$IIVLW,01517,N,000.0,N*51
$IIVWR,155,L,08.3,N,,,,*75
$IIDPT,001.9,-1.0,*48
$IIGLL,4630.081,N,00641.061,E,163735,A,A*59
$IIHDG,269,,,01,E*1E
$IIMTW,+13.5,C*3F
$IIMWV,205,R,08.3,N,A*1F
$IIMWV,204,T,07.9,N,A*1D
$IIRMC,163735,A,4630.081,N,00641.061,E,00.0,135,180614,01,E,A*09
$IIVHW,,,269,M,00.0,N,,*69
$IIVLW,01517,N,000.0,N*51
$IIVWR,157,L,08.0,N,,,,*74
$IIDPT,001.9,-1.0,*48
$IIGLL,4630.082,N,00641.061,E,163736,A,A*59
$IIHDG,269,,,01,E*1E
$IIMTW,+13.5,C*3F
$IIMWV,203,R,08.0,N,A*1A
$IIMWV,205,T,08.3,N,A*19
$IIRMC,163737,A,4630.082,N,00641.061,E,00.0,135,180614,01,E,A*08
$IIVHW,,,269,M,00.0,N,,*69
$IIVLW,01517,N,000.0,N*51
$IIVWR,157,L,07.6,N,,,,*7D
$IIDPT,001.9,-1.0,*48
$IIGLL,4630.082,N,00641.061,E,163737,A,A*58
$IIHDG,269,,,01,E*1E
$IIMTW,+13.5,C*3F
$IIMWV,203,R,07.6,N,A*13
$IIMWV,203,T,07.6,N,A*15
$IIRMC,163738,A,4630.082,N,00641.061,E,00.0,135,180614,01,E,A*07
$IIVHW,,,269,M,00.0,N,,*69
$IIVLW,01517,N,000.0,N*51
$IIVWR,155,L,07.4,N,,,,*7D
$IIDPT,001.9,-1.0,*48
$IIGLL,4630.082,N,00641.061,E,163738,A,A*57
$IIHDG,269,,,01,E*1E
$IIMTW,+13.5,C*3F
$IIMWV,206,R,07.4,N,A*14
$IIMWV,205,T,07.4,N,A*11
$IIRMC,163739,A,4630.082,N,00641.061,E,00.0,135,180614,01,E,A*06
$IIVHW,,,269,M,00.0,N,,*69
$IIVLW,01517,N,000.0,N*51
$IIVWR,154,L,07.4,N,,,,*7C
$IIDPT,001.9,-1.0,*48
$IIGLL,4630.082,N,00641.061,E,163739,A,A*56
$IIHDG,269,,,01,E*1E
$IIMTW,+13.5,C*3F
$IIMWV,208,R,08.2,N,A*13
$IIMWV,206,T,07.4,N,A*12
$IIRMC,163740,A,4630.082,N,00641.061,E,00.0,135,180614,01,E,A*08
$IIVHW,,,268,M,00.0,N,,*68
$IIVLW,01517,N,000.0,N*51
$IIVWR,152,L,08.2,N,,,,*73
$IIDPT,001.9,-1.0,*48
$IIGLL,4630.082,N,00641.061,E,163740,A,A*58
$IIHDG,268,,,01,E*1F
$IIMTW,+13.5,C*3F
$IIMWV,208,R,08.0,N,A*11
$IIMWV,208,T,08.2,N,A*15
$IIRMC,163741,A,4630.082,N,00641.061,E,00.0,135,180614,01,E,A*09
$IIVHW,,,268,M,00.0,N,,*68
$IIVLW,01517,N,000.0,N*51
$IIVWR,152,L,08.0,N,,,,*71
$IIDPT,001.9,-1.0,*48
$IIGLL,4630.082,N,00641.061,E,163742,A,A*5A
$IIHDG,266,,,01,E*11
$IIMTW,+13.5,C*3F
$IIMWV,208,R,07.7,N,A*19
$IIMWV,208,T,08.0,N,A*17
$IIRMC,163742,A,4630.082,N,00641.061,E,00.0,135,180614,01,E,A*0A
$IIVHW,,,266,M,00.0,N,,*66
$IIVLW,01517,N,000.0,N*51
$IIVWR,152,L,07.7,N,,,,*79
$IIDPT,001.9,-1.0,*48
$IIGLL,4630.082,N,00641.061,E,163743,A,A*5B
$IIHDG,265,,,01,E*12
$IIMTW,+13.5,C*3F
$IIMWV,209,R,07.7,N,A*18
$IIMWV,208,T,07.7,N,A*1F
$IIRMC,163743,A,4630.082,N,00641.061,E,00.0,135,180614,01,E,A*0B
$IIVHW,,,265,M,00.0,N,,*65
$IIVLW,01517,N,000.0,N*51
$IIVWR,149,L,08.2,N,,,,*79
$IIDPT,001.9,-1.0,*48
$IIGLL,4630.082,N,00641.061,E,163744,A,A*5C
$IIHDG,265,,,01,E*12
$IIMTW,+13.5,C*3F
$IIMWV,211,R,08.2,N,A*1B
$IIMWV,209,T,07.7,N,A*1E
$IIRMC,163744,A,4630.082,N,00641.061,E,00.0,135,180614,01,E,A*0C
$IIVHW,,,265,M,00.0,N,,*65
$IIVLW,01517,N,000.0,N*51
$IIVWR,149,L,09.0,N,,,,*7A
$IIDPT,001.9,-1.0,*48
$IIGLL,4630.082,N,00641.061,E,163745,A,A*5D
$IIHDG,265,,,01,E*12
$IIMTW,+13.5,C*3F
$IIMWV,211,R,09.0,N,A*18
$IIMWV,211,T,08.2,N,A*1D
$IIRMC,163745,A,4630.082,N,00641.061,E,00.0,135,180614,01,E,A*0D
$IIVHW,,,264,M,00.0,N,,*64
$IIVLW,01517,N,000.0,N*51
$IIVWR,149,L,08.6,N,,,,*7D
$IIDPT,001.9,-1.0,*48
$IIGLL,4630.082,N,00641.061,E,163746,A,A*5E
$IIHDG,264,,,01,E*13
$IIMTW,+13.5,C*3F
$IIMWV,211,R,08.6,N,A*1F
$IIMWV,211,T,09.0,N,A*1E
$IIRMC,163747,A,4630.082,N,00641.061,E,00.0,135,180614,01,E,A*0F
$IIVHW,,,263,M,00.0,N,,*63
$IIVLW,01517,N,000.0,N*51
$IIVWR,146,L,08.9,N,,,,*7D
$IIDPT,001.9,-1.0,*48
$IIGLL,4630.082,N,00641.061,E,163747,A,A*5F
$IIHDG,263,,,01,E*14
$IIMTW,+13.5,C*3F
$IIMWV,214,R,08.9,N,A*15
$IIMWV,214,T,08.9,N,A*13
$IIRMC,163748,A,4630.082,N,00641.061,E,00.0,135,180614,01,E,A*00
$IIVHW,,,262,M,00.0,N,,*62
$IIVLW,01517,N,000.0,N*51
$IIVWR,150,L,09.8,N,,,,*7A
$IIDPT,001.9,-1.0,*48
$IIGLL,4630.082,N,00641.061,E,163748,A,A*50
$IIHDG,262,,,01,E*15
$IIMTW,+13.5,C*3F
$IIMWV,209,R,09.0,N,A*11
$IIMWV,210,T,09.8,N,A*17
$IIRMC,163749,A,4630.082,N,00641.061,E,00.0,135,180614,01,E,A*01
$IIVHW,,,261,M,00.0,N,,*61
$IIVLW,01517,N,000.0,N*51
$IIVWR,151,L,09.0,N,,,,*73
$IIDPT,001.9,-1.0,*48
$IIGLL,4630.082,N,00641.061,E,163749,A,A*51
$IIHDG,261,,,01,E*16
$IIMTW,+13.5,C*3F
$IIMWV,213,R,08.6,N,A*1D
$IIMWV,209,T,09.0,N,A*17
$IIRMC,163750,A,4630.082,N,00641.061,E,00.0,135,180614,01,E,A*09
$IIVHW,,,261,M,00.0,N,,*61
$IIVLW,01517,N,000.0,N*51
$IIVWR,147,L,08.6,N,,,,*73
$IIDPT,001.9,-1.0,*48
$IIGLL,4630.082,N,00641.061,E,163750,A,A*59
$IIHDG,260,,,01,E*17
$IIMTW,+13.5,C*3F
$IIMWV,212,R,08.9,N,A*13
$IIMWV,213,T,08.6,N,A*1B
$IIRMC,163751,A,4630.082,N,00641.062,E,00.0,135,180614,01,E,A*0B
$IIVHW,,,260,M,00.0,N,,*60
$IIVLW,01517,N,000.0,N*51
$IIVWR,148,L,08.9,N,,,,*73
$IIDPT,001.9,-1.0,*48
$IIGLL,4630.082,N,00641.062,E,163752,A,A*58
$IIHDG,260,,,01,E*17
$IIMTW,+13.5,C*3F
$IIMWV,210,R,08.6,N,A*1E
$IIMWV,212,T,08.9,N,A*15
$IIRMC,163752,A,4630.082,N,00641.062,E,00.0,135,180614,01,E,A*08
$IIVHW,,,260,M,00.0,N,,*60
$IIVLW,01517,N,000.0,N*51
$IIVWR,150,L,08.6,N,,,,*75
$IIDPT,001.9,-1.0,*48
$IIGLL,4630.083,N,00641.062,E,163753,A,A*58
$IIHDG,259,,,01,E*1D
$IIMTW,+13.5,C*3F
$IIMWV,211,R,09.4,N,A*1C
$IIMWV,210,T,08.6,N,A*18
$IIRMC,163753,A,4630.083,N,00641.062,E,00.0,135,180614,01,E,A*08
$IIVHW,,,259,M,00.0,N,,*6A
$IIVLW,01517,N,000.0,N*51
$IIVWR,150,L,08.8,N,,,,*7B
$IIDPT,002.1,-1.0,*43
$IIGLL,4630.083,N,00641.062,E,163754,A,A*5F
$IIHDG,259,,,01,E*1D
$IIMTW,+13.5,C*3F
$IIMWV,210,R,08.8,N,A*10
$IIMWV,211,T,09.4,N,A*1A
$IIRMC,163754,A,4630.083,N,00641.062,E,00.0,135,180614,01,E,A*0F
$IIVHW,,,259,M,00.0,N,,*6A
$IIVLW,01517,N,000.0,N*51
$IIVWR,152,L,08.6,N,,,,*77
$IIDPT,002.1,-1.0,*43
$IIGLL,4630.083,N,00641.062,E,163755,A,A*5E
$IIHDG,258,,,01,E*1C
$IIMTW,+13.5,C*3F
$IIMWV,208,R,08.6,N,A*17
$IIMWV,210,T,08.8,N,A*16
$IIRMC,163755,A,4630.083,N,00641.062,E,00.0,135,180614,01,E,A*0E
$IIVHW,,,258,M,00.0,N,,*6B
$IIVLW,01517,N,000.0,N*51
$IIVWR,150,L,08.1,N,,,,*72
$IIDPT,002.4,-1.0,*46
$IIGLL,4630.083,N,00641.062,E,163756,A,A*5D
$IIHDG,258,,,01,E*1C
$IIMTW,+13.5,C*3F
$IIMWV,210,R,08.1,N,A*19
$IIMWV,208,T,08.6,N,A*11
$IIRMC,163757,A,4630.083,N,00641.062,E,00.0,135,180614,01,E,A*0C
$IIVHW,,,258,M,00.0,N,,*6B
$IIVLW,01517,N,000.0,N*51
$IIVWR,148,L,08.4,N,,,,*7E
$IIDPT,002.3,-1.0,*41
$IIGLL,4630.083,N,00641.062,E,163757,A,A*5C
$IIHDG,258,,,01,E*1C
$IIMTW,+13.5,C*3F
$IIMWV,212,R,08.4,N,A*1E
$IIMWV,212,T,08.4,N,A*18
$IIRMC,163758,A,4630.083,N,00641.062,E,00.0,135,180614,01,E,A*03
$IIVHW,,,258,M,00.0,N,,*6B
$IIVLW,01517,N,000.0,N*51
$IIVWR,148,L,08.9,N,,,,*73
$IIDPT,002.1,-1.0,*43
$IIGLL,4630.083,N,00641.062,E,163758,A,A*53
$IIHDG,258,,,01,E*1C
$IIMTW,+13.5,C*3F
$IIMWV,215,R,08.6,N,A*1B
$IIMWV,212,T,08.9,N,A*15
$IIRMC,163759,A,4630.083,N,00641.062,E,00.0,135,180614,01,E,A*02
$IIVHW,,,257,M,00.0,N,,*64
$IIVLW,01517,N,000.0,N*51
$IIVWR,145,L,08.6,N,,,,*71
$IIDPT,002.1,-1.0,*43
$IIGLL,4630.083,N,00641.062,E,163759,A,A*52
$IIHDG,257,,,01,E*13
$IIMTW,+13.5,C*3F
$IIMWV,215,R,08.5,N,A*18
$IIMWV,215,T,08.6,N,A*1D
$IIRMC,163800,A,4630.084,N,00641.062,E,00.0,135,180614,01,E,A*06
$IIVHW,,,257,M,00.0,N,,*64
$IIVLW,01517,N,000.0,N*51
$IIVWR,145,L,08.5,N,,,,*72
$IIDPT,002.1,-1.0,*43
$IIGLL,4630.084,N,00641.062,E,163800,A,A*56
$IIHDG,255,,,01,E*11
$IIMTW,+13.5,C*3F
$IIMWV,218,R,09.0,N,A*11
$IIMWV,215,T,08.5,N,A*1E
$IIRMC,163801,A,4630.084,N,00641.063,E,00.0,135,180614,01,E,A*06
$IIVHW,,,255,M,00.0,N,,*66
$IIVLW,01517,N,000.0,N*51
$IIVWR,142,L,09.0,N,,,,*71
$IIDPT,002.1,-1.0,*43
$IIGLL,4630.084,N,00641.063,E,163802,A,A*55
$IIHDG,254,,,01,E*10
$IIMTW,+13.5,C*3F
$IIMWV,223,R,09.9,N,A*10
$IIMWV,218,T,09.0,N,A*17
$IIRMC,163802,A,4630.084,N,00641.063,E,00.0,135,180614,01,E,A*05
$IIVHW,,,254,M,00.0,N,,*67
$IIVLW,01517,N,000.0,N*51
$IIVWR,137,L,09.9,N,,,,*7A
$IIDPT,002.1,-1.0,*43
$IIGLL,4630.084,N,00641.063,E,163803,A,A*54
$IIHDG,253,,,01,E*17
$IIMTW,+13.5,C*3F
$IIMWV,224,R,09.7,N,A*19
$IIMWV,223,T,09.9,N,A*16
$IIRMC,163803,A,4630.084,N,00641.063,E,00.0,135,180614,01,E,A*04
$IIVHW,,,253,M,00.0,N,,*60
$IIVLW,01517,N,000.0,N*51
$IIVWR,135,L,09.4,N,,,,*75
$IIDPT,002.0,-1.0,*42
$IIGLL,4630.084,N,00641.063,E,163804,A,A*53
$IIHDG,250,,,01,E*14
$IIMTW,+13.5,C*3F
$IIMWV,225,R,09.4,N,A*1B
$IIMWV,224,T,09.7,N,A*1F
$IIRMC,163804,A,4630.084,N,00641.063,E,00.5,318,180614,01,E,A*0B
$IIVHW,,,250,M,00.0,N,,*63
$IIVLW,01517,N,000.0,N*51
$IIVWR,130,L,09.3,N,,,,*77
$IIDPT,002.0,-1.0,*42
$IIGLL,4630.084,N,00641.063,E,163805,A,A*52
$IIHDG,249,,,01,E*1C
$IIMTW,+13.5,C*3F
$IIMWV,230,R,09.3,N,A*18
$IIMWV,225,T,09.4,N,A*1D
$IIRMC,163805,A,4630.084,N,00641.063,E,00.5,318,180614,01,E,A*0A
$IIVHW,,,246,M,00.0,N,,*64
$IIVLW,01517,N,000.0,N*51
$IIVWR,126,L,09.8,N,,,,*7B
$IIDPT,002.0,-1.0,*42
$IIGLL,4630.084,N,00641.063,E,163806,A,A*51
$IIHDG,246,,,01,E*13
$IIMTW,+13.5,C*3F
$IIMWV,234,R,09.8,N,A*17
$IIMWV,230,T,09.3,N,A*1E
$IIRMC,163808,A,4630.084,N,00641.063,E,00.0,042,180614,01,E,A*0E
$IIVHW,,,242,M,00.0,N,,*60
$IIVLW,01517,N,000.0,N*51
$IIVWR,123,L,10.2,N,,,,*7C
$IIDPT,002.0,-1.0,*42
$IIGLL,4630.084,N,00641.063,E,163808,A,A*5F
$IIHDG,242,,,01,E*17
$IIMTW,+13.5,C*3F
$IIMWV,237,R,10.2,N,A*16
$IIMWV,237,T,10.2,N,A*10
$IIRMC,163809,A,4630.085,N,00641.063,E,00.7,080,180614,01,E,A*07
$IIVHW,,,241,M,00.0,N,,*63
$IIVLW,01517,N,000.0,N*51
$IIVWR,122,L,09.8,N,,,,*7F
$IIDPT,002.0,-1.0,*42
$IIGLL,4630.085,N,00641.063,E,163809,A,A*5F
$IIHDG,241,,,01,E*14
$IIMTW,+13.5,C*3F
$IIMWV,243,R,09.4,N,A*1B
$IIMWV,238,T,09.8,N,A*1D
$IIRMC,163810,A,4630.085,N,00641.063,E,00.0,080,180614,01,E,A*08
$IIVHW,,,239,M,00.0,N,,*6C
$IIVLW,01517,N,000.0,N*51
$IIVWR,117,L,09.4,N,,,,*75
$IIDPT,002.2,-1.0,*40
$IIGLL,4630.085,N,00641.063,E,163810,A,A*57
$IIHDG,239,,,01,E*1B
$IIMTW,+13.5,C*3F
$IIMWV,244,R,09.9,N,A*11
$IIMWV,243,T,09.4,N,A*1D
$IIRMC,163811,A,4630.085,N,00641.063,E,00.6,074,180614,01,E,A*04
$IIVHW,,,238,M,00.0,N,,*6D
$IIVLW,01517,N,000.0,N*51
$IIVWR,116,L,09.9,N,,,,*79
$IIDPT,002.2,-1.0,*40
$IIGLL,4630.085,N,00641.063,E,163811,A,A*56
$IIHDG,236,,,01,E*14
$IIMTW,+13.5,C*3F
$IIMWV,245,R,09.8,N,A*11
$IIMWV,244,T,09.9,N,A*17
$IIRMC,163812,A,4630.085,N,00641.064,E,00.7,071,180614,01,E,A*04
$IIVHW,,,236,M,00.0,N,,*63
$IIVLW,01517,N,000.0,N*51
$IIVWR,115,L,09.8,N,,,,*7B
$IIDPT,002.1,-1.0,*43
$IIGLL,4630.085,N,00641.064,E,163813,A,A*53
$IIHDG,234,,,01,E*16
$IIMTW,+13.5,C*3F
$IIMWV,248,R,09.8,N,A*1C
$IIMWV,245,T,09.8,N,A*17
$IIRMC,163813,A,4630.085,N,00641.064,E,00.7,069,180614,01,E,A*0C
$IIVHW,,,234,M,00.0,N,,*61
$IIVLW,01517,N,000.0,N*51
$IIVWR,112,L,09.8,N,,,,*7C
$IIDPT,002.1,-1.0,*43
$IIGLL,4630.085,N,00641.064,E,163814,A,A*54
$IIHDG,233,,,01,E*11
$IIMTW,+13.5,C*3F
$IIMWV,247,R,09.6,N,A*1D
$IIMWV,248,T,09.8,N,A*1A
$IIRMC,163814,A,4630.085,N,00641.064,E,00.7,068,180614,01,E,A*0A
$IIVHW,,,233,M,00.0,N,,*66
$IIVLW,01517,N,000.0,N*51
$IIVWR,111,L,10.0,N,,,,*7F
$IIDPT,002.1,-1.0,*43
$IIGLL,4630.085,N,00641.064,E,163815,A,A*55
$IIHDG,232,,,01,E*10
$IIMTW,+13.5,C*3F
$IIMWV,249,R,10.0,N,A*1D
$IIMWV,247,T,09.6,N,A*1B
$IIRMC,163815,A,4630.085,N,00641.064,E,00.7,068,180614,01,E,A*0B
$IIVHW,,,232,M,00.0,N,,*67
$IIVLW,01517,N,000.0,N*51
$IIVWR,110,L,09.0,N,,,,*76
$IIDPT,002.1,-1.0,*43
$IIGLL,4630.086,N,00641.065,E,163816,A,A*54
$IIHDG,230,,,01,E*12
$IIMTW,+13.5,C*3F
$IIMWV,250,R,09.0,N,A*1D
$IIMWV,249,T,10.0,N,A*1B
$IIRMC,163816,A,4630.086,N,00641.065,E,00.8,065,180614,01,E,A*08
$IIVHW,,,227,M,00.0,N,,*63
$IIVLW,01517,N,000.0,N*51
$IIVWR,112,L,08.7,N,,,,*72
$IIDPT,002.1,-1.0,*43
$IIGLL,4630.086,N,00641.065,E,163817,A,A*55
$IIHDG,227,,,01,E*14
$IIMTW,+13.5,C*3F
$IIMWV,248,R,08.7,N,A*12
$IIMWV,250,T,09.0,N,A*1B
$IIRMC,163819,A,4630.086,N,00641.065,E,00.8,058,180614,01,E,A*09
$IIVHW,,,225,M,00.0,N,,*61
$IIVLW,01517,N,000.0,N*51
$IIVWR,106,L,09.2,N,,,,*73
$IIDPT,002.3,-1.0,*41
$IIGLL,4630.086,N,00641.065,E,163819,A,A*5B
$IIHDG,225,,,01,E*16
$IIMTW,+13.5,C*3F
$IIMWV,254,R,09.2,N,A*1B
$IIMWV,254,T,09.2,N,A*1D
$IIRMC,163820,A,4630.087,N,00641.065,E,00.8,053,180614,01,E,A*09
$IIVHW,,,223,M,00.0,N,,*67
$IIVLW,01517,N,000.0,N*51
$IIVWR,104,L,09.3,N,,,,*70
$IIDPT,002.2,-1.0,*40
$IIGLL,4630.087,N,00641.065,E,163820,A,A*50
$IIHDG,223,,,01,E*10
$IIMTW,+13.5,C*3F
$IIMWV,256,R,09.3,N,A*18
$IIMWV,256,T,09.3,N,A*1E
$IIRMC,163821,A,4630.087,N,00641.065,E,00.8,050,180614,01,E,A*0B
$IIVHW,,,222,M,00.0,N,,*66
$IIVLW,01517,N,000.0,N*51
$IIVWR,104,L,09.3,N,,,,*70
$IIDPT,002.2,-1.0,*40
$IIGLL,4630.087,N,00641.065,E,163821,A,A*51
$IIHDG,222,,,01,E*11
$IIMTW,+13.5,C*3F
$IIMWV,257,R,09.9,N,A*13
$IIMWV,256,T,09.3,N,A*1E
$IIRMC,163822,A,4630.087,N,00641.065,E,00.8,048,180614,01,E,A*01
$IIVHW,,,221,M,00.0,N,,*65
$IIVLW,01517,N,000.0,N*51
$IIVWR,103,L,09.9,N,,,,*7D
$IIDPT,002.2,-1.0,*40
$IIGLL,4630.087,N,00641.065,E,163822,A,A*52
$IIHDG,220,,,01,E*13
$IIMTW,+13.5,C*3F
$IIMWV,256,R,09.7,N,A*1C
$IIMWV,257,T,09.9,N,A*15
$IIRMC,163823,A,4630.088,N,00641.065,E,00.7,046,180614,01,E,A*0E
$IIVHW,,,220,M,00.0,N,,*64
$IIVLW,01517,N,000.0,N*51
$IIVWR,104,L,09.7,N,,,,*74
$IIDPT,002.4,-1.0,*46
$IIGLL,4630.088,N,00641.065,E,163824,A,A*5B
$IIHDG,220,,,01,E*13
$IIMTW,+13.5,C*3F
$IIMWV,261,R,09.7,N,A*18
$IIMWV,256,T,09.7,N,A*1A
$IIRMC,163824,A,4630.088,N,00641.065,E,00.7,044,180614,01,E,A*0B
$IIVHW,,,220,M,00.0,N,,*64
$IIVLW,01517,N,000.0,N*51
$IIVWR,099,L,09.7,N,,,,*71
$IIDPT,002.6,-1.0,*44
$IIGLL,4630.088,N,00641.065,E,163825,A,A*5A
$IIHDG,218,,,01,E*18
$IIMTW,+13.5,C*3F
$IIMWV,260,R,09.7,N,A*19
$IIMWV,261,T,09.7,N,A*1E
$IIRMC,163825,A,4630.088,N,00641.065,E,00.7,044,180614,01,E,A*0A
$IIVHW,,,218,M,00.0,N,,*6F
$IIVLW,01517,N,000.0,N*51
$IIVWR,096,L,09.7,N,,,,*7E
$IIDPT,002.2,-1.0,*40
$IIGLL,4630.089,N,00641.065,E,163826,A,A*58
$IIHDG,218,,,01,E*18
$IIMTW,+13.5,C*3F
$IIMWV,264,R,09.7,N,A*1D
$IIMWV,260,T,09.7,N,A*1F
$IIRMC,163826,A,4630.089,N,00641.065,E,00.7,038,180614,01,E,A*03
$IIVHW,,,218,M,00.0,N,,*6F
$IIVLW,01517,N,000.0,N*51
$IIVWR,098,L,08.9,N,,,,*7F
$IIDPT,002.1,-1.0,*43
$IIGLL,4630.089,N,00641.065,E,163827,A,A*59
$IIHDG,216,,,01,E*16
$IIMTW,+13.5,C*3F
$IIMWV,262,R,08.9,N,A*14
$IIMWV,264,T,09.7,N,A*1B
$IIRMC,163827,A,4630.089,N,00641.065,E,00.7,036,180614,01,E,A*0C
$IIVHW,,,216,M,00.0,N,,*61
$IIVLW,01517,N,000.0,N*51
$IIVWR,100,L,09.0,N,,,,*77
$IIDPT,002.1,-1.0,*43
$IIGLL,4630.089,N,00641.065,E,163828,A,A*56
$IIHDG,216,,,01,E*16
$IIMTW,+13.5,C*3F
$IIMWV,260,R,09.0,N,A*1E
$IIMWV,262,T,08.9,N,A*12
$IIRMC,163829,A,4630.089,N,00641.065,E,00.6,030,180614,01,E,A*05
$IIVHW,,,216,M,00.0,N,,*61
$IIVLW,01517,N,000.0,N*51
$IIVWR,102,L,09.5,N,,,,*70
$IIDPT,002.1,-1.0,*43
$IIGLL,4630.089,N,00641.065,E,163829,A,A*57
$IIHDG,216,,,01,E*16
$IIMTW,+13.5,C*3F
$IIMWV,258,R,09.5,N,A*10
$IIMWV,258,T,09.5,N,A*16
$IIRMC,163830,A,4630.090,N,00641.065,E,00.7,029,180614,01,E,A*0C
$IIVHW,,,216,M,00.0,N,,*61
$IIVLW,01517,N,000.0,N*51
$IIVWR,101,L,09.6,N,,,,*70
$IIDPT,002.1,-1.0,*43
$IIGLL,4630.090,N,00641.065,E,163830,A,A*57
$IIHDG,216,,,01,E*16
$IIMTW,+13.5,C*3F
$IIMWV,259,R,09.7,N,A*13
$IIMWV,259,T,09.6,N,A*14
$IIRMC,163831,A,4630.090,N,00641.065,E,00.6,027,180614,01,E,A*02
$IIVHW,,,215,M,00.0,N,,*62
$IIVLW,01517,N,000.0,N*51
$IIVWR,101,L,09.7,N,,,,*71
$IIDPT,002.1,-1.0,*43
$IIGLL,4630.090,N,00641.065,E,163831,A,A*56
$IIHDG,215,,,01,E*15
$IIMTW,+13.5,C*3F
$IIMWV,257,R,08.9,N,A*12
$IIMWV,259,T,09.7,N,A*15
$IIRMC,163832,A,4630.090,N,00641.065,E,00.6,025,180614,01,E,A*03
$IIVHW,,,215,M,00.0,N,,*62
$IIVLW,01517,N,000.0,N*51
$IIVWR,103,L,08.9,N,,,,*7C
$IIDPT,002.2,-1.0,*40
$IIGLL,4630.090,N,00641.065,E,163832,A,A*55
$IIHDG,215,,,01,E*15
$IIMTW,+13.5,C*3F
$IIMWV,256,R,08.6,N,A*1C
$IIMWV,257,T,08.9,N,A*14
$IIRMC,163833,A,4630.090,N,00641.065,E,00.6,022,180614,01,E,A*05
$IIVHW,,,215,M,00.0,N,,*62
$IIVLW,01517,N,000.0,N*51
$IIVWR,104,L,08.6,N,,,,*74
$IIDPT,002.3,-1.0,*41
$IIGLL,4630.091,N,00641.065,E,163834,A,A*52
$IIHDG,215,,,01,E*15
$IIMTW,+13.5,C*3F
$IIMWV,258,R,08.5,N,A*11
$IIMWV,256,T,08.6,N,A*1A
$IIRMC,163834,A,4630.091,N,00641.065,E,00.0,022,180614,01,E,A*05
$IIVHW,,,215,M,00.0,N,,*62
$IIVLW,01517,N,000.0,N*51
$IIVWR,102,L,08.5,N,,,,*71
$IIDPT,002.9,-1.0,*4B
$IIGLL,4630.091,N,00641.065,E,163834,A,A*52
$IIHDG,217,,,01,E*17
$IIMTW,+13.5,C*3F
$IIMWV,256,R,07.5,N,A*10
$IIMWV,258,T,08.5,N,A*17
$IIRMC,163834,A,4630.091,N,00641.065,E,00.0,022,180614,01,E,A*05
$IIVHW,,,217,M,00.0,N,,*60
$IIVLW,01517,N,000.0,N*51
$IIVWR,105,L,08.2,N,,,,*71
$IIDPT,002.8,-1.0,*4A
$IIGLL,4630.091,N,00641.065,E,163834,A,A*52
$IIHDG,217,,,01,E*17
$IIMTW,+13.5,C*3F
$IIMWV,255,R,08.2,N,A*1B
$IIMWV,256,T,07.5,N,A*16
$IIRMC,163834,A,4630.091,N,00641.065,E,00.0,022,180614,01,E,A*05
$IIVHW,,,217,M,00.0,N,,*60
$IIVLW,01517,N,000.0,N*51
$IIVWR,102,L,07.6,N,,,,*7D
$IIDPT,002.4,-1.0,*46
$IIGLL,4630.091,N,00641.065,E,163837,A,A*51
$IIHDG,217,,,01,E*17
$IIMTW,+13.5,C*3F
$IIMWV,258,R,07.6,N,A*1D
$IIMWV,255,T,08.2,N,A*1D
$IIRMC,163837,A,4630.091,N,00641.065,E,00.0,022,180614,01,E,A*06
$IIVHW,,,217,M,00.0,N,,*60
$IIVLW,01517,N,000.0,N*51
$IIVWR,102,L,07.3,N,,,,*78
$IIDPT,002.1,-1.0,*43
$IIGLL,4630.091,N,00641.065,E,163838,A,A*5E
$IIHDG,217,,,01,E*17
$IIMTW,+13.5,C*3F
$IIMWV,258,R,07.3,N,A*18
$IIMWV,258,T,07.6,N,A*1B
$IIRMC,163840,A,4630.091,N,00641.065,E,00.0,022,180614,01,E,A*06
$IIVHW,,,215,M,00.0,N,,*62
$IIVLW,01517,N,000.0,N*51
$IIVWR,096,L,07.1,N,,,,*76
$IIDPT,002.1,-1.0,*43
$IIGLL,4630.091,N,00641.065,E,163840,A,A*51
$IIHDG,215,,,01,E*15
$IIMTW,+13.5,C*3F
$IIMWV,264,R,07.1,N,A*15
$IIMWV,264,T,07.1,N,A*13
$IIRMC,163841,A,4630.091,N,00641.065,E,00.0,022,180614,01,E,A*07
$IIVHW,,,214,M,00.0,N,,*63
$IIVLW,01517,N,000.0,N*51
$IIVWR,092,L,08.0,N,,,,*7C
$IIDPT,002.1,-1.0,*43
$IIGLL,4630.091,N,00641.065,E,163841,A,A*50
$IIHDG,214,,,01,E*14
$IIMTW,+13.5,C*3F
$IIMWV,263,R,07.8,N,A*1B
$IIMWV,268,T,08.0,N,A*11
$IIRMC,163842,A,4630.091,N,00641.065,E,00.0,022,180614,01,E,A*04
$IIVHW,,,213,M,00.0,N,,*64
$IIVLW,01517,N,000.0,N*51
$IIVWR,097,L,07.8,N,,,,*7E
$IIDPT,002.1,-1.0,*43
$IIGLL,4630.091,N,00641.065,E,163842,A,A*53
$IIHDG,213,,,01,E*13
$IIMTW,+13.5,C*3F
$IIMWV,268,R,07.3,N,A*1B
$IIMWV,263,T,07.8,N,A*1D
$IIRMC,163843,A,4630.091,N,00641.065,E,00.0,022,180614,01,E,A*05
$IIVHW,,,211,M,00.0,N,,*66
$IIVLW,01517,N,000.0,N*51
$IIVWR,092,L,07.3,N,,,,*70
$IIDPT,002.1,-1.0,*43
$IIGLL,4630.091,N,00641.065,E,163843,A,A*52
$IIHDG,210,,,01,E*10
$IIMTW,+13.5,C*3F
$IIMWV,276,R,08.1,N,A*19
$IIMWV,268,T,07.3,N,A*1D
$IIRMC,163844,A,4630.091,N,00641.065,E,00.0,022,180614,01,E,A*02
$IIVHW,,,210,M,00.0,N,,*67
$IIVLW,01517,N,000.0,N*51
$IIVWR,084,L,08.1,N,,,,*7A
$IIDPT,002.3,-1.0,*41
$IIGLL,4630.091,N,00641.065,E,163845,A,A*54
$IIHDG,209,,,01,E*18
$IIMTW,+13.5,C*3F
$IIMWV,280,R,07.9,N,A*17
$IIMWV,276,T,08.1,N,A*1F
$IIRMC,163845,A,4630.091,N,00641.065,E,00.0,022,180614,01,E,A*03
$IIVHW,,,209,M,00.0,N,,*6F
$IIVLW,01517,N,000.0,N*51
$IIVWR,080,L,07.9,N,,,,*79
$IIDPT,002.5,-1.0,*47
$IIGLL,4630.091,N,00641.065,E,163845,A,A*54
$IIHDG,208,,,01,E*19
$IIMTW,+13.5,C*3F
$IIMWV,284,R,07.7,N,A*1D
$IIMWV,280,T,07.9,N,A*11
$IIRMC,163845,A,4630.091,N,00641.065,E,00.0,022,180614,01,E,A*03
$IIVHW,,,208,M,00.0,N,,*6E
$IIVLW,01517,N,000.0,N*51
$IIVWR,076,L,07.7,N,,,,*7E
$IIDPT,002.2,-1.0,*40
$IIGLL,4630.091,N,00641.065,E,163847,A,A*56
$IIHDG,207,,,01,E*16
$IIMTW,+13.5,C*3F
$IIMWV,284,R,07.7,N,A*1D
$IIMWV,284,T,07.7,N,A*1B
$IIRMC,163847,A,4630.091,N,00641.065,E,00.0,022,180614,01,E,A*01
$IIVHW,,,207,M,00.0,N,,*61
$IIVLW,01517,N,000.0,N*51
$IIVWR,080,L,06.9,N,,,,*78
$IIDPT,002.2,-1.0,*40
$IIGLL,4630.091,N,00641.065,E,163848,A,A*59
$IIHDG,206,,,01,E*17
$IIMTW,+13.5,C*3F
$IIMWV,280,R,06.9,N,A*16
$IIMWV,284,T,07.7,N,A*1B
$IIRMC,163848,A,4630.091,N,00641.065,E,00.0,022,180614,01,E,A*0E
$IIVHW,,,205,M,00.0,N,,*63
$IIVLW,01517,N,000.0,N*51
$IIVWR,077,L,07.4,N,,,,*7C
$IIDPT,002.3,-1.0,*41
$IIGLL,4630.091,N,00641.065,E,163849,A,A*58
$IIHDG,205,,,01,E*14
$IIMTW,+13.5,C*3F
$IIMWV,283,R,07.4,N,A*19
$IIMWV,280,T,06.9,N,A*10
$IIRMC,163850,A,4630.090,N,00641.065,E,00.5,023,180614,01,E,A*02
$IIVHW,,,205,M,00.0,N,,*63
$IIVLW,01517,N,000.0,N*51
$IIVWR,082,L,06.9,N,,,,*7A
$IIDPT,002.5,-1.0,*47
$IIGLL,4630.090,N,00641.065,E,163850,A,A*51
$IIHDG,205,,,01,E*14
$IIMTW,+13.5,C*3F
$IIMWV,278,R,06.9,N,A*11
$IIMWV,278,T,06.9,N,A*17
$IIRMC,163851,A,4630.090,N,00641.065,E,00.6,023,180614,01,E,A*00
$IIVHW,,,204,M,00.0,N,,*62
$IIVLW,01517,N,000.0,N*51
$IIVWR,080,L,07.4,N,,,,*74
$IIDPT,002.5,-1.0,*47
$IIGLL,4630.090,N,00641.065,E,163851,A,A*50
$IIHDG,204,,,01,E*15
$IIMTW,+13.5,C*3F
$IIMWV,273,R,08.2,N,A*1F
$IIMWV,280,T,07.4,N,A*1C
$IIRMC,163852,A,4630.090,N,00641.065,E,00.0,023,180614,01,E,A*05
$IIVHW,,,204,M,00.0,N,,*62
$IIVLW,01517,N,000.0,N*51
$IIVWR,087,L,08.2,N,,,,*7A
$IIDPT,002.5,-1.0,*47
$IIGLL,4630.090,N,00641.065,E,163852,A,A*53
$IIHDG,204,,,01,E*15
$IIMTW,+13.5,C*3F
$IIMWV,286,R,08.4,N,A*13
$IIMWV,273,T,08.2,N,A*19
$IIRMC,163853,A,4630.090,N,00641.064,E,00.6,023,180614,01,E,A*03
$IIVHW,,,204,M,00.0,N,,*62
$IIVLW,01517,N,000.0,N*51
$IIVWR,074,L,08.4,N,,,,*70
$IIDPT,002.2,-1.0,*40
$IIGLL,4630.090,N,00641.064,E,163853,A,A*53
$IIHDG,203,,,01,E*12
$IIMTW,+13.5,C*3F
$IIMWV,289,R,08.5,N,A*1D
$IIMWV,286,T,08.4,N,A*15
$IIRMC,163854,A,4630.090,N,00641.064,E,00.7,023,180614,01,E,A*05
$IIVHW,,,203,M,00.0,N,,*65
$IIVLW,01517,N,000.0,N*51
$IIVWR,071,L,08.5,N,,,,*74
$IIDPT,002.2,-1.0,*40
$IIGLL,4630.090,N,00641.064,E,163855,A,A*55
$IIHDG,202,,,01,E*13
$IIMTW,+13.5,C*3F
$IIMWV,289,R,08.9,N,A*11
$IIMWV,289,T,08.5,N,A*1B
$IIRMC,163855,A,4630.090,N,00641.064,E,00.6,023,180614,01,E,A*05
$IIVHW,,,202,M,00.0,N,,*64
$IIVLW,01517,N,000.0,N*51
$IIVWR,071,L,08.9,N,,,,*78
$IIDPT,002.2,-1.0,*40
$IIGLL,4630.090,N,00641.064,E,163856,A,A*56
$IIHDG,201,,,01,E*10
$IIMTW,+13.5,C*3F
$IIMWV,289,R,08.6,N,A*1E
$IIMWV,289,T,08.9,N,A*17
$IIRMC,163856,A,4630.090,N,00641.064,E,00.6,023,180614,01,E,A*06
$IIVHW,,,201,M,00.0,N,,*67
$IIVLW,01517,N,000.0,N*51
$IIVWR,076,L,08.5,N,,,,*73
$IIDPT,002.2,-1.0,*40
$IIGLL,4630.090,N,00641.064,E,163857,A,A*57
$IIHDG,201,,,01,E*10
$IIMTW,+13.5,C*3F
$IIMWV,284,R,08.5,N,A*10
$IIMWV,289,T,08.6,N,A*18
$IIRMC,163857,A,4630.090,N,00641.064,E,00.6,023,180614,01,E,A*07
$IIVHW,,,201,M,00.0,N,,*67
$IIVLW,01517,N,000.0,N*51
$IIVWR,069,L,07.7,N,,,,*70
$IIDPT,002.2,-1.0,*40
$IIGLL,4630.089,N,00641.064,E,163858,A,A*50
$IIHDG,200,,,01,E*11
$IIMTW,+13.5,C*3F
$IIMWV,291,R,07.7,N,A*19
$IIMWV,284,T,08.5,N,A*16
$IIRMC,163858,A,4630.089,N,00641.064,E,00.0,023,180614,01,E,A*06
$IIVHW,,,199,M,00.0,N,,*65
$IIVLW,01517,N,000.0,N*51
$IIVWR,069,L,08.2,N,,,,*7A
$IIDPT,002.2,-1.0,*40
$IIGLL,4630.089,N,00641.064,E,163859,A,A*51
$IIHDG,199,,,01,E*12
$IIMTW,+13.5,C*3F
$IIMWV,291,R,08.2,N,A*13
$IIMWV,291,T,07.7,N,A*1F
$IIRMC,163900,A,4630.089,N,00641.064,E,00.0,023,180614,01,E,A*0A
$IIVHW,,,198,M,00.0,N,,*64
$IIVLW,01517,N,000.0,N*51
$IIVWR,064,L,08.4,N,,,,*71
$IIDPT,002.2,-1.0,*40
$IIGLL,4630.089,N,00641.064,E,163900,A,A*5C
$IIHDG,198,,,01,E*13
$IIMTW,+13.5,C*3F
$IIMWV,296,R,08.4,N,A*12
$IIMWV,292,T,07.7,N,A*1C
$IIRMC,163902,A,4630.089,N,00641.064,E,00.0,023,180614,01,E,A*08
$IIVHW,,,195,M,00.0,N,,*69
$IIVLW,01517,N,000.0,N*51
$IIVWR,066,L,07.5,N,,,,*7D
$IIDPT,002.2,-1.0,*40
$IIGLL,4630.089,N,00641.064,E,163902,A,A*5E
$IIHDG,195,,,01,E*1E
$IIMTW,+13.5,C*3F
$IIMWV,289,R,07.3,N,A*14
$IIMWV,294,T,07.5,N,A*18
$IIRMC,163903,A,4630.089,N,00641.064,E,00.0,023,180614,01,E,A*09
$IIVHW,,,193,M,00.0,N,,*6F
$IIVLW,01517,N,000.0,N*51
$IIVWR,071,L,07.3,N,,,,*7D
$IIDPT,002.2,-1.0,*40
$IIGLL,4630.089,N,00641.064,E,163903,A,A*5F
$IIHDG,193,,,01,E*18
$IIMTW,+13.5,C*3F
$IIMWV,294,R,07.2,N,A*19
$IIMWV,289,T,07.3,N,A*12
$IIRMC,163904,A,4630.089,N,00641.064,E,00.0,023,180614,01,E,A*0E
$IIVHW,,,192,M,00.0,N,,*6E
$IIVLW,01517,N,000.0,N*51
$IIVWR,066,L,07.2,N,,,,*7A
$IIDPT,002.2,-1.0,*40
$IIGLL,4630.089,N,00641.064,E,163904,A,A*58
$IIHDG,190,,,01,E*1B
$IIMTW,+13.5,C*3F
$IIMWV,287,R,06.5,N,A*1D
$IIMWV,294,T,07.2,N,A*1F
$IIRMC,163905,A,4630.088,N,00641.064,E,00.0,023,180614,01,E,A*0E
$IIVHW,,,190,M,00.0,N,,*6C
$IIVLW,01517,N,000.0,N*51
$IIVWR,073,L,06.5,N,,,,*78
$IIDPT,002.2,-1.0,*40
$IIGLL,4630.088,N,00641.064,E,163906,A,A*5B
$IIHDG,189,,,01,E*13
$IIMTW,+13.5,C*3F
$IIMWV,291,R,06.7,N,A*18
$IIMWV,287,T,06.5,N,A*1B
$IIRMC,163906,A,4630.088,N,00641.064,E,00.0,023,180614,01,E,A*0D
$IIVHW,,,189,M,00.0,N,,*64
$IIVLW,01517,N,000.0,N*51
$IIVWR,069,L,06.7,N,,,,*71
$IIDPT,002.2,-1.0,*40
$IIGLL,4630.088,N,00641.064,E,163907,A,A*5A
$IIHDG,188,,,01,E*12
$IIMTW,+13.5,C*3F
$IIMWV,293,R,06.7,N,A*1A
$IIMWV,291,T,06.7,N,A*1E
$IIRMC,163907,A,4630.088,N,00641.064,E,00.0,023,180614,01,E,A*0C
$IIVHW,,,188,M,00.0,N,,*65
$IIVLW,01517,N,000.0,N*51
$IIVWR,065,L,06.6,N,,,,*7C
$IIDPT,002.2,-1.0,*40
$IIGLL,4630.088,N,00641.064,E,163908,A,A*55
$IIHDG,187,,,01,E*1D
$IIMTW,+13.5,C*3F
$IIMWV,295,R,06.6,N,A*1D
$IIMWV,293,T,06.7,N,A*1C
$IIRMC,163908,A,4630.088,N,00641.064,E,00.0,023,180614,01,E,A*03
$IIVHW,,,187,M,00.0,N,,*6A
$IIVLW,01517,N,000.0,N*51
$IIVWR,069,L,07.1,N,,,,*76
$IIDPT,002.2,-1.0,*40
$IIGLL,4630.088,N,00641.064,E,163909,A,A*54
$IIHDG,185,,,01,E*1F
$IIMTW,+13.5,C*3F
$IIMWV,291,R,07.1,N,A*1F
$IIMWV,295,T,06.6,N,A*1B
$IIRMC,163909,A,4630.088,N,00641.064,E,00.0,023,180614,01,E,A*02
$IIVHW,,,184,M,00.0,N,,*69
$IIVLW,01517,N,000.0,N*51
$IIVWR,059,L,06.9,N,,,,*7C
$IIDPT,002.2,-1.0,*40
$IIGLL,4630.088,N,00641.064,E,163910,A,A*5C
$IIHDG,184,,,01,E*1E
$IIMTW,+13.5,C*3F
$IIMWV,301,R,06.9,N,A*1E
$IIMWV,291,T,07.1,N,A*19
$IIRMC,163911,A,4630.088,N,00641.064,E,00.0,023,180614,01,E,A*0B
$IIVHW,,,182,M,00.0,N,,*6F
$IIVLW,01517,N,000.0,N*51
$IIVWR,056,L,07.2,N,,,,*79
$IIDPT,002.2,-1.0,*40
$IIGLL,4630.088,N,00641.064,E,163911,A,A*5D
$IIHDG,182,,,01,E*18
$IIMTW,+13.5,C*3F
$IIMWV,304,R,07.2,N,A*11
$IIMWV,304,T,07.6,N,A*13
$IIRMC,163913,A,4630.087,N,00641.064,E,00.0,023,180614,01,E,A*06
$IIVHW,,,179,M,00.0,N,,*6B
$IIVLW,01517,N,000.0,N*51
$IIVWR,056,L,07.5,N,,,,*7E
$IIDPT,002.2,-1.0,*40
$IIGLL,4630.087,N,00641.064,E,163913,A,A*50
$IIHDG,179,,,01,E*1C
$IIMTW,+13.0,C*3A
$IIMWV,311,R,08.9,N,A*11
$IIMWV,304,T,07.5,N,A*10
$IIRMC,163914,A,4630.087,N,00641.064,E,00.0,023,180614,01,E,A*01
$IIVHW,,,178,M,00.0,N,,*6A
$IIVLW,01517,N,000.0,N*51
$IIVWR,049,L,08.9,N,,,,*73
$IIDPT,002.2,-1.0,*40
$IIGLL,4630.087,N,00641.064,E,163914,A,A*57
$IIHDG,178,,,01,E*1D
$IIMTW,+13.0,C*3A
$IIMWV,311,R,08.6,N,A*1E
$IIMWV,311,T,08.9,N,A*17
$IIRMC,163915,A,4630.087,N,00641.064,E,00.0,023,180614,01,E,A*00
$IIVHW,,,177,M,00.0,N,,*65
$IIVLW,01517,N,000.0,N*51
$IIVWR,049,L,08.6,N,,,,*7C
$IIDPT,002.1,-1.0,*43
$IIGLL,4630.087,N,00641.064,E,163915,A,A*56
$IIHDG,176,,,01,E*13
$IIMTW,+13.0,C*3A
$IIMWV,306,R,08.5,N,A*1B
$IIMWV,311,T,08.6,N,A*18
$IIRMC,163916,A,4630.087,N,00641.064,E,00.0,023,180614,01,E,A*03
$IIVHW,,,176,M,00.0,N,,*64
$IIVLW,01517,N,000.0,N*51
$IIVWR,054,L,08.5,N,,,,*73
$IIDPT,002.1,-1.0,*43
$IIGLL,4630.087,N,00641.064,E,163916,A,A*55
$IIHDG,175,,,01,E*10
$IIMTW,+13.0,C*3A
$IIMWV,306,R,08.1,N,A*1F
$IIMWV,306,T,08.5,N,A*1D
$IIRMC,163916,A,4630.087,N,00641.064,E,00.0,023,180614,01,E,A*03
$IIVHW,,,175,M,00.0,N,,*67
$IIVLW,01517,N,000.0,N*51
$IIVWR,054,L,08.1,N,,,,*77
$IIDPT,002.1,-1.0,*43
$IIGLL,4630.087,N,00641.064,E,163918,A,A*5B
$IIHDG,175,,,01,E*10
$IIMTW,+13.0,C*3A
$IIMWV,310,R,08.4,N,A*1D
$IIMWV,306,T,08.1,N,A*19
$IIRMC,163918,A,4630.087,N,00641.064,E,00.0,023,180614,01,E,A*0D
$IIVHW,,,175,M,00.0,N,,*67
$IIVLW,01517,N,000.0,N*51
$IIVWR,045,L,08.5,N,,,,*73
$IIDPT,002.1,-1.0,*43
$IIGLL,4630.087,N,00641.064,E,163919,A,A*5A
$IIHDG,173,,,01,E*16
$IIMTW,+13.0,C*3A
$IIMWV,315,R,08.5,N,A*19
$IIMWV,310,T,08.4,N,A*1B
$IIRMC,163919,A,4630.087,N,00641.064,E,00.0,023,180614,01,E,A*0C
$IIVHW,,,173,M,00.0,N,,*61
$IIVLW,01517,N,000.0,N*51
$IIVWR,045,L,08.5,N,,,,*73
$IIDPT,002.1,-1.0,*43
$IIGLL,4630.087,N,00641.064,E,163920,A,A*50
$IIHDG,172,,,01,E*17
$IIMTW,+13.0,C*3A
$IIMWV,315,R,08.5,N,A*19
$IIMWV,315,T,08.5,N,A*1F
$IIRMC,163920,A,4630.087,N,00641.064,E,00.0,023,180614,01,E,A*06
$IIVHW,,,171,M,00.0,N,,*63
$IIVLW,01517,N,000.0,N*51
$IIVWR,053,L,07.7,N,,,,*79
$IIDPT,002.1,-1.0,*43
$IIGLL,4630.087,N,00641.064,E,163921,A,A*51
$IIHDG,171,,,01,E*14
$IIMTW,+13.0,C*3A
$IIMWV,307,R,07.7,N,A*17
$IIMWV,315,T,08.5,N,A*1F
$IIRMC,163922,A,4630.087,N,00641.064,E,00.0,023,180614,01,E,A*04
$IIVHW,,,171,M,00.0,N,,*63
$IIVLW,01517,N,000.0,N*51
$IIVWR,051,L,07.5,N,,,,*79
$IIDPT,002.1,-1.0,*43
$IIGLL,4630.087,N,00641.064,E,163922,A,A*52
$IIHDG,171,,,01,E*14
$IIMTW,+13.0,C*3A
$IIMWV,309,R,07.5,N,A*1B
$IIMWV,309,T,07.5,N,A*1D
$IIRMC,163923,A,4630.087,N,00641.064,E,00.0,023,180614,01,E,A*05
$IIVHW,,,171,M,00.0,N,,*63
$IIVLW,01517,N,000.0,N*51
$IIVWR,050,L,07.0,N,,,,*7D
$IIDPT,002.0,-1.0,*42
$IIGLL,4630.087,N,00641.064,E,163923,A,A*53
$IIHDG,171,,,01,E*14
$IIMTW,+13.0,C*3A
$IIMWV,311,R,07.4,N,A*13
$IIMWV,310,T,07.0,N,A*10
$IIRMC,163924,A,4630.087,N,00641.064,E,00.0,023,180614,01,E,A*02
$IIVHW,,,170,M,00.0,N,,*62
$IIVLW,01517,N,000.0,N*51
$IIVWR,049,L,07.4,N,,,,*71
$IIDPT,002.0,-1.0,*42
$IIGLL,4630.087,N,00641.064,E,163924,A,A*54
$IIHDG,170,,,01,E*15
$IIMTW,+13.0,C*3A
$IIMWV,303,R,06.8,N,A*1D
$IIMWV,311,T,07.4,N,A*15
$IIRMC,163925,A,4630.087,N,00641.064,E,00.0,023,180614,01,E,A*03
$IIVHW,,,170,M,00.0,N,,*62
$IIVLW,01517,N,000.0,N*51
$IIVWR,057,L,06.8,N,,,,*73
$IIDPT,002.0,-1.0,*42
$IIGLL,4630.087,N,00641.064,E,163925,A,A*55
$IIHDG,169,,,01,E*1D
$IIMTW,+13.0,C*3A
$IIMWV,307,R,07.9,N,A*19
$IIMWV,303,T,06.8,N,A*1B
$IIRMC,163926,A,4630.086,N,00641.064,E,00.0,023,180614,01,E,A*01
$IIVHW,,,169,M,00.0,N,,*6A
$IIVLW,01517,N,000.0,N*51
$IIVWR,053,L,07.9,N,,,,*77
$IIDPT,002.1,-1.0,*43
$IIGLL,4630.086,N,00641.064,E,163927,A,A*56
$IIHDG,169,,,01,E*1D
$IIMTW,+13.0,C*3A
$IIMWV,302,R,07.6,N,A*13
$IIMWV,307,T,07.9,N,A*1F
$IIRMC,163927,A,4630.086,N,00641.064,E,00.0,023,180614,01,E,A*00
$IIVHW,,,169,M,00.0,N,,*6A
$IIVLW,01517,N,000.0,N*51
$IIVWR,058,L,07.6,N,,,,*73
$IIDPT,002.1,-1.0,*43
$IIGLL,4630.086,N,00641.064,E,163928,A,A*59
$IIHDG,168,,,01,E*1C
$IIMTW,+13.0,C*3A
$IIMWV,309,R,08.2,N,A*13
$IIMWV,302,T,07.6,N,A*15
$IIRMC,163928,A,4630.086,N,00641.064,E,00.0,023,180614,01,E,A*0F
$IIVHW,,,168,M,00.0,N,,*6B
$IIVLW,01517,N,000.0,N*51
$IIVWR,044,L,08.4,N,,,,*73
$IIDPT,002.1,-1.0,*43
$IIGLL,4630.086,N,00641.064,E,163929,A,A*58
$IIHDG,168,,,01,E*1C
$IIMTW,+13.0,C*3A
$IIMWV,316,R,08.4,N,A*1B
$IIMWV,309,T,08.2,N,A*15
$IIRMC,163929,A,4630.086,N,00641.064,E,00.0,023,180614,01,E,A*0E
$IIVHW,,,168,M,00.0,N,,*6B
$IIVLW,01517,N,000.0,N*51
$IIVWR,044,L,08.5,N,,,,*72
$IIDPT,002.1,-1.0,*43
$IIGLL,4630.086,N,00641.064,E,163930,A,A*50
$IIHDG,168,,,01,E*1C
$IIMTW,+13.0,C*3A
$IIMWV,316,R,08.5,N,A*1A
$IIMWV,316,T,08.4,N,A*1D
$IIRMC,163930,A,4630.086,N,00641.064,E,00.0,023,180614,01,E,A*06
$IIVHW,,,167,M,00.0,N,,*64
$IIVLW,01517,N,000.0,N*51
$IIVWR,042,L,09.0,N,,,,*70
$IIDPT,002.1,-1.0,*43
$IIGLL,4630.086,N,00641.064,E,163931,A,A*51
$IIHDG,167,,,01,E*13
$IIMTW,+13.0,C*3A
$IIMWV,318,R,09.0,N,A*10
$IIMWV,316,T,08.5,N,A*1C
$IIRMC,163932,A,4630.086,N,00641.064,E,00.0,023,180614,01,E,A*04
$IIVHW,,,167,M,00.0,N,,*64
$IIVLW,01517,N,000.0,N*51
$IIVWR,041,L,09.2,N,,,,*71
$IIDPT,002.1,-1.0,*43
$IIGLL,4630.086,N,00641.064,E,163932,A,A*52
$IIHDG,167,,,01,E*13
$IIMTW,+13.0,C*3A
$IIMWV,319,R,09.2,N,A*13
$IIMWV,319,T,09.2,N,A*15
$IIRMC,163932,A,4630.086,N,00641.064,E,00.0,023,180614,01,E,A*04
$IIVHW,,,166,M,00.0,N,,*65
$IIVLW,01517,N,000.0,N*51
$IIVWR,041,L,08.7,N,,,,*75
$IIDPT,002.1,-1.0,*43
$IIGLL,4630.086,N,00641.064,E,163932,A,A*52
$IIHDG,166,,,01,E*12
$IIMTW,+13.0,C*3A
$IIMWV,316,R,09.0,N,A*1E
$IIMWV,319,T,08.7,N,A*11
$IIRMC,163933,A,4630.086,N,00641.064,E,00.0,023,180614,01,E,A*05
$IIVHW,,,166,M,00.0,N,,*65
$IIVLW,01517,N,000.0,N*51
$IIVWR,044,L,09.0,N,,,,*76
$IIDPT,002.1,-1.0,*43
$IIGLL,4630.086,N,00641.064,E,163933,A,A*53
$IIHDG,166,,,01,E*12
$IIMTW,+13.0,C*3A
$IIMWV,316,R,09.2,N,A*1C
$IIMWV,316,T,09.0,N,A*18
$IIRMC,163935,A,4630.086,N,00641.064,E,00.0,023,180614,01,E,A*03
$IIVHW,,,166,M,00.0,N,,*65
$IIVLW,01517,N,000.0,N*51
$IIVWR,044,L,09.2,N,,,,*74
$IIDPT,002.1,-1.0,*43
$IIGLL,4630.086,N,00641.064,E,163935,A,A*55
$IIHDG,165,,,01,E*11
$IIMTW,+13.0,C*3A
$IIMWV,316,R,09.2,N,A*1C
$IIMWV,316,T,09.2,N,A*1A
$IIRMC,163935,A,4630.086,N,00641.064,E,00.0,023,180614,01,E,A*03
$IIVHW,,,165,M,00.0,N,,*66
$IIVLW,01517,N,000.0,N*51
$IIVWR,044,L,09.2,N,,,,*74
$IIDPT,002.1,-1.0,*43
$IIGLL,4630.086,N,00641.065,E,163937,A,A*56
$IIHDG,165,,,01,E*11
$IIMTW,+13.0,C*3A
$IIMWV,313,R,09.3,N,A*18
$IIMWV,316,T,09.2,N,A*1A
$IIRMC,163937,A,4630.086,N,00641.065,E,00.0,023,180614,01,E,A*00
$IIVHW,,,165,M,00.0,N,,*66
$IIVLW,01517,N,000.0,N*51
$IIVWR,047,L,09.3,N,,,,*76
$IIDPT,002.1,-1.0,*43
$IIGLL,4630.085,N,00641.065,E,163938,A,A*5A
$IIHDG,165,,,01,E*11
$IIMTW,+13.0,C*3A
$IIMWV,312,R,09.4,N,A*1E
$IIMWV,313,T,09.3,N,A*1E
$IIRMC,163938,A,4630.085,N,00641.065,E,00.0,023,180614,01,E,A*0C
$IIVHW,,,165,M,00.0,N,,*66
$IIVLW,01517,N,000.0,N*51
$IIVWR,048,L,09.5,N,,,,*7F
$IIDPT,002.1,-1.0,*43
$IIGLL,4630.085,N,00641.065,E,163939,A,A*5B
$IIHDG,165,,,01,E*11
$IIMTW,+13.0,C*3A
$IIMWV,312,R,09.5,N,A*1F
$IIMWV,312,T,09.4,N,A*18
$IIRMC,163939,A,4630.085,N,00641.065,E,00.0,023,180614,01,E,A*0D
$IIVHW,,,165,M,00.0,N,,*66
$IIVLW,01517,N,000.0,N*51
$IIVWR,046,L,09.5,N,,,,*71
$IIDPT,002.1,-1.0,*43
$IIGLL,4630.085,N,00641.065,E,163940,A,A*55
$IIHDG,165,,,01,E*11
$IIMTW,+13.0,C*3A
$IIMWV,314,R,09.5,N,A*19
$IIMWV,312,T,09.5,N,A*19
$IIRMC,163940,A,4630.085,N,00641.065,E,00.0,023,180614,01,E,A*03
$IIVHW,,,164,M,00.0,N,,*67
$IIVLW,01517,N,000.0,N*51
$IIVWR,046,L,08.8,N,,,,*7D
$IIDPT,002.1,-1.0,*43
$IIGLL,4630.085,N,00641.065,E,163941,A,A*54
$IIHDG,164,,,01,E*10
$IIMTW,+13.0,C*3A
$IIMWV,314,R,08.8,N,A*15
$IIMWV,314,T,09.5,N,A*1F
$IIRMC,163942,A,4630.085,N,00641.065,E,00.0,023,180614,01,E,A*01
$IIVHW,,,164,M,00.0,N,,*67
$IIVLW,01517,N,000.0,N*51
$IIVWR,047,L,09.4,N,,,,*71
$IIDPT,002.1,-1.0,*43
$IIGLL,4630.085,N,00641.065,E,163942,A,A*57
$IIHDG,164,,,01,E*10
$IIMTW,+13.0,C*3A
$IIMWV,313,R,09.4,N,A*1F
$IIMWV,313,T,09.4,N,A*19
$IIRMC,163943,A,4630.085,N,00641.065,E,00.0,023,180614,01,E,A*00
$IIVHW,,,164,M,00.0,N,,*67
$IIVLW,01517,N,000.0,N*51
$IIVWR,046,L,09.7,N,,,,*73
$IIDPT,002.1,-1.0,*43
$IIGLL,4630.085,N,00641.065,E,163943,A,A*56
$IIHDG,164,,,01,E*10
$IIMTW,+13.0,C*3A
$IIMWV,312,R,09.7,N,A*1D
$IIMWV,314,T,09.7,N,A*1D
$IIRMC,163944,A,4630.085,N,00641.065,E,00.0,023,180614,01,E,A*07
$IIVHW,,,164,M,00.0,N,,*67
$IIVLW,01517,N,000.0,N*51
$IIVWR,048,L,09.7,N,,,,*7D
$IIDPT,002.1,-1.0,*43
$IIGLL,4630.085,N,00641.065,E,163944,A,A*51
$IIHDG,164,,,01,E*10
$IIMTW,+13.0,C*3A
$IIMWV,311,R,08.9,N,A*11
$IIMWV,312,T,09.7,N,A*1B
$IIRMC,163944,A,4630.085,N,00641.065,E,00.0,023,180614,01,E,A*07
$IIVHW,,,164,M,00.0,N,,*67
$IIVLW,01517,N,000.0,N*51
$IIVWR,049,L,08.9,N,,,,*73
$IIDPT,002.1,-1.0,*43
$IIGLL,4630.085,N,00641.065,E,163944,A,A*51
$IIHDG,165,,,01,E*11
$IIMTW,+13.0,C*3A
$IIMWV,310,R,09.0,N,A*18
$IIMWV,311,T,08.9,N,A*17
$IIRMC,163946,A,4630.085,N,00641.065,E,00.0,023,180614,01,E,A*05
$IIVHW,,,165,M,00.0,N,,*66
$IIVLW,01517,N,000.0,N*51
$IIVWR,050,L,09.0,N,,,,*73
$IIDPT,002.1,-1.0,*43
$IIGLL,4630.085,N,00641.065,E,163947,A,A*52
$IIHDG,165,,,01,E*11
$IIMTW,+13.0,C*3A
$IIMWV,310,R,09.1,N,A*19
$IIMWV,310,T,09.0,N,A*1E
$IIRMC,163947,A,4630.085,N,00641.065,E,00.0,023,180614,01,E,A*04
$IIVHW,,,165,M,00.0,N,,*66
$IIVLW,01517,N,000.0,N*51
$IIVWR,050,L,09.1,N,,,,*72
$IIDPT,002.2,-1.0,*40
$IIGLL,4630.085,N,00641.065,E,163948,A,A*5D
$IIHDG,165,,,01,E*11
$IIMTW,+13.0,C*3A
$IIMWV,310,R,08.7,N,A*1E
$IIMWV,310,T,09.1,N,A*1F
$IIRMC,163948,A,4630.085,N,00641.065,E,00.0,023,180614,01,E,A*0B
$IIVHW,,,165,M,00.0,N,,*66
$IIVLW,01517,N,000.0,N*51
$IIVWR,051,L,08.6,N,,,,*75
$IIDPT,002.2,-1.0,*40
$IIGLL,4630.085,N,00641.065,E,163949,A,A*5C
$IIHDG,166,,,01,E*12
$IIMTW,+13.5,C*3F
$IIMWV,309,R,08.6,N,A*17
$IIMWV,310,T,08.7,N,A*18
$IIRMC,163949,A,4630.085,N,00641.065,E,00.0,023,180614,01,E,A*0A
$IIVHW,,,166,M,00.0,N,,*65
$IIVLW,01517,N,000.0,N*51
$IIVWR,051,L,08.5,N,,,,*76
$IIDPT,002.2,-1.0,*40
$IIGLL,4630.085,N,00641.065,E,163949,A,A*5C
$IIHDG,166,,,01,E*12
$IIMTW,+13.5,C*3F
$IIMWV,309,R,08.5,N,A*14
$IIMWV,309,T,08.6,N,A*11
$IIRMC,163949,A,4630.085,N,00641.065,E,00.0,023,180614,01,E,A*0A
$IIVHW,,,166,M,00.0,N,,*65
$IIVLW,01517,N,000.0,N*51
$IIVWR,052,L,08.9,N,,,,*79
$IIDPT,002.2,-1.0,*40
$IIGLL,4630.085,N,00641.065,E,163951,A,A*55
$IIHDG,166,,,01,E*12
$IIMTW,+13.5,C*3F
$IIMWV,308,R,08.9,N,A*19
$IIMWV,309,T,08.5,N,A*12
$IIRMC,163952,A,4630.085,N,00641.065,E,00.0,023,180614,01,E,A*00
$IIVHW,,,167,M,00.0,N,,*64
$IIVLW,01517,N,000.0,N*51
$IIVWR,053,L,08.6,N,,,,*77
$IIDPT,002.2,-1.0,*40
$IIGLL,4630.085,N,00641.065,E,163952,A,A*56
$IIHDG,167,,,01,E*13
$IIMTW,+13.5,C*3F
$IIMWV,307,R,08.6,N,A*19
$IIMWV,307,T,08.6,N,A*1F
$IIRMC,163953,A,4630.085,N,00641.065,E,00.0,023,180614,01,E,A*01
$IIVHW,,,167,M,00.0,N,,*64
$IIVLW,01517,N,000.0,N*51
$IIVWR,053,L,09.1,N,,,,*71
$IIDPT,002.2,-1.0,*40
$IIGLL,4630.085,N,00641.065,E,163953,A,A*57
$IIHDG,167,,,01,E*13
$IIMTW,+13.5,C*3F
$IIMWV,305,R,09.4,N,A*18
$IIMWV,307,T,09.1,N,A*19
$IIRMC,163954,A,4630.085,N,00641.065,E,00.0,023,180614,01,E,A*06
$IIVHW,,,167,M,00.0,N,,*64
$IIVLW,01517,N,000.0,N*51
$IIVWR,055,L,09.4,N,,,,*72
$IIDPT,002.2,-1.0,*40
$IIGLL,4630.085,N,00641.065,E,163954,A,A*50
$IIHDG,167,,,01,E*13
$IIMTW,+13.5,C*3F
$IIMWV,308,R,08.8,N,A*18
$IIMWV,305,T,09.4,N,A*1E
$IIRMC,163955,A,4630.085,N,00641.065,E,00.0,023,180614,01,E,A*07
$IIVHW,,,166,M,00.0,N,,*65
$IIVLW,01517,N,000.0,N*51
$IIVWR,052,L,08.8,N,,,,*78
$IIDPT,002.4,-1.0,*46
$IIGLL,4630.085,N,00641.065,E,163955,A,A*51
$IIHDG,165,,,01,E*11
$IIMTW,+13.5,C*3F
$IIMWV,309,R,09.0,N,A*10
$IIMWV,308,T,08.8,N,A*1E
$IIRMC,163956,A,4630.084,N,00641.065,E,00.0,023,180614,01,E,A*05
$IIVHW,,,165,M,00.0,N,,*66
$IIVLW,01517,N,000.0,N*51
$IIVWR,051,L,09.0,N,,,,*72
$IIDPT,002.4,-1.0,*46
$IIGLL,4630.084,N,00641.065,E,163957,A,A*52
$IIHDG,164,,,01,E*10
$IIMTW,+13.5,C*3F
$IIMWV,310,R,09.5,N,A*1D
$IIMWV,309,T,09.0,N,A*16
$IIRMC,163957,A,4630.084,N,00641.065,E,00.0,023,180614,01,E,A*04
$IIVHW,,,164,M,00.0,N,,*67
$IIVLW,01517,N,000.0,N*51
$IIVWR,050,L,09.5,N,,,,*76
$IIDPT,002.4,-1.0,*46
$IIGLL,4630.084,N,00641.065,E,163958,A,A*5D
$IIHDG,163,,,01,E*17
$IIMTW,+13.5,C*3F
$IIMWV,312,R,09.7,N,A*1D
$IIMWV,310,T,09.5,N,A*1B
$IIRMC,163958,A,4630.084,N,00641.065,E,00.0,023,180614,01,E,A*0B
$IIVHW,,,163,M,00.0,N,,*60
$IIVLW,01517,N,000.0,N*51
$IIVWR,045,L,09.6,N,,,,*71
$IIDPT,002.4,-1.0,*46
$IIGLL,4630.084,N,00641.065,E,163958,A,A*5D
$IIHDG,160,,,01,E*14
$IIMTW,+13.5,C*3F
$IIMWV,315,R,09.6,N,A*1B
$IIMWV,312,T,09.7,N,A*1B
$IIRMC,163958,A,4630.084,N,00641.065,E,00.0,023,180614,01,E,A*0B
$IIVHW,,,160,M,00.0,N,,*63
$IIVLW,01517,N,000.0,N*51
$IIVWR,046,L,09.5,N,,,,*71
$IIDPT,002.4,-1.0,*46
$IIGLL,4630.084,N,00641.065,E,164000,A,A*5E
$IIHDG,160,,,01,E*14
$IIMTW,+13.5,C*3F
$IIMWV,314,R,09.5,N,A*19
$IIMWV,315,T,09.6,N,A*1D
$IIRMC,164000,A,4630.084,N,00641.065,E,00.0,023,180614,01,E,A*08
$IIVHW,,,157,M,00.0,N,,*67
$IIVLW,01517,N,000.0,N*51
$IIVWR,039,L,09.5,N,,,,*79
$IIDPT,002.4,-1.0,*46
$IIGLL,4630.084,N,00641.065,E,164001,A,A*5F
$IIHDG,157,,,01,E*10
$IIMTW,+13.5,C*3F
$IIMWV,321,R,09.5,N,A*1F
$IIMWV,314,T,09.5,N,A*1F
$IIRMC,164002,A,4630.084,N,00641.065,E,00.0,023,180614,01,E,A*0A
$IIVHW,,,153,M,00.0,N,,*63
$IIVLW,01517,N,000.0,N*51
$IIVWR,038,L,09.5,N,,,,*78
$IIDPT,002.3,-1.0,*41
$IIGLL,4630.084,N,00641.065,E,164002,A,A*5C
$IIHDG,153,,,01,E*14
$IIMTW,+13.5,C*3F
$IIMWV,322,R,09.5,N,A*1C
$IIMWV,322,T,09.5,N,A*1A
$IIRMC,164003,A,4630.084,N,00641.065,E,00.0,023,180614,01,E,A*0B
$IIVHW,,,150,M,00.0,N,,*60
$IIVLW,01517,N,000.0,N*51
$IIVWR,036,L,09.5,N,,,,*76
$IIDPT,002.2,-1.0,*40
$IIGLL,4630.084,N,00641.065,E,164003,A,A*5D
$IIHDG,150,,,01,E*17
$IIMTW,+13.5,C*3F
$IIMWV,329,R,09.3,N,A*11
$IIMWV,324,T,09.5,N,A*1C
$IIRMC,164004,A,4630.084,N,00641.065,E,00.0,023,180614,01,E,A*0C
$IIVHW,,,147,M,00.0,N,,*66
$IIVLW,01517,N,000.0,N*51
$IIVWR,031,L,09.3,N,,,,*77
$IIDPT,002.2,-1.0,*40
$IIGLL,4630.084,N,00641.065,E,164004,A,A*5A
$IIHDG,147,,,01,E*11
$IIMTW,+13.5,C*3F
$IIMWV,337,R,09.5,N,A*18
$IIMWV,329,T,09.3,N,A*17
$IIRMC,164005,A,4630.084,N,00641.066,E,00.6,023,180614,01,E,A*08
$IIVHW,,,141,M,00.0,N,,*60
$IIVLW,01517,N,000.0,N*51
$IIVWR,023,L,09.5,N,,,,*72
$IIDPT,002.1,-1.0,*43
$IIGLL,4630.084,N,00641.066,E,164005,A,A*58
$IIHDG,136,,,01,E*17
$IIMTW,+13.5,C*3F
$IIMWV,342,R,08.8,N,A*16
$IIMWV,337,T,09.5,N,A*1E
$IIRMC,164006,A,4630.084,N,00641.066,E,00.6,023,180614,01,E,A*0B
$IIVHW,,,136,M,00.0,N,,*60
$IIVLW,01517,N,000.0,N*51
$IIVWR,018,L,08.8,N,,,,*76
$IIDPT,002.1,-1.0,*43
$IIGLL,4630.085,N,00641.066,E,164007,A,A*5B
$IIHDG,131,,,01,E*10
$IIMTW,+13.5,C*3F
$IIMWV,348,R,09.0,N,A*15
$IIMWV,342,T,08.8,N,A*10
$IIRMC,164007,A,4630.085,N,00641.066,E,00.6,023,180614,01,E,A*0B
$IIVHW,,,131,M,00.0,N,,*67
$IIVLW,01517,N,000.0,N*51
$IIVWR,012,L,09.0,N,,,,*75
$IIDPT,001.9,-1.0,*48
$IIGLL,4630.085,N,00641.066,E,164008,A,A*54
$IIHDG,124,,,01,E*14
$IIMTW,+13.5,C*3F
$IIMWV,356,R,09.0,N,A*1A
$IIMWV,348,T,09.0,N,A*13
$IIRMC,164008,A,4630.085,N,00641.066,E,00.6,023,180614,01,E,A*04
$IIVHW,,,124,M,00.0,N,,*63
$IIVLW,01517,N,000.0,N*51
$IIVWR,005,R,09.8,N,,,,*65
$IIDPT,001.9,-1.0,*48
$IIGLL,4630.084,N,00641.066,E,164009,A,A*54
$IIHDG,119,,,01,E*1A
$IIMTW,+13.5,C*3F
$IIMWV,005,R,09.8,N,A*17
$IIMWV,356,T,09.0,N,A*1C
$IIRMC,164009,A,4630.084,N,00641.066,E,00.7,023,180614,01,E,A*05
$IIVHW,,,119,M,00.0,N,,*6D
$IIVLW,01517,N,000.0,N*51
$IIVWR,010,R,09.7,N,,,,*6E
$IIDPT,001.9,-1.0,*48
$IIGLL,4630.085,N,00641.067,E,164010,A,A*5C
$IIHDG,112,,,01,E*11
$IIMTW,+13.5,C*3F
$IIMWV,010,R,09.7,N,A*1C
$IIMWV,005,T,09.8,N,A*11
$IIRMC,164010,A,4630.085,N,00641.067,E,00.9,083,180614,01,E,A*09
$IIVHW,,,107,M,00.0,N,,*62
$IIVLW,01517,N,000.0,N*51
$IIVWR,013,R,09.4,N,,,,*6E
$IIDPT,001.9,-1.0,*48
$IIGLL,4630.085,N,00641.067,E,164011,A,A*5D
$IIHDG,107,,,01,E*15
$IIMTW,+13.5,C*3F
$IIMWV,013,R,09.4,N,A*1C
$IIMWV,010,T,09.7,N,A*1A
$IIRMC,164012,A,4630.085,N,00641.068,E,01.1,079,180614,01,E,A*08
$IIVHW,,,103,M,00.0,N,,*66
$IIVLW,01517,N,000.0,N*51
$IIVWR,016,R,09.9,N,,,,*66
$IIDPT,014.3,-1.0,*46
$IIGLL,4630.085,N,00641.068,E,164012,A,A*51
$IIHDG,103,,,01,E*11
$IIMTW,+13.5,C*3F
$IIMWV,016,R,09.9,N,A*14
$IIMWV,016,T,09.9,N,A*12
$IIRMC,164013,A,4630.085,N,00641.068,E,01.1,082,180614,01,E,A*0D
$IIVHW,,,100,M,00.0,N,,*65
$IIVLW,01517,N,000.0,N*51
$IIVWR,019,R,09.7,N,,,,*67
$IIDPT,014.3,-1.0,*46
$IIGLL,4630.085,N,00641.068,E,164013,A,A*50
$IIHDG,100,,,01,E*12
$IIMTW,+13.5,C*3F
$IIMWV,020,R,09.3,N,A*1B
$IIMWV,019,T,09.7,N,A*13
$IIRMC,164014,A,4630.085,N,00641.068,E,01.1,085,180614,01,E,A*0D
$IIVHW,,,098,M,00.0,N,,*65
$IIVLW,01517,N,000.0,N*51
$IIVWR,020,R,09.3,N,,,,*69
$IIDPT,014.3,-1.0,*46
$IIGLL,4630.085,N,00641.068,E,164014,A,A*57
$IIHDG,098,,,01,E*12
$IIMTW,+13.5,C*3F
$IIMWV,018,R,09.1,N,A*12
$IIMWV,020,T,09.3,N,A*1D
$IIRMC,164015,A,4630.085,N,00641.069,E,01.1,087,180614,01,E,A*0F
$IIVHW,,,097,M,00.0,N,,*6A
$IIVLW,01517,N,000.0,N*51
$IIVWR,018,R,09.1,N,,,,*60
$IIDPT,002.1,-1.0,*43
$IIGLL,4630.085,N,00641.069,E,164015,A,A*57
$IIHDG,096,,,01,E*1C
$IIMTW,+13.5,C*3F
$IIMWV,019,R,09.8,N,A*1A
$IIMWV,018,T,09.1,N,A*14
$IIRMC,164015,A,4630.085,N,00641.069,E,01.1,087,180614,01,E,A*0F
$IIVHW,,,096,M,00.0,N,,*6B
$IIVLW,01517,N,000.0,N*51
$IIVWR,019,R,09.8,N,,,,*68
$IIDPT,002.1,-1.0,*43
$IIGLL,4630.085,N,00641.070,E,164017,A,A*5D
$IIHDG,096,,,01,E*1C
$IIMTW,+14.0,C*3D
$IIMWV,017,R,09.7,N,A*1B
$IIMWV,019,T,09.7,N,A*13
$IIRMC,164017,A,4630.085,N,00641.070,E,01.2,092,180614,01,E,A*02
$IIVHW,,,096,M,00.1,N,,*6A
$IIVLW,01517,N,000.0,N*51
$IIVWR,017,R,09.7,N,,,,*69
$IIDPT,002.1,-1.0,*43
$IIGLL,4630.085,N,00641.071,E,164018,A,A*53
$IIHDG,096,,,01,E*1C
$IIMTW,+14.0,C*3D
$IIMWV,015,R,09.4,N,A*1A
$IIMWV,017,T,09.6,N,A*1C
$IIRMC,164018,A,4630.085,N,00641.071,E,01.2,094,180614,01,E,A*0A
$IIVHW,,,096,M,00.1,N,,*6A
$IIVLW,01517,N,000.0,N*51
$IIVWR,011,R,09.9,N,,,,*61
$IIDPT,002.1,-1.0,*43
$IIGLL,4630.085,N,00641.071,E,164019,A,A*52
$IIHDG,096,,,01,E*1C
$IIMTW,+14.0,C*3D
$IIMWV,011,R,09.9,N,A*13
$IIMWV,015,T,09.3,N,A*1B
$IIRMC,164019,A,4630.085,N,00641.071,E,01.4,092,180614,01,E,A*0B
$IIVHW,,,096,M,00.0,N,,*6B
$IIVLW,01517,N,000.0,N*51
$IIVWR,011,R,09.7,N,,,,*6F
$IIDPT,002.0,-1.0,*42
$IIGLL,4630.085,N,00641.072,E,164020,A,A*5B
$IIHDG,096,,,01,E*1C
$IIMTW,+14.0,C*3D
$IIMWV,011,R,09.7,N,A*1D
$IIMWV,011,T,09.7,N,A*1B
$IIRMC,164020,A,4630.085,N,00641.072,E,01.3,094,180614,01,E,A*03
$IIVHW,,,096,M,00.0,N,,*6B
$IIVLW,01517,N,000.0,N*51
$IIVWR,010,R,10.1,N,,,,*60
$IIDPT,002.0,-1.0,*42
$IIGLL,4630.085,N,00641.072,E,164020,A,A*5B
$IIHDG,096,,,01,E*1C
$IIMTW,+14.0,C*3D
$IIMWV,010,R,10.1,N,A*12
$IIMWV,011,T,09.5,N,A*19
$IIRMC,164022,A,4630.084,N,00641.073,E,01.4,097,180614,01,E,A*05
$IIVHW,,,097,M,00.0,N,,*6A
$IIVLW,01517,N,000.0,N*51
$IIVWR,006,R,09.8,N,,,,*66
$IIDPT,001.8,-1.0,*49
$IIGLL,4630.084,N,00641.073,E,164022,A,A*59
$IIHDG,097,,,01,E*1D
$IIMTW,+14.0,C*3D
$IIMWV,006,R,09.8,N,A*14
$IIMWV,005,T,09.6,N,A*1F
$IIRMC,164023,A,4630.084,N,00641.074,E,01.4,098,180614,01,E,A*0C
$IIVHW,,,097,M,00.0,N,,*6A
$IIVLW,01517,N,000.0,N*51
$IIVWR,004,R,09.4,N,,,,*68
$IIDPT,001.7,-1.0,*46
$IIGLL,4630.084,N,00641.074,E,164023,A,A*5F
$IIHDG,097,,,01,E*1D
$IIMTW,+14.0,C*3D
$IIMWV,011,R,09.5,N,A*1F
$IIMWV,004,T,09.4,N,A*1C
$IIRMC,164024,A,4630.084,N,00641.074,E,01.5,098,180614,01,E,A*0A
$IIVHW,,,097,M,00.0,N,,*6A
$IIVLW,01517,N,000.0,N*51
$IIVWR,011,R,09.5,N,,,,*6D
$IIDPT,001.7,-1.0,*46
$IIGLL,4630.084,N,00641.074,E,164024,A,A*58
$IIHDG,097,,,01,E*1D
$IIMTW,+14.0,C*3D
$IIMWV,014,R,09.6,N,A*19
$IIMWV,011,T,09.5,N,A*19
$IIRMC,164025,A,4630.084,N,00641.075,E,01.5,099,180614,01,E,A*0B
$IIVHW,,,098,M,00.0,N,,*65
$IIVLW,01517,N,000.0,N*51
$IIVWR,014,R,09.6,N,,,,*6B
$IIDPT,001.7,-1.0,*46
$IIGLL,4630.084,N,00641.075,E,164025,A,A*58
$IIHDG,098,,,01,E*12
$IIMTW,+14.0,C*3D
$IIMWV,015,R,09.6,N,A*18
$IIMWV,014,T,09.6,N,A*1F
$IIRMC,164026,A,4630.084,N,00641.075,E,01.7,099,180614,01,E,A*0A
$IIVHW,,,098,M,00.0,N,,*65
$IIVLW,01517,N,000.0,N*51
$IIVWR,015,R,09.6,N,,,,*6A
$IIDPT,001.8,-1.0,*49
$IIGLL,4630.083,N,00641.076,E,164027,A,A*5E
$IIHDG,098,,,01,E*12
$IIMTW,+14.0,C*3D
$IIMWV,013,R,08.8,N,A*11
$IIMWV,015,T,09.5,N,A*1D
$IIRMC,164027,A,4630.083,N,00641.076,E,01.6,099,180614,01,E,A*0E
$IIVHW,,,098,M,00.2,N,,*67
$IIVLW,01517,N,000.0,N*51
$IIVWR,013,R,08.8,N,,,,*63
$IIDPT,002.1,-1.0,*43
$IIGLL,4630.083,N,00641.076,E,164028,A,A*51
$IIHDG,099,,,01,E*13
$IIMTW,+14.0,C*3D
$IIMWV,011,R,08.6,N,A*1D
$IIMWV,013,T,08.4,N,A*1B
$IIRMC,164028,A,4630.083,N,00641.076,E,01.7,101,180614,01,E,A*00
$IIVHW,,,099,M,00.2,N,,*66
$IIVLW,01517,N,000.0,N*51
$IIVWR,012,R,09.1,N,,,,*6A
$IIDPT,002.1,-1.0,*43
$IIGLL,4630.083,N,00641.077,E,164029,A,A*51
$IIHDG,099,,,01,E*13
$IIMTW,+14.0,C*3D
$IIMWV,012,R,09.1,N,A*18
$IIMWV,011,T,08.3,N,A*1E
$IIRMC,164029,A,4630.083,N,00641.077,E,01.7,102,180614,01,E,A*03
$IIVHW,,,099,M,00.3,N,,*67
$IIVLW,01517,N,000.0,N*51
$IIVWR,012,R,09.2,N,,,,*69
$IIDPT,002.1,-1.0,*43
$IIGLL,4630.083,N,00641.077,E,164029,A,A*51
$IIHDG,099,,,01,E*13
$IIMTW,+13.0,C*3A
$IIMWV,012,R,09.2,N,A*1B
$IIMWV,012,T,08.7,N,A*19
$IIRMC,164029,A,4630.083,N,00641.077,E,01.7,102,180614,01,E,A*03
$IIVHW,,,098,M,00.5,N,,*60
$IIVLW,01517,N,000.0,N*51
$IIVWR,011,R,09.8,N,,,,*60
$IIDPT,001.9,-1.0,*48
$IIGLL,4630.083,N,00641.078,E,164031,A,A*57
$IIHDG,098,,,01,E*12
$IIMTW,+14.5,C*38
$IIMWV,011,R,09.8,N,A*12
$IIMWV,012,T,08.8,N,A*16
$IIRMC,164032,A,4630.083,N,00641.079,E,01.5,110,180614,01,E,A*06
$IIVHW,,,098,M,00.5,N,,*60
$IIVLW,01517,N,000.0,N*51
$IIVWR,012,R,09.7,N,,,,*6C
$IIDPT,001.9,-1.0,*48
$IIGLL,4630.083,N,00641.079,E,164032,A,A*55
$IIHDG,098,,,01,E*12
$IIMTW,+14.0,C*3D
$IIMWV,012,R,09.7,N,A*1E
$IIMWV,012,T,09.2,N,A*1D
$IIRMC,164033,A,4630.082,N,00641.080,E,01.9,109,180614,01,E,A*04
$IIVHW,,,099,M,00.6,N,,*62
$IIVLW,01517,N,000.0,N*51
$IIVWR,010,R,10.0,N,,,,*61
$IIDPT,001.9,-1.0,*48
