$IIMWV,159,R,05.6,N,A*4C
$IIVLW,01330,N,000.0,N*4D
$IIVWR,006,R,00.0,N,,,,*53
$IIDPT,002.6,-1.0,*40
$IIHDG,059,,,,*4B
$IIMTW,+21.0,C*4E
$IIMWV,006,R,00.0,N,A*4C
$IIMWV,159,T,05.6,N,A*4C
$IIVHW,,,059,M,00.0,N,,*49
$IIVLW,01330,N,000.0,N*4D
$IIVWR,158,R,05.3,N,,,,*53
$IIDPT,002.6,-1.0,*40
$IIHDG,059,,,,*4B
$IIMTW,+21.0,C*4E
$IIMWV,158,R,05.3,N,A*4C
$IIMWV,006,T,00.0,N,A*4C
$IIVHW,,,060,M,00.0,N,,*49
$IIVLW,01330,N,000.0,N*4D
$IIVWR,153,R,05.3,N,,,,*53
$IIDPT,002.6,-1.0,*40
$IIHDG,060,,,,*4B
$IIRMB,A,1.00,R,,VIDY,,,,,003.16,281,,V,A*65
$IIMWV,153,R,05.3,N,A*4C
$IIMWV,158,T,05.3,N,A*4C
$IIVHW,,,060,M,00.0,N,,*49
$IIVLW,01330,N,000.0,N*4D
$IIVWR,150,R,05.1,N,,,,*53
$IIDPT,002.6,-1.0,*40
$IIHDG,060,,,,*4B
$IIMTW,+21.0,C*4E
$IIMWV,150,R,05.1,N,A*4C
$IIMWV,153,T,05.3,N,A*4C
$IIVHW,,,060,M,00.0,N,,*49
$IIVLW,01330,N,000.0,N*4D
$IIVWR,152,R,05.0,N,,,,*53
$IIDPT,002.6,-1.0,*40
$IIHDG,060,,,,*4B
$IIMTW,+21.0,C*4E
$IIMWV,152,R,05.0,N,A*4C
$IIMWV,150,T,05.1,N,A*4C
$IIVHW,,,060,M,00.0,N,,*49
$IIVLW,01330,N,000.0,N*4D
$IIVWR,149,R,05.3,N,,,,*53
$IIDPT,002.6,-1.0,*40
$IIHDG,060,,,,*4B
$IIRMB,A,2.00,R,,VIDY,,,,,003.16,281,,V,A*66
$IIMWV,149,R,05.3,N,A*4C
$IIMWV,152,T,05.0,N,A*4C
$IIVHW,,,060,M,00.0,N,,*49
$IIVLW,01330,N,000.0,N*4D
$IIVWR,149,R,05.9,N,,,,*53
$IIDPT,002.6,-1.0,*40
$IIHDG,060,,,,*4B
$IIMTW,+21.0,C*4E
$IIMWV,149,R,05.9,N,A*4C
$IIMWV,149,T,05.3,N,A*4C
$IIVHW,,,060,M,00.0,N,,*49
$IIVLW,01330,N,000.0,N*4D
$IIVWR,148,R,05.6,N,,,,*53
$IIDPT,002.6,-1.0,*40
$IIHDG,060,,,,*4B
$IIMTW,+21.0,C*4E
$IIMWV,148,R,05.6,N,A*4C
$IIMWV,149,T,05.9,N,A*4C
$IIVHW,,,060,M,00.0,N,,*49
$IIVLW,01330,N,000.0,N*4D
$IIVWR,006,R,00.0,N,,,,*53
$IIDPT,002.6,-1.0,*40
$IIHDG,060,,,,*4B
$IIRMB,A,3.00,R,,VIDY,,,,,003.16,281,,V,A*67
$IIMWV,006,R,00.0,N,A*4C
$IIMWV,148,T,05.6,N,A*4C
$IIVHW,,,060,M,00.0,N,,*49
$IIVLW,01330,N,000.0,N*4D
$IIVWR,144,R,05.3,N,,,,*53
$IIDPT,002.6,-1.0,*40
$IIHDG,060,,,,*4B
$IIMTW,+21.0,C*4E
$IIMWV,144,R,05.3,N,A*4C
$IIMWV,006,T,00.0,N,A*4C
$IIVHW,,,060,M,00.0,N,,*49
$IIVLW,01330,N,000.0,N*4D
$IIVWR,142,R,05.3,N,,,,*53
$IIDPT,002.6,-1.0,*40
$IIHDG,060,,,,*4B
$IIMTW,+21.0,C*4E
$IIMWV,142,R,05.3,N,A*4C
$IIMWV,144,T,05.3,N,A*4C
$IIVHW,,,060,M,00.0,N,,*49
$IIVLW,01330,N,000.0,N*4D
$IIVWR,139,R,05.4,N,,,,*53
$IIDPT,002.6,-1.0,*40
$IIHDG,060,,,,*4B
$IIRMB,A,4.00,R,,VIDY,,,,,003.16,281,,V,A*60
$IIMWV,139,R,05.4,N,A*4C
$IIMWV,142,T,05.3,N,A*4C
$IIVHW,,,060,M,00.0,N,,*49
$IIVLW,01330,N,000.0,N*4D
$IIVWR,136,R,05.6,N,,,,*53
$IIDPT,002.6,-1.0,*40
$IIHDG,060,,,,*4B
$IIMTW,+21.0,C*4E
$IIMWV,136,R,05.6,N,A*4C
$IIMWV,139,T,05.4,N,A*4C
$IIVHW,,,060,M,00.0,N,,*49
$IIVLW,01330,N,000.0,N*4D
$IIVWR,132,R,05.6,N,,,,*53
$IIDPT,002.6,-1.0,*40
$IIHDG,060,,,,*4B
$IIMTW,+21.0,C*4E
$IIMWV,132,R,05.6,N,A*4C
$IIMWV,136,T,05.6,N,A*4C
$IIVHW,,,059,M,00.0,N,,*49
$IIVLW,01330,N,000.0,N*4D
$IIVWR,125,R,05.6,N,,,,*53
$IIDPT,002.6,-1.0,*40
$IIHDG,059,,,,*4B
$IIRMB,A,5.00,R,,VIDY,,,,,003.16,281,,V,A*61
$IIMWV,125,R,05.6,N,A*4C
$IIMWV,132,T,05.6,N,A*4C
$IIVHW,,,060,M,00.0,N,,*49
$IIVLW,01330,N,000.0,N*4D
$IIVWR,130,R,05.2,N,,,,*53
$IIDPT,002.6,-1.0,*40
$IIHDG,060,,,,*4B
$IIMTW,+21.0,C*4E
$IIMWV,130,R,05.2,N,A*4C
$IIMWV,125,T,05.6,N,A*4C
$IIVHW,,,060,M,00.0,N,,*49
$IIVLW,01330,N,000.0,N*4D
$IIVWR,130,R,05.6,N,,,,*53
$IIDPT,002.6,-1.0,*40
$IIHDG,060,,,,*4B
$IIMTW,+21.0,C*4E
$IIMWV,130,R,05.6,N,A*4C
$IIMWV,130,T,05.2,N,A*4C
$IIVHW,,,060,M,00.0,N,,*49
$IIVLW,01330,N,000.0,N*4D
$IIVWR,132,R,05.6,N,,,,*53
$IIDPT,002.6,-1.0,*40
$IIHDG,060,,,,*4B
$IIRMB,A,6.00,R,,VIDY,,,,,003.16,281,,V,A*62
$IIMWV,132,R,05.6,N,A*4C
$IIMWV,130,T,05.6,N,A*4C
$IIVHW,,,059,M,00.0,N,,*49
$IIVLW,01330,N,000.0,N*4D
$IIVWR,145,R,05.3,N,,,,*53
$IIDPT,002.6,-1.0,*40
$IIHDG,059,,,,*4B
$IIMTW,+21.0,C*4E
$IIMWV,145,R,05.3,N,A*4C
$IIMWV,132,T,05.6,N,A*4C
$IIVHW,,,059,M,00.0,N,,*49
$IIVLW,01330,N,000.0,N*4D
$IIVWR,149,R,04.8,N,,,,*53
$IIDPT,002.6,-1.0,*40
$IIHDG,059,,,,*4B
$IIRMB,A,7.00,R,,VIDY,,,,,003.16,281,,V,A*63
$IIMWV,149,R,04.8,N,A*4C
$IIMWV,145,T,05.3,N,A*4C
$IIVHW,,,060,M,00.0,N,,*49
$IIVLW,01330,N,000.0,N*4D
$IIVWR,151,R,04.7,N,,,,*53
$IIDPT,002.6,-1.0,*40
$IIHDG,060,,,,*4B
$IIMTW,+21.0,C*4E
$IIMWV,151,R,04.4,N,A*4C
$IIMWV,151,T,04.7,N,A*4C
$IIVHW,,,060,M,00.0,N,,*49
$IIVLW,01330,N,000.0,N*4D
$IIVWR,151,R,04.4,N,,,,*53
$IIDPT,002.6,-1.0,*40
$IIHDG,060,,,,*4B
$IIMTW,+21.0,C*4E
$IIMWV,155,R,04.1,N,A*4C
$IIMWV,151,T,04.4,N,A*4C
$IIVHW,,,060,M,00.0,N,,*49
$IIVLW,01330,N,000.0,N*4D
$IIVWR,155,R,04.1,N,,,,*53
$IIDPT,002.6,-1.0,*40
$IIHDG,060,,,,*4B
$IIMTW,+21.0,C*4E
$IIMWV,159,R,03.9,N,A*4C
$IIMWV,155,T,04.1,N,A*4C
$IIRMB,A,8.00,R,,VIDY,,,,,003.16,281,,V,A*6C
$IIVLW,01330,N,000.0,N*4D
$IIVWR,159,R,03.9,N,,,,*53
$IIDPT,002.6,-1.0,*40
$IIHDG,059,,,,*4B
$IIMTW,+21.0,C*4E
$IIMWV,159,R,03.7,N,A*4C
$IIMWV,159,T,03.9,N,A*4C
$IIVHW,,,059,M,00.0,N,,*49
$IIVLW,01330,N,000.0,N*4D
$IIVWR,159,R,03.7,N,,,,*53
$IIDPT,002.6,-1.0,*40
$IIHDG,060,,,,*4B
$IIMTW,+21.0,C*4E
$IIMWV,168,R,03.4,N,A*4C
$IIMWV,159,T,03.7,N,A*4C
$IIVHW,,,060,M,00.0,N,,*49
$IIVLW,01330,N,000.0,N*4D
$IIVWR,168,R,03.4,N,,,,*53
$IIRMB,A,9.00,R,,VIDY,,,,,003.16,281,,V,A*6D
$IIRMB,A,0.00,R,,VIDY,,,,,003.16,281,,V,A*64
$IIRMB,A,1.00,R,,VIDY,,,,,003.16,281,,V,A*65
$IIRMB,A,2.00,R,,VIDY,,,,,003.16,281,,V,A*66
$IIHDG,059,,,,*4B
$IIMWV,139,R,01.7,N,A*4C
$IIVHW,,,059,M,,,,*49
$IIVWR,139,R,01.7,N,,,,*53
$IIRMB,A,3.00,R,,VIDY,,,,,003.16,281,,V,A*67
$IIHDG,059,,,,*4B
$IIMTW,+00.0,C*4E
$IIMWV,144,R,02.4,N,A*4C
$IIVHW,,,059,M,00.0,N,,*49
$IIVLW,01330,N,000.0,N*4D
$IIVWR,144,R,02.4,N,,,,*53
$IIHDG,060,,,,*4B
$IIMTW,+20.5,C*4E
$IIMWV,161,R,01.8,N,A*4C
$IIMWV,144,T,02.4,N,A*4C
$IIVHW,,,060,M,00.0,N,,*49
$IIVLW,01330,N,000.0,N*4D
$IIVWR,161,R,01.8,N,,,,*53
$IIDPT,002.6,-1.0,*40
$IIHDG,060,,,,*4B
$IIMTW,+20.5,C*4E
$IIMWV,150,R,02.0,N,A*4C
$IIMWV,161,T,01.8,N,A*4C
$IIVHW,,,060,M,00.0,N,,*49
$IIRMB,A,4.00,R,,VIDY,,,,,003.16,281,,V,A*60
$IIVWR,150,R,02.0,N,,,,*53
$IIDPT,002.6,-1.0,*40
$IIHDG,060,,,,*4B
$IIMTW,+20.5,C*4E
$IIMWV,148,R,02.2,N,A*4C
$IIMWV,150,T,02.0,N,A*4C
$IIVHW,,,060,M,00.0,N,,*49
$IIVLW,01330,N,000.0,N*4D
$IIVWR,148,R,02.2,N,,,,*53
$IIDPT,002.6,-1.0,*40
$IIHDG,060,,,,*4B
$IIMTW,+20.5,C*4E
$IIMWV,145,R,02.2,N,A*4C
$IIMWV,148,T,02.2,N,A*4C
$IIVHW,,,060,M,00.0,N,,*49
$IIVLW,01330,N,000.0,N*4D
$IIVWR,145,R,02.2,N,,,,*53
$IIDPT,002.6,-1.0,*40
$IIHDG,059,,,,*4B
$IIMTW,+20.5,C*4E
$IIMWV,139,R,02.9,N,A*4C
$IIMWV,145,T,02.2,N,A*4C
$IIVHW,,,059,M,00.0,N,,*49
$IIRMB,A,5.00,R,,VIDY,,,,,003.16,281,,V,A*61
$IIVWR,139,R,02.9,N,,,,*53
$IIDPT,002.6,-1.0,*40
$IIHDG,060,,,,*4B
$IIMTW,+20.5,C*4E
$IIMWV,152,R,02.1,N,A*4C
$IIMWV,139,T,02.9,N,A*4C
$IIVHW,,,060,M,00.0,N,,*49
$IIVLW,01330,N,000.0,N*4D
$IIVWR,152,R,02.1,N,,,,*53
$IIDPT,002.6,-1.0,*40
$IIHDG,060,,,,*4B
$IIMTW,+20.5,C*4E
$IIMWV,159,R,01.5,N,A*4C
$IIMWV,152,T,02.1,N,A*4C
$IIVHW,,,060,M,00.0,N,,*49
$IIVLW,01330,N,000.0,N*4D
$IIVWR,159,R,01.5,N,,,,*53
$IIDPT,002.6,-1.0,*40
$IIHDG,060,,,,*4B
$IIMTW,+20.5,C*4E
$IIMWV,161,R,01.6,N,A*4C
$IIMWV,159,T,01.5,N,A*4C
$IIVHW,,,060,M,00.0,N,,*49
$IIRMB,A,6.00,R,,VIDY,,,,,003.16,281,,V,A*62
$IIVWR,161,R,01.6,N,,,,*53
$IIDPT,002.6,-1.0,*40
$IIHDG,060,,,,*4B
$IIMTW,+20.5,C*4E
$IIMWV,165,R,01.8,N,A*4C
$IIMWV,161,T,01.6,N,A*4C
$IIVHW,,,060,M,00.0,N,,*49
$IIVLW,01330,N,000.0,N*4D
$IIVWR,165,R,01.8,N,,,,*53
$IIDPT,002.6,-1.0,*40
$IIGLL,5450.267,N,00931.380,E,194434,A,A*47
$IIHDG,059,,,,*4B
$IIMTW,+20.5,C*4E
$IIMWV,166,R,01.8,N,A*4C
$IIMWV,165,T,01.8,N,A*4C
$IIRMC,194434,A,5450.267,N,00931.380,E,00.2,351,310713,,,A*5C
$IIVHW,,,059,M,00.0,N,,*49
$IIVLW,01330,N,000.0,N*4D
$IIVWR,165,R,01.8,N,,,,*53
$IIDPT,002.6,-1.0,*40
$IIGLL,5450.267,N,00931.380,E,194435,A,A*47
$IIHDG,059,,,,*4B
$IIMTW,+20.5,C*4E
$IIRMB,A,7.00,R,,VIDY,,,,,003.16,281,,V,A*63
$IIMWV,166,T,01.8,N,A*4C
$IIRMC,194435,A,5450.267,N,00931.380,E,00.2,351,310713,,,A*5C
$IIVHW,,,059,M,00.0,N,,*49
$IIVLW,01330,N,000.0,N*4D
$IIVWR,164,R,02.1,N,,,,*53
$IIDPT,002.6,-1.0,*40
$IIGLL,5450.267,N,00931.380,E,194436,A,A*47
$IIHDG,059,,,,*4B
$IIMTW,+20.5,C*4E
$IIMWV,164,R,02.1,N,A*4C
$IIMWV,165,T,01.8,N,A*4C
$IIRMC,194436,A,5450.267,N,00931.380,E,00.2,348,310713,,,A*5C
$IIVHW,,,060,M,00.0,N,,*49
$IIVLW,01330,N,000.0,N*4D
$IIVWR,164,R,02.5,N,,,,*53
$IIDPT,002.6,-1.0,*40
$IIGLL,5450.267,N,00931.380,E,194437,A,A*47
$IIHDG,060,,,,*4B
$IIMTW,+20.5,C*4E
$IIMWV,164,R,02.5,N,A*4C
$IIMWV,164,T,02.1,N,A*4C
$IIRMC,194438,A,5450.267,N,00931.380,E,00.2,352,310713,,,A*5C
$IIVHW,,,060,M,00.0,N,,*49
$IIVLW,01330,N,000.0,N*4D
$IIRMB,A,8.00,R,,VIDY,,,,,003.16,281,,V,A*6C
$IIDPT,002.6,-1.0,*40
$IIGLL,5450.267,N,00931.380,E,194438,A,A*47
$IIHDG,060,,,,*4B
$IIMTW,+20.5,C*4E
$IIMWV,166,R,01.1,N,A*4C
$IIMWV,166,T,01.1,N,A*4C
$IIRMC,194439,A,5450.267,N,00931.380,E,00.2,352,310713,,,A*5C
$IIVHW,,,060,M,00.0,N,,*49
$IIVLW,01330,N,000.0,N*4D
$IIVWR,174,R,01.9,N,,,,*53
$IIDPT,002.6,-1.0,*40
$IIGLL,5450.267,N,00931.380,E,194439,A,A*47
$IIHDG,060,,,,*4B
$IIMTW,+20.5,C*4E
$IIMWV,191,R,00.9,N,A*4C
$IIMWV,174,T,01.9,N,A*4C
$IIRMC,194440,A,5450.267,N,00931.381,E,00.3,352,310713,,,A*5C
$IIVHW,,,059,M,00.0,N,,*49
$IIVLW,01330,N,000.0,N*4D
$IIVWR,169,L,00.9,N,,,,*53
$IIDPT,002.6,-1.0,*40
$IIGLL,5450.267,N,00931.381,E,194440,A,A*47
$IIHDG,059,,,,*4B
$IIMTW,+20.5,C*4E
$IIMWV,204,R,01.8,N,A*4C
$IIMWV,191,T,00.9,N,A*4C
$IIRMC,194441,A,5450.267,N,00931.381,E,00.3,352,310713,,,A*5C
$IIRMB,A,9.00,R,,VIDY,,,,,003.16,281,,V,A*6D
$IIVLW,01330,N,000.0,N*4D
$IIVWR,156,L,01.8,N,,,,*53
$IIDPT,002.6,-1.0,*40
$IIGLL,5450.267,N,00931.381,E,194441,A,A*47
$IIHDG,060,,,,*4B
$IIMTW,+20.5,C*4E
$IIMWV,209,R,00.9,N,A*4C
$IIMWV,204,T,01.8,N,A*4C
$IIRMC,194442,A,5450.267,N,00931.381,E,00.2,002,310713,,,A*5C
$IIVHW,,,060,M,00.0,N,,*49
$IIVLW,01330,N,000.0,N*4D
$IIVWR,151,L,00.9,N,,,,*53
$IIDPT,002.6,-1.0,*40
$IIGLL,5450.267,N,00931.380,E,194443,A,A*47
$IIHDG,060,,,,*4B
$IIMTW,+20.5,C*4E
$IIMWV,219,R,01.6,N,A*4C
$IIMWV,209,T,00.9,N,A*4C
$IIRMC,194443,A,5450.267,N,00931.380,E,00.2,359,310713,,,A*5C
$IIVHW,,,060,M,00.0,N,,*49
$IIVLW,01330,N,000.0,N*4D
$IIVWR,141,L,01.6,N,,,,*53
$IIDPT,002.6,-1.0,*40
$IIGLL,5450.267,N,00931.380,E,194444,A,A*47
$IIHDG,060,,,,*4B
$IIMTW,+20.5,C*4E
$IIMWV,211,R,00.6,N,A*4C
$IIRMB,A,0.00,R,,VIDY,,,,,003.16,281,,V,A*64
$IIRMC,194444,A,5450.267,N,00931.380,E,00.2,359,310713,,,A*5C
$IIVHW,,,060,M,00.0,N,,*49
$IIVLW,01330,N,000.0,N*4D
$IIVWR,175,R,01.4,N,,,,*53
$IIDPT,002.6,-1.0,*40
$IIGLL,5450.267,N,00931.380,E,194445,A,A*47
$IIHDG,059,,,,*4B
$IIMTW,+20.5,C*4E
$IIMWV,175,R,01.4,N,A*4C
$IIMWV,211,T,00.6,N,A*4C
$IIRMC,194445,A,5450.267,N,00931.380,E,00.3,003,310713,,,A*5C
$IIVHW,,,059,M,00.0,N,,*49
$IIVLW,01330,N,000.0,N*4D
$IIVWR,178,R,02.2,N,,,,*53
$IIDPT,002.6,-1.0,*40
$IIGLL,5450.267,N,00931.380,E,194446,A,A*47
$IIHDG,059,,,,*4B
$IIMTW,+20.5,C*4E
$IIMWV,178,R,02.2,N,A*4C
$IIMWV,175,T,01.4,N,A*4C
$IIRMC,194446,A,5450.267,N,00931.380,E,00.2,353,310713,,,A*5C
$IIVHW,,,059,M,00.0,N,,*49
$IIVLW,01330,N,000.0,N*4D
$IIVWR,176,R,00.9,N,,,,*53
$IIDPT,002.6,-1.0,*40
$IIRMB,A,1.00,R,,VIDY,,,,,003.16,281,,V,A*65
$IIHDG,059,,,,*4B
$IIMTW,+20.5,C*4E
$IIMWV,176,R,00.9,N,A*4C
$IIMWV,178,T,02.2,N,A*4C
$IIRMC,194448,A,5450.267,N,00931.380,E,00.2,354,310713,,,A*5C
$IIVHW,,,059,M,00.0,N,,*49
$IIVLW,01330,N,000.0,N*4D
$IIVWR,173,R,01.5,N,,,,*53
$IIDPT,002.6,-1.0,*40
$IIGLL,5450.267,N,00931.380,E,194448,A,A*47
$IIHDG,059,,,,*4B
$IIMTW,+20.5,C*4E
$IIMWV,173,R,01.5,N,A*4C
$IIMWV,173,T,01.5,N,A*4C
$IIRMC,194449,A,5450.266,N,00931.380,E,00.2,354,310713,,,A*5C
$IIVHW,,,059,M,00.0,N,,*49
$IIVLW,01330,N,000.0,N*4D
$IIVWR,176,R,01.3,N,,,,*53
$IIDPT,002.6,-1.0,*40
$IIGLL,5450.266,N,00931.380,E,194449,A,A*47
$IIHDG,059,,,,*4B
$IIMTW,+20.5,C*4E
$IIMWV,182,R,01.2,N,A*4C
$IIMWV,176,T,01.3,N,A*4C
$IIRMC,194450,A,5450.267,N,00931.380,E,00.2,004,310713,,,A*5C
$IIVHW,,,059,M,00.0,N,,*49
$IIRMB,A,2.00,R,,VIDY,,,,,003.16,281,,V,A*66
$IIVLW,01330,N,000.0,N*4D
$IIVWR,178,L,01.2,N,,,,*53
$IIDPT,002.6,-1.0,*40
$IIGLL,5450.267,N,00931.380,E,194450,A,A*47
$IIHDG,059,,,,*4B
$IIMTW,+20.5,C*4E
$IIMWV,185,R,01.9,N,A*4C
$IIMWV,182,T,01.2,N,A*4C
$IIRMC,194451,A,5450.267,N,00931.380,E,00.3,004,310713,,,A*5C
$IIVHW,,,059,M,00.0,N,,*49
$IIVLW,01330,N,000.0,N*4D
$IIVWR,175,L,01.9,N,,,,*53
$IIDPT,002.6,-1.0,*40
$IIGLL,5450.267,N,00931.380,E,194451,A,A*47
$IIHDG,059,,,,*4B
$IIMTW,+20.5,C*4E
$IIMWV,187,R,01.1,N,A*4C
$IIMWV,185,T,01.9,N,A*4C
$IIRMC,194452,A,5450.267,N,00931.380,E,00.2,006,310713,,,A*5C
$IIVHW,,,059,M,00.0,N,,*49
$IIVLW,01330,N,000.0,N*4D
$IIVWR,173,L,01.1,N,,,,*53
$IIDPT,002.6,-1.0,*40
$IIGLL,5450.267,N,00931.381,E,194453,A,A*47
$IIHDG,059,,,,*4B
$IIMTW,+20.5,C*4E
$IIMWV,187,R,00.6,N,A*4C
$IIMWV,187,T,01.1,N,A*4C
$IIRMB,A,3.00,R,,VIDY,,,,,003.16,281,,V,A*67
$IIVHW,,,059,M,00.0,N,,*49
$IIVLW,01330,N,000.0,N*4D
$IIVWR,173,L,00.6,N,,,,*53
$IIDPT,002.6,-1.0,*40
$IIGLL,5450.267,N,00931.381,E,194454,A,A*47
$IIHDG,060,,,,*4B
$IIMTW,+20.5,C*4E
$IIMWV,190,R,01.1,N,A*4C
$IIMWV,187,T,00.6,N,A*4C
$IIRMC,194454,A,5450.267,N,00931.381,E,00.4,013,310713,,,A*5C
$IIVHW,,,060,M,00.0,N,,*49
$IIVLW,01330,N,000.0,N*4D
$IIVWR,163,L,00.6,N,,,,*53
$IIDPT,002.6,-1.0,*40
$IIGLL,5450.267,N,00931.381,E,194455,A,A*47
$IIHDG,060,,,,*4B
$IIMTW,+20.5,C*4E
$IIMWV,197,R,00.6,N,A*4C
$IIMWV,190,T,01.1,N,A*4C
$IIRMC,194455,A,5450.267,N,00931.381,E,00.3,004,310713,,,A*5C
$IIVHW,,,060,M,00.0,N,,*49
$IIRMB,A,4.00,R,,VIDY,,,,,003.16,281,,V,A*60
$IIVLW,01330,N,000.0,N*4D
$IIVWR,160,L,00.3,N,,,,*53
$IIDPT,002.6,-1.0,*40
$IIGLL,5450.267,N,00931.382,E,194456,A,A*47
$IIHDG,060,,,,*4B
$IIMTW,+20.5,C*4E
$IIMWV,200,R,00.3,N,A*4C
$IIMWV,197,T,00.6,N,A*4C
$IIRMC,194456,A,5450.267,N,00931.382,E,00.3,004,310713,,,A*5C
$IIVHW,,,059,M,00.0,N,,*49
$IIVLW,01330,N,000.0,N*4D
$IIVWR,166,L,00.7,N,,,,*53
$IIDPT,002.6,-1.0,*40
$IIGLL,5450.267,N,00931.382,E,194457,A,A*47
$IIHDG,059,,,,*4B
$IIMTW,+20.5,C*4E
$IIMWV,194,R,00.7,N,A*4C
$IIMWV,199,T,01.2,N,A*4C
