$IIMTW,+00.0,C*4E
$IIMWV,001,R,19.1,N,A*4C
$IIHDG,298,,,,*4B
$IIMTW,+20.5,C*4E
$IIMWV,356,R,21.4,N,A*4C
$IIMWV,001,T,18.5,N,A*4C
$IIVHW,,,298,M,01.0,N,,*49
$IIVLW,01323,N,000.0,N*4D
$IIVWR,011,L,22.9,N,,,,*53
$IIDPT,014.0,-1.0,*40
$IIHDG,295,,,,*4B
$IIMTW,+20.5,C*4E
$IIMWV,349,R,22.9,N,A*4C
$IIMWV,356,T,20.3,N,A*4C
$IIVHW,,,295,M,01.3,N,,*49
$IIVLW,01323,N,000.0,N*4D
$IIVWR,013,L,22.8,N,,,,*53
$IIRMB,A,1.00,R,,VIDY,,,,,003.16,281,,V,A*65
$IIHDG,294,,,,*4B
$IIMTW,+21.0,C*4E
$IIMWV,347,R,22.8,N,A*4C
$IIMWV,348,T,21.4,N,A*4C
$IIVHW,,,294,M,01.6,N,,*49
$IIVLW,01323,N,000.0,N*4D
$IIVWR,012,L,22.8,N,,,,*53
$IIDPT,014.0,-1.0,*40
$IIHDG,293,,,,*4B
$IIMTW,+21.0,C*4E
$IIMWV,348,R,22.8,N,A*4C
$IIMWV,346,T,21.0,N,A*4C
$IIVHW,,,293,M,01.9,N,,*49
$IIVLW,01323,N,000.0,N*4D
$IIVWR,012,L,22.8,N,,,,*53
$IIDPT,014.2,-1.0,*40
$IIHDG,293,,,,*4B
$IIMTW,+21.0,C*4E
$IIMWV,348,R,22.8,N,A*4C
$IIMWV,347,T,20.9,N,A*4C
$IIVHW,,,293,M,02.1,N,,*49
$IIVLW,01323,N,000.0,N*4D
$IIVWR,010,L,23.4,N,,,,*53
$IIRMB,A,2.00,R,,VIDY,,,,,003.16,281,,V,A*66
$IIHDG,293,,,,*4B
$IIMTW,+21.0,C*4E
$IIMWV,350,R,23.4,N,A*4C
$IIMWV,347,T,20.7,N,A*4C
$IIVHW,,,293,M,02.2,N,,*49
$IIVLW,01323,N,000.0,N*4D
$IIVWR,013,L,23.4,N,,,,*53
$IIDPT,017.6,-1.0,*40
$IIHDG,291,,,,*4B
$IIMTW,+21.0,C*4E
$IIMWV,347,R,23.4,N,A*4C
$IIMWV,349,T,21.0,N,A*4C
$IIVHW,,,291,M,02.3,N,,*49
$IIVLW,01323,N,000.0,N*4D
$IIVWR,014,L,23.0,N,,,,*53
$IIDPT,017.6,-1.0,*40
$IIHDG,289,,,,*4B
$IIMTW,+21.0,C*4E
$IIMWV,346,R,23.0,N,A*4C
$IIMWV,346,T,20.8,N,A*4C
$IIVHW,,,289,M,02.5,N,,*49
$IIVLW,01323,N,000.0,N*4D
$IIVWR,015,L,23.4,N,,,,*53
$IIRMB,A,3.00,R,,VIDY,,,,,003.16,281,,V,A*67
$IIHDG,286,,,,*4B
$IIMTW,+21.0,C*4E
$IIMWV,345,R,23.4,N,A*4C
$IIMWV,345,T,20.5,N,A*4C
$IIVHW,,,286,M,02.5,N,,*49
$IIVLW,01323,N,000.0,N*4D
$IIVWR,015,L,23.0,N,,,,*53
$IIDPT,015.9,-1.0,*40
$IIHDG,287,,,,*4B
$IIMTW,+21.0,C*4E
$IIMWV,345,R,23.0,N,A*4C
$IIMWV,343,T,20.9,N,A*4C
$IIVHW,,,287,M,02.4,N,,*49
$IIVLW,01323,N,000.0,N*4D
$IIVWR,011,L,24.0,N,,,,*53
$IIDPT,014.2,-1.0,*40
$IIHDG,284,,,,*4B
$IIMTW,+20.5,C*4E
$IIMWV,349,R,24.0,N,A*4C
$IIMWV,343,T,20.6,N,A*4C
$IIVHW,,,284,M,02.3,N,,*49
$IIVLW,01323,N,000.0,N*4D
$IIVWR,009,L,22.8,N,,,,*53
$IIRMB,A,4.00,R,,VIDY,,,,,003.16,281,,V,A*60
$IIHDG,287,,,,*4B
$IIMTW,+20.5,C*4E
$IIMWV,351,R,22.8,N,A*4C
$IIMWV,348,T,21.5,N,A*4C
$IIVHW,,,287,M,02.3,N,,*49
$IIVLW,01323,N,000.0,N*4D
$IIVWR,015,L,23.9,N,,,,*53
$IIDPT,013.9,-1.0,*40
$IIHDG,290,,,,*4B
$IIMTW,+20.5,C*4E
$IIMWV,345,R,23.9,N,A*4C
$IIMWV,350,T,20.4,N,A*4C
$IIVHW,,,290,M,02.3,N,,*49
$IIVLW,01323,N,000.0,N*4D
$IIVWR,016,L,21.9,N,,,,*53
$IIDPT,013.9,-1.0,*40
$IIHDG,290,,,,*4B
$IIMTW,+20.5,C*4E
$IIMWV,344,R,21.9,N,A*4C
$IIMWV,343,T,21.7,N,A*4C
$IIVHW,,,290,M,02.2,N,,*49
$IIVLW,01323,N,000.0,N*4D
$IIVWR,015,L,22.4,N,,,,*53
$IIRMB,A,5.00,R,,VIDY,,,,,003.16,281,,V,A*61
$IIHDG,295,,,,*4B
$IIMTW,+20.5,C*4E
$IIMWV,345,R,22.4,N,A*4C
$IIMWV,342,T,19.6,N,A*4C
$IIVHW,,,295,M,02.1,N,,*49
$IIVLW,01323,N,000.0,N*4D
$IIVWR,018,L,21.1,N,,,,*53
$IIDPT,013.9,-1.0,*40
$IIHDG,297,,,,*4B
$IIMTW,+20.5,C*4E
$IIMWV,342,R,21.1,N,A*4C
$IIMWV,343,T,20.3,N,A*4C
$IIVHW,,,297,M,01.9,N,,*49
$IIVLW,01323,N,000.0,N*4D
$IIVWR,020,L,20.6,N,,,,*53
$IIDPT,013.9,-1.0,*40
$IIHDG,301,,,,*4B
$IIMTW,+20.5,C*4E
$IIMWV,340,R,20.6,N,A*4C
$IIMWV,340,T,19.2,N,A*4C
$IIVHW,,,301,M,01.9,N,,*49
$IIVLW,01323,N,000.0,N*4D
$IIVWR,024,L,20.7,N,,,,*53
$IIRMB,A,6.00,R,,VIDY,,,,,003.16,281,,V,A*62
$IIHDG,302,,,,*4B
$IIMTW,+20.5,C*4E
$IIMWV,336,R,20.7,N,A*4C
$IIMWV,338,T,18.6,N,A*4C
$IIVHW,,,302,M,01.7,N,,*49
$IIVLW,01323,N,000.0,N*4D
$IIVWR,021,L,21.0,N,,,,*53
$IIDPT,013.9,-1.0,*40
$IIHDG,303,,,,*4B
$IIMTW,+20.5,C*4E
$IIMWV,339,R,21.0,N,A*4C
$IIMWV,334,T,18.9,N,A*4C
$IIVHW,,,303,M,01.9,N,,*49
$IIVLW,01323,N,000.0,N*4D
$IIVWR,020,L,20.1,N,,,,*53
$IIDPT,013.9,-1.0,*40
$IIHDG,305,,,,*4B
$IIMTW,+20.5,C*4E
$IIMWV,340,R,20.1,N,A*4C
$IIMWV,337,T,19.1,N,A*4C
$IIVHW,,,305,M,01.9,N,,*49
$IIVLW,01323,N,000.0,N*4D
$IIVWR,024,L,20.9,N,,,,*53
$IIRMB,A,7.00,R,,VIDY,,,,,003.16,281,,V,A*63
$IIHDG,304,,,,*4B
$IIMTW,+20.5,C*4E
$IIMWV,336,R,20.9,N,A*4C
$IIMWV,338,T,18.2,N,A*4C
$IIVHW,,,304,M,01.9,N,,*49
$IIVLW,01323,N,000.0,N*4D
$IIVWR,025,L,20.1,N,,,,*53
$IIDPT,013.9,-1.0,*40
$IIHDG,310,,,,*4B
$IIMTW,+20.5,C*4E
$IIMWV,335,R,20.1,N,A*4C
$IIMWV,334,T,19.0,N,A*4C
$IIVHW,,,310,M,02.1,N,,*49
$IIVLW,01323,N,000.0,N*4D
$IIVWR,028,L,20.6,N,,,,*53
$IIDPT,015.1,-1.0,*40
$IIHDG,304,,,,*4B
$IIMTW,+20.5,C*4E
$IIMWV,332,R,20.6,N,A*4C
$IIMWV,333,T,18.1,N,A*4C
$IIVHW,,,304,M,01.9,N,,*49
$IIVLW,01323,N,000.0,N*4D
$IIVWR,028,L,20.4,N,,,,*53
$IIRMB,A,8.00,R,,VIDY,,,,,003.16,281,,V,A*6C
$IIHDG,308,,,,*4B
$IIMTW,+20.5,C*4E
$IIMWV,332,R,20.4,N,A*4C
$IIMWV,329,T,18.8,N,A*4C
$IIVHW,,,308,M,02.0,N,,*49
$IIVLW,01323,N,000.0,N*4D
$IIVWR,034,L,21.4,N,,,,*53
$IIDPT,014.0,-1.0,*40
$IIHDG,310,,,,*4B
$IIMTW,+20.5,C*4E
$IIMWV,326,R,21.4,N,A*4C
$IIMWV,329,T,18.4,N,A*4C
$IIVHW,,,310,M,02.0,N,,*49
$IIVLW,01323,N,000.0,N*4D
$IIVWR,034,L,21.2,N,,,,*53
$IIDPT,013.9,-1.0,*40
$IIHDG,310,,,,*4B
$IIMTW,+20.5,C*4E
$IIMWV,326,R,21.2,N,A*4C
$IIMWV,323,T,19.7,N,A*4C
$IIVHW,,,310,M,02.0,N,,*49
$IIVLW,01323,N,000.0,N*4D
$IIVWR,030,L,20.7,N,,,,*53
$IIRMB,A,9.00,R,,VIDY,,,,,003.16,281,,V,A*6D
$IIHDG,310,,,,*4B
$IIMTW,+20.5,C*4E
$IIMWV,330,R,20.7,N,A*4C
$IIMWV,323,T,19.4,N,A*4C
$IIVHW,,,310,M,02.1,N,,*49
$IIVLW,01323,N,000.0,N*4D
$IIVWR,035,L,20.5,N,,,,*53
$IIDPT,013.8,-1.0,*40
$IIHDG,310,,,,*4B
$IIMTW,+20.5,C*4E
$IIMWV,325,R,20.5,N,A*4C
$IIMWV,327,T,18.8,N,A*4C
$IIVHW,,,310,M,02.1,N,,*49
$IIVLW,01323,N,000.0,N*4D
$IIVWR,033,L,20.3,N,,,,*53
$IIDPT,013.8,-1.0,*40
$IIHDG,312,,,,*4B
$IIMTW,+20.5,C*4E
$IIMWV,327,R,20.3,N,A*4C
$IIMWV,322,T,18.6,N,A*4C
$IIVHW,,,312,M,02.2,N,,*49
$IIVLW,01323,N,000.0,N*4D
$IIVWR,034,L,19.9,N,,,,*53
$IIRMB,A,0.00,R,,VIDY,,,,,003.16,281,,V,A*64
$IIHDG,314,,,,*4B
$IIMTW,+20.5,C*4E
$IIMWV,326,R,19.9,N,A*4C
$IIMWV,323,T,18.3,N,A*4C
$IIVHW,,,314,M,02.2,N,,*49
$IIVLW,01323,N,000.0,N*4D
$IIVWR,035,L,19.6,N,,,,*53
$IIDPT,013.7,-1.0,*40
$IIHDG,316,,,,*4B
$IIMTW,+20.5,C*4E
$IIMWV,325,R,19.6,N,A*4C
$IIMWV,322,T,18.0,N,A*4C
$IIVHW,,,316,M,02.2,N,,*49
$IIVLW,01323,N,000.0,N*4D
$IIVWR,034,L,19.5,N,,,,*53
$IIDPT,013.7,-1.0,*40
$IIHDG,318,,,,*4B
$IIMTW,+20.5,C*4E
$IIMWV,326,R,19.5,N,A*4C
$IIMWV,321,T,17.6,N,A*4C
$IIVHW,,,318,M,02.2,N,,*49
$IIVLW,01323,N,000.0,N*4D
$IIVWR,037,L,19.4,N,,,,*53
$IIRMB,A,1.00,R,,VIDY,,,,,003.16,281,,V,A*65
$IIHDG,323,,,,*4B
$IIMTW,+18.0,C*4E
$IIMWV,323,R,19.4,N,A*4C
$IIMWV,322,T,17.5,N,A*4C
$IIVHW,,,323,M,02.1,N,,*49
$IIVLW,01323,N,000.0,N*4D
$IIVWR,040,L,19.1,N,,,,*53
$IIDPT,013.6,-1.0,*40
$IIHDG,323,,,,*4B
$IIMTW,+20.5,C*4E
$IIMWV,320,R,19.1,N,A*4C
$IIMWV,319,T,17.7,N,A*4C
$IIVHW,,,323,M,01.8,N,,*49
$IIVLW,01323,N,000.0,N*4D
$IIVWR,042,L,18.8,N,,,,*53
$IIDPT,013.6,-1.0,*40
$IIHDG,330,,,,*4B
$IIMTW,+22.0,C*4E
$IIMWV,318,R,18.8,N,A*4C
$IIMWV,316,T,17.6,N,A*4C
$IIVHW,,,330,M,02.0,N,,*49
$IIVLW,01323,N,000.0,N*4D
$IIVWR,045,L,19.6,N,,,,*53
$IIRMB,A,2.00,R,,VIDY,,,,,003.16,281,,V,A*66
$IIHDG,330,,,,*4B
$IIMTW,+21.0,C*4E
$IIMWV,315,R,19.6,N,A*4C
$IIMWV,313,T,17.1,N,A*4C
$IIVHW,,,330,M,02.2,N,,*49
$IIVLW,01323,N,000.0,N*4D
$IIVWR,046,L,19.6,N,,,,*53
$IIDPT,013.6,-1.0,*40
$IIHDG,330,,,,*4B
$IIMTW,+21.0,C*4E
$IIMWV,314,R,19.6,N,A*4C
$IIMWV,310,T,18.1,N,A*4C
$IIVHW,,,330,M,02.3,N,,*49
$IIVLW,01323,N,000.0,N*4D
$IIVWR,048,L,19.1,N,,,,*53
$IIDPT,013.6,-1.0,*40
$IIHDG,331,,,,*4B
$IIMTW,+21.0,C*4E
$IIMWV,312,R,19.1,N,A*4C
$IIMWV,308,T,17.9,N,A*4C
$IIVHW,,,331,M,02.5,N,,*49
$IIVLW,01323,N,000.0,N*4D
$IIVWR,048,L,19.8,N,,,,*53
$IIRMB,A,3.00,R,,VIDY,,,,,003.16,281,,V,A*67
$IIHDG,334,,,,*4B
$IIMTW,+21.5,C*4E
$IIMWV,312,R,19.8,N,A*4C
$IIMWV,306,T,17.4,N,A*4C
$IIVHW,,,334,M,02.6,N,,*49
$IIVLW,01323,N,000.0,N*4D
$IIVWR,050,L,19.9,N,,,,*53
$IIDPT,013.6,-1.0,*40
$IIHDG,334,,,,*4B
$IIMTW,+21.5,C*4E
$IIMWV,310,R,19.9,N,A*4C
$IIMWV,306,T,17.9,N,A*4C
$IIVHW,,,334,M,02.8,N,,*49
$IIVLW,01323,N,000.0,N*4D
$IIVWR,052,L,20.4,N,,,,*53
$IIDPT,013.6,-1.0,*40
$IIHDG,339,,,,*4B
$IIMTW,+21.5,C*4E
$IIMWV,308,R,20.4,N,A*4C
$IIMWV,303,T,18.2,N,A*4C
$IIVHW,,,339,M,02.9,N,,*49
$IIVLW,01323,N,000.0,N*4D
$IIVWR,055,L,19.6,N,,,,*53
$IIRMB,A,4.00,R,,VIDY,,,,,003.16,281,,V,A*60
$IIHDG,340,,,,*4B
$IIMTW,+21.5,C*4E
$IIMWV,305,R,19.6,N,A*4C
$IIMWV,301,T,18.7,N,A*4C
$IIVHW,,,340,M,03.1,N,,*49
$IIVLW,01323,N,000.0,N*4D
$IIVWR,059,L,19.7,N,,,,*53
$IIDPT,013.6,-1.0,*40
$IIHDG,347,,,,*4B
$IIMTW,+21.0,C*4E
$IIMWV,301,R,19.7,N,A*4C
$IIMWV,297,T,17.8,N,A*4C
$IIVHW,,,347,M,03.3,N,,*49
$IIVLW,01323,N,000.0,N*4D
$IIVWR,062,L,20.0,N,,,,*53
$IIDPT,013.8,-1.0,*40
$IIHDG,352,,,,*4B
$IIMTW,+21.5,C*4E
$IIMWV,298,R,20.0,N,A*4C
$IIMWV,292,T,18.2,N,A*4C
$IIVHW,,,352,M,03.4,N,,*49
$IIVLW,01323,N,000.0,N*4D
$IIVWR,067,L,20.0,N,,,,*53
$IIRMB,A,5.00,R,,VIDY,,,,,003.16,281,,V,A*61
$IIHDG,350,,,,*4B
$IIMTW,+21.5,C*4E
$IIMWV,293,R,20.0,N,A*4C
$IIMWV,289,T,18.5,N,A*4C
$IIVHW,,,350,M,03.6,N,,*49
$IIVLW,01323,N,000.0,N*4D
$IIVWR,071,L,19.4,N,,,,*53
$IIDPT,013.9,-1.0,*40
$IIHDG,355,,,,*4B
$IIMTW,+21.5,C*4E
$IIMWV,289,R,19.4,N,A*4C
$IIMWV,283,T,18.8,N,A*4C
$IIVHW,,,355,M,03.8,N,,*49
$IIVLW,01323,N,000.0,N*4D
$IIVWR,076,L,19.4,N,,,,*53
$IIDPT,013.8,-1.0,*40
$IIHDG,004,,,,*4B
$IIMTW,+21.5,C*4E
$IIMWV,284,R,19.4,N,A*4C
$IIMWV,278,T,18.5,N,A*4C
$IIVHW,,,004,M,03.9,N,,*49
$IIVLW,01323,N,000.0,N*4D
$IIVWR,079,L,20.3,N,,,,*53
$IIRMB,A,6.00,R,,VIDY,,,,,003.16,281,,V,A*62
$IIHDG,008,,,,*4B
$IIMTW,+21.5,C*4E
$IIMWV,281,R,20.3,N,A*4C
$IIMWV,272,T,18.8,N,A*4C
$IIVHW,,,008,M,04.1,N,,*49
$IIVLW,01323,N,000.0,N*4D
$IIVWR,085,L,19.1,N,,,,*53
$IIDPT,013.8,-1.0,*40
$IIHDG,004,,,,*4B
$IIMTW,+21.5,C*4E
$IIMWV,275,R,19.1,N,A*4C
$IIMWV,269,T,19.8,N,A*4C
$IIVHW,,,004,M,04.4,N,,*49
$IIVLW,01323,N,000.0,N*4D
$IIVWR,090,L,19.6,N,,,,*53
$IIDPT,013.7,-1.0,*40
$IIHDG,010,,,,*4B
$IIMTW,+21.5,C*4E
$IIMWV,270,R,19.6,N,A*4C
$IIMWV,262,T,19.2,N,A*4C
$IIVHW,,,010,M,04.6,N,,*49
$IIVLW,01323,N,000.0,N*4D
$IIVWR,090,L,21.1,N,,,,*53
$IIRMB,A,7.00,R,,VIDY,,,,,003.16,281,,V,A*63
$IIHDG,014,,,,*4B
$IIMTW,+21.0,C*4E
$IIMWV,270,R,21.1,N,A*4C
$IIMWV,257,T,20.1,N,A*4C
$IIVHW,,,014,M,04.8,N,,*49
$IIVLW,01323,N,000.0,N*4D
$IIVWR,094,L,20.6,N,,,,*53
$IIDPT,013.5,-1.0,*40
$IIHDG,017,,,,*4B
$IIMTW,+21.0,C*4E
$IIMWV,266,R,20.6,N,A*4C
$IIMWV,257,T,21.6,N,A*4C
$IIVHW,,,017,M,05.1,N,,*49
$IIVLW,01323,N,000.0,N*4D
$IIVWR,094,L,19.1,N,,,,*53
$IIDPT,013.3,-1.0,*40
$IIHDG,019,,,,*4B
$IIMTW,+21.0,C*4E
$IIMWV,266,R,19.1,N,A*4C
$IIMWV,253,T,21.6,N,A*4C
$IIVHW,,,019,M,05.4,N,,*49
$IIVLW,01323,N,000.0,N*4D
$IIVWR,094,L,18.5,N,,,,*53
$IIRMB,A,8.00,R,,VIDY,,,,,003.16,281,,V,A*6C
$IIHDG,021,,,,*4B
$IIMTW,+21.0,C*4E
$IIMWV,266,R,18.5,N,A*4C
$IIMWV,250,T,20.2,N,A*4C
$IIVHW,,,021,M,05.8,N,,*49
$IIVLW,01323,N,000.0,N*4D
$IIVWR,094,L,19.2,N,,,,*53
$IIDPT,013.2,-1.0,*40
$IIHDG,020,,,,*4B
$IIMTW,+22.0,C*4E
$IIMWV,266,R,19.2,N,A*4C
$IIMWV,249,T,19.7,N,A*4C
$IIVHW,,,020,M,06.1,N,,*49
$IIVLW,01323,N,000.0,N*4D
$IIVWR,096,L,19.6,N,,,,*53
$IIDPT,013.2,-1.0,*40
$IIHDG,018,,,,*4B
$IIMTW,+20.5,C*4E
$IIMWV,264,R,19.6,N,A*4C
$IIMWV,249,T,20.5,N,A*4C
$IIVHW,,,018,M,06.3,N,,*49
$IIVLW,01323,N,000.1,N*4D
$IIVWR,096,L,20.2,N,,,,*53
$IIRMB,A,9.00,R,,VIDY,,,,,003.16,281,,V,A*6D
$IIHDG,022,,,,*4B
$IIMTW,+20.5,C*4E
$IIMWV,264,R,20.2,N,A*4C
$IIMWV,247,T,21.0,N,A*4C
$IIVHW,,,022,M,06.3,N,,*49
$IIVLW,01323,N,000.1,N*4D
$IIVWR,097,L,20.4,N,,,,*53
$IIDPT,013.2,-1.0,*40
$IIHDG,023,,,,*4B
$IIMTW,+21.5,C*4E
$IIMWV,263,R,20.4,N,A*4C
$IIMWV,247,T,21.6,N,A*4C
$IIVHW,,,023,M,06.3,N,,*49
$IIVLW,01323,N,000.1,N*4D
$IIVWR,097,L,19.2,N,,,,*53
$IIDPT,013.2,-1.0,*40
$IIHDG,025,,,,*4B
$IIMTW,+21.0,C*4E
$IIMWV,263,R,19.2,N,A*4C
$IIMWV,247,T,21.9,N,A*4C
$IIVHW,,,025,M,06.3,N,,*49
$IIVLW,01323,N,000.1,N*4D
$IIVWR,092,L,19.3,N,,,,*53
$IIRMB,A,0.00,R,,VIDY,,,,,003.16,281,,V,A*64
$IIHDG,023,,,,*4B
$IIMTW,+21.0,C*4E
$IIMWV,268,R,19.3,N,A*4C
$IIMWV,245,T,20.8,N,A*4C
$IIVHW,,,023,M,06.5,N,,*49
$IIVLW,01323,N,000.1,N*4D
$IIVWR,088,L,19.3,N,,,,*53
$IIDPT,013.2,-1.0,*40
$IIHDG,019,,,,*4B
$IIMTW,+22.0,C*4E
$IIMWV,272,R,19.3,N,A*4C
$IIMWV,250,T,20.5,N,A*4C
$IIVHW,,,019,M,06.7,N,,*49
$IIVLW,01323,N,000.1,N*4D
$IIVWR,086,L,19.7,N,,,,*53
$IIDPT,013.2,-1.0,*40
$IIHDG,015,,,,*4B
$IIMTW,+21.5,C*4E
$IIMWV,274,R,19.7,N,A*4C
$IIMWV,252,T,20.3,N,A*4C
$IIVHW,,,015,M,06.9,N,,*49
$IIVLW,01323,N,000.1,N*4D
$IIVWR,086,L,19.4,N,,,,*53
$IIRMB,A,1.00,R,,VIDY,,,,,003.16,281,,V,A*65
$IIHDG,013,,,,*4B
$IIMTW,+21.0,C*4E
$IIMWV,274,R,19.4,N,A*4C
$IIMWV,254,T,20.4,N,A*4C
$IIVHW,,,013,M,06.9,N,,*49
$IIVLW,01323,N,000.1,N*4D
$IIVWR,086,L,19.3,N,,,,*53
$IIDPT,014.0,-1.0,*40
$IIHDG,011,,,,*4B
$IIMTW,+21.0,C*4E
$IIMWV,274,R,19.3,N,A*4C
$IIMWV,254,T,20.2,N,A*4C
$IIVHW,,,011,M,06.9,N,,*49
$IIVLW,01323,N,000.1,N*4D
$IIVWR,084,L,20.1,N,,,,*53
$IIDPT,016.0,-1.0,*40
$IIHDG,012,,,,*4B
$IIMTW,+21.0,C*4E
$IIMWV,276,R,20.1,N,A*4C
$IIMWV,254,T,20.0,N,A*4C
$IIVHW,,,012,M,06.8,N,,*49
$IIVLW,01323,N,000.1,N*4D
$IIVWR,080,L,22.1,N,,,,*53
$IIRMB,A,2.00,R,,VIDY,,,,,003.16,281,,V,A*66
$IIHDG,010,,,,*4B
$IIMTW,+21.0,C*4E
$IIMWV,280,R,22.1,N,A*4C
$IIMWV,256,T,20.3,N,A*4C
$IIVHW,,,010,M,06.7,N,,*49
$IIVLW,01323,N,000.1,N*4D
$IIVWR,075,L,21.6,N,,,,*53
$IIDPT,014.2,-1.0,*40
$IIHDG,005,,,,*4B
$IIMTW,+21.0,C*4E
$IIMWV,285,R,21.6,N,A*4C
$IIMWV,262,T,21.8,N,A*4C
$IIVHW,,,005,M,06.8,N,,*49
$IIVLW,01323,N,000.1,N*4D
$IIVWR,069,L,22.6,N,,,,*53
$IIDPT,014.0,-1.0,*40
$IIHDG,002,,,,*4B
$IIMTW,+21.0,C*4E
$IIMWV,291,R,22.6,N,A*4C
$IIMWV,267,T,20.9,N,A*4C
$IIVHW,,,002,M,06.9,N,,*49
$IIVLW,01323,N,000.1,N*4D
$IIVWR,068,L,24.0,N,,,,*53
$IIRMB,A,3.00,R,,VIDY,,,,,003.16,281,,V,A*67
$IIHDG,355,,,,*4B
$IIMTW,+21.0,C*4E
$IIMWV,292,R,24.0,N,A*4C
$IIMWV,273,T,21.0,N,A*4C
$IIVHW,,,355,M,06.9,N,,*49
$IIVLW,01323,N,000.1,N*4D
$IIVWR,067,L,24.2,N,,,,*53
$IIDPT,013.3,-1.0,*40
$IIHDG,352,,,,*4B
$IIMTW,+21.0,C*4E
$IIMWV,293,R,24.2,N,A*4C
$IIMWV,275,T,22.3,N,A*4C
$IIVHW,,,352,M,06.9,N,,*49
$IIVLW,01323,N,000.1,N*4D
$IIVWR,066,L,23.2,N,,,,*53
$IIDPT,013.1,-1.0,*40
$IIHDG,353,,,,*4B
$IIMTW,+21.0,C*4E
$IIMWV,294,R,23.2,N,A*4C
$IIMWV,276,T,22.3,N,A*4C
$IIVHW,,,353,M,06.9,N,,*49
$IIVLW,01323,N,000.1,N*4D
$IIVWR,066,L,22.5,N,,,,*53
$IIRMB,A,4.00,R,,VIDY,,,,,003.16,281,,V,A*60
$IIHDG,352,,,,*4B
$IIMTW,+21.0,C*4E
$IIMWV,294,R,22.5,N,A*4C
$IIMWV,277,T,21.2,N,A*4C
$IIVHW,,,352,M,06.8,N,,*49
$IIVLW,01323,N,000.1,N*4D
$IIVWR,062,L,22.1,N,,,,*53
$IIDPT,013.0,-1.0,*40
$IIHDG,350,,,,*4B
$IIMTW,+21.0,C*4E
$IIMWV,298,R,22.1,N,A*4C
$IIMWV,276,T,20.5,N,A*4C
$IIVHW,,,350,M,06.8,N,,*49
$IIVLW,01323,N,000.1,N*4D
$IIVWR,059,L,22.7,N,,,,*53
$IIDPT,012.8,-1.0,*40
$IIHDG,351,,,,*4B
$IIMTW,+21.5,C*4E
$IIMWV,301,R,22.7,N,A*4C
$IIMWV,280,T,19.7,N,A*4C
$IIVHW,,,351,M,06.8,N,,*49
$IIVLW,01323,N,000.1,N*4D
$IIVWR,056,L,22.7,N,,,,*53
$IIRMB,A,5.00,R,,VIDY,,,,,003.16,281,,V,A*61
$IIHDG,349,,,,*4B
$IIMTW,+21.0,C*4E
$IIMWV,304,R,22.7,N,A*4C
$IIMWV,285,T,20.1,N,A*4C
$IIVHW,,,349,M,06.8,N,,*49
$IIVLW,01323,N,000.1,N*4D
$IIVWR,055,L,22.9,N,,,,*53
$IIDPT,012.8,-1.0,*40
$IIHDG,348,,,,*4B
$IIMTW,+21.0,C*4E
$IIMWV,305,R,22.9,N,A*4C
$IIMWV,287,T,19.7,N,A*4C
$IIVHW,,,348,M,06.7,N,,*49
$IIVLW,01323,N,000.1,N*4D
$IIVWR,053,L,23.3,N,,,,*53
$IIDPT,012.8,-1.0,*40
$IIHDG,345,,,,*4B
$IIMTW,+21.0,C*4E
$IIMWV,307,R,23.3,N,A*4C
$IIMWV,288,T,19.7,N,A*4C
$IIVHW,,,345,M,06.6,N,,*49
$IIVLW,01323,N,000.1,N*4D
$IIVWR,050,L,21.7,N,,,,*53
$IIRMB,A,6.00,R,,VIDY,,,,,003.16,281,,V,A*62
$IIHDG,345,,,,*4B
$IIMTW,+21.0,C*4E
$IIMWV,310,R,21.7,N,A*4C
$IIMWV,291,T,19.9,N,A*4C
$IIVHW,,,345,M,06.6,N,,*49
$IIVLW,01323,N,000.1,N*4D
$IIVWR,052,L,22.8,N,,,,*53
$IIDPT,012.8,-1.0,*40
$IIHDG,343,,,,*4B
$IIMTW,+21.0,C*4E
$IIMWV,308,R,22.8,N,A*4C
$IIMWV,293,T,18.1,N,A*4C
$IIVHW,,,343,M,06.6,N,,*49
$IIVLW,01323,N,000.1,N*4D
$IIVWR,057,L,23.9,N,,,,*53
$IIDPT,012.8,-1.0,*40
$IIHDG,343,,,,*4B
$IIMTW,+21.0,C*4E
$IIMWV,303,R,23.9,N,A*4C
$IIMWV,293,T,19.5,N,A*4C
$IIVHW,,,343,M,06.5,N,,*49
$IIVLW,01323,N,000.1,N*4D
$IIVWR,054,L,22.6,N,,,,*53
$IIRMB,A,7.00,R,,VIDY,,,,,003.16,281,,V,A*63
$IIDPT,012.8,-1.0,*40
$IIHDG,342,,,,*4B
$IIMTW,+21.0,C*4E
$IIMWV,306,R,22.6,N,A*4C
$IIMWV,287,T,20.9,N,A*4C
$IIVHW,,,342,M,06.5,N,,*49
$IIVLW,01323,N,000.1,N*4D
$IIVWR,056,L,20.6,N,,,,*53
$IIDPT,012.8,-1.0,*40
$IIHDG,343,,,,*4B
$IIMTW,+21.0,C*4E
$IIMWV,304,R,20.6,N,A*4C
$IIMWV,290,T,19.5,N,A*4C
$IIVHW,,,343,M,06.5,N,,*49
$IIVLW,01323,N,000.1,N*4D
$IIVWR,056,L,22.6,N,,,,*53
$IIDPT,012.7,-1.0,*40
$IIHDG,346,,,,*4B
$IIMTW,+21.0,C*4E
$IIMWV,304,R,22.6,N,A*4C
$IIMWV,286,T,17.7,N,A*4C
$IIVHW,,,346,M,06.5,N,,*49
$IIVLW,01323,N,000.1,N*4D
$IIVWR,052,L,22.9,N,,,,*53
$IIRMB,A,8.00,R,,VIDY,,,,,003.16,281,,V,A*6C
$IIDPT,012.6,-1.0,*40
$IIHDG,342,,,,*4B
$IIMTW,+18.0,C*4E
$IIMWV,308,R,22.9,N,A*4C
$IIMWV,288,T,19.6,N,A*4C
$IIVHW,,,342,M,06.5,N,,*49
$IIVLW,01323,N,000.1,N*4D
$IIVWR,048,L,21.8,N,,,,*53
$IIDPT,012.6,-1.0,*40
$IIHDG,343,,,,*4B
$IIMTW,+20.5,C*4E
$IIMWV,312,R,21.8,N,A*4C
$IIMWV,293,T,19.5,N,A*4C
$IIVHW,,,343,M,06.5,N,,*49
$IIVLW,01323,N,000.1,N*4D
$IIVWR,050,L,24.1,N,,,,*53
$IIDPT,012.6,-1.0,*40
$IIHDG,340,,,,*4B
$IIMTW,+21.5,C*4E
$IIMWV,310,R,24.1,N,A*4C
$IIMWV,297,T,18.0,N,A*4C
$IIVHW,,,340,M,06.5,N,,*49
$IIVLW,01323,N,000.1,N*4D
$IIVWR,046,L,23.2,N,,,,*53
$IIRMB,A,9.00,R,,VIDY,,,,,003.16,281,,V,A*6D
$IIDPT,012.6,-1.0,*40
$IIHDG,338,,,,*4B
$IIMTW,+21.0,C*4E
$IIMWV,314,R,23.2,N,A*4C
$IIMWV,296,T,20.5,N,A*4C
$IIVHW,,,338,M,06.4,N,,*49
$IIVLW,01323,N,000.1,N*4D
$IIVWR,046,L,22.1,N,,,,*53
$IIDPT,012.6,-1.0,*40
$IIHDG,339,,,,*4B
$IIMTW,+21.0,C*4E
$IIMWV,314,R,22.1,N,A*4C
$IIMWV,300,T,19.2,N,A*4C
$IIVHW,,,339,M,06.4,N,,*49
$IIVLW,01323,N,000.1,N*4D
$IIVWR,051,L,22.9,N,,,,*53
$IIDPT,012.6,-1.0,*40
$IIHDG,338,,,,*4B
$IIMTW,+21.0,C*4E
$IIMWV,309,R,22.9,N,A*4C
$IIMWV,299,T,18.1,N,A*4C
$IIVHW,,,338,M,06.4,N,,*49
$IIVLW,01323,N,000.1,N*4D
$IIVWR,051,L,22.4,N,,,,*53
$IIRMB,A,0.00,R,,VIDY,,,,,003.16,281,,V,A*64
$IIDPT,012.6,-1.0,*40
$IIHDG,338,,,,*4B
$IIMTW,+21.0,C*4E
$IIMWV,309,R,22.4,N,A*4C
$IIMWV,294,T,19.4,N,A*4C
$IIVHW,,,338,M,06.4,N,,*49
$IIVLW,01323,N,000.1,N*4D
$IIVWR,050,L,21.2,N,,,,*53
$IIDPT,012.6,-1.0,*40
$IIHDG,338,,,,*4B
$IIMTW,+21.0,C*4E
$IIMWV,310,R,21.2,N,A*4C
$IIMWV,294,T,19.0,N,A*4C
$IIVHW,,,338,M,06.4,N,,*49
$IIVLW,01323,N,000.1,N*4D
$IIVWR,051,L,21.1,N,,,,*53
$IIDPT,012.6,-1.0,*40
$IIHDG,337,,,,*4B
$IIMTW,+21.0,C*4E
$IIMWV,309,R,21.1,N,A*4C
$IIMWV,293,T,17.7,N,A*4C
$IIVHW,,,337,M,06.4,N,,*49
$IIVLW,01323,N,000.1,N*4D
$IIVWR,047,L,21.5,N,,,,*53
$IIRMB,A,1.00,R,,VIDY,,,,,003.16,281,,V,A*65
$IIDPT,012.6,-1.0,*40
$IIHDG,336,,,,*4B
$IIMTW,+21.5,C*4E
$IIMWV,313,R,21.5,N,A*4C
$IIMWV,293,T,17.7,N,A*4C
$IIVHW,,,336,M,06.3,N,,*49
$IIVLW,01323,N,000.1,N*4D
$IIVWR,046,L,22.4,N,,,,*53
$IIDPT,013.6,-1.0,*40
$IIHDG,336,,,,*4B
$IIMTW,+21.5,C*4E
$IIMWV,314,R,22.4,N,A*4C
$IIMWV,298,T,17.6,N,A*4C
$IIVHW,,,336,M,06.3,N,,*49
$IIVLW,01323,N,000.1,N*4D
$IIVWR,046,L,23.1,N,,,,*53
$IIDPT,015.6,-1.0,*40
$IIHDG,336,,,,*4B
$IIMTW,+20.5,C*4E
$IIMWV,314,R,23.1,N,A*4C
$IIMWV,299,T,18.4,N,A*4C
$IIVHW,,,336,M,06.3,N,,*49
$IIVLW,01323,N,000.1,N*4D
$IIVWR,047,L,22.6,N,,,,*53
$IIRMB,A,2.00,R,,VIDY,,,,,003.16,281,,V,A*66
$IIDPT,016.9,-1.0,*40
$IIHDG,336,,,,*4B
$IIMTW,+20.5,C*4E
$IIMWV,313,R,22.6,N,A*4C
$IIMWV,300,T,19.1,N,A*4C
$IIVHW,,,336,M,06.3,N,,*49
$IIVLW,01323,N,000.1,N*4D
$IIVWR,048,L,22.6,N,,,,*53
$IIDPT,016.9,-1.0,*40
$IIHDG,338,,,,*4B
$IIMTW,+20.5,C*4E
$IIMWV,312,R,22.6,N,A*4C
$IIMWV,299,T,18.6,N,A*4C
$IIVHW,,,338,M,06.3,N,,*49
$IIVLW,01323,N,000.1,N*4D
$IIVWR,044,L,22.6,N,,,,*53
$IIDPT,016.1,-1.0,*40
$IIHDG,335,,,,*4B
$IIMTW,+20.5,C*4E
$IIMWV,316,R,22.6,N,A*4C
$IIMWV,297,T,18.8,N,A*4C
$IIVHW,,,335,M,06.4,N,,*49
$IIVLW,01323,N,000.1,N*4D
$IIVWR,045,L,23.1,N,,,,*53
$IIRMB,A,3.00,R,,VIDY,,,,,003.16,281,,V,A*67
$IIDPT,017.4,-1.0,*40
$IIHDG,338,,,,*4B
$IIMTW,+20.5,C*4E
$IIMWV,315,R,23.1,N,A*4C
$IIMWV,302,T,18.3,N,A*4C
$IIVHW,,,338,M,06.4,N,,*49
$IIVLW,01323,N,000.1,N*4D
$IIVWR,047,L,24.2,N,,,,*53
$IIDPT,017.4,-1.0,*40
$IIHDG,338,,,,*4B
$IIMTW,+20.5,C*4E
$IIMWV,313,R,24.2,N,A*4C
$IIMWV,301,T,19.2,N,A*4C
$IIVHW,,,338,M,06.3,N,,*49
$IIVLW,01323,N,000.1,N*4D
$IIVWR,047,L,24.7,N,,,,*53
$IIDPT,015.2,-1.0,*40
$IIHDG,337,,,,*4B
$IIMTW,+20.5,C*4E
$IIMWV,313,R,24.7,N,A*4C
$IIMWV,300,T,20.2,N,A*4C
$IIVHW,,,337,M,06.3,N,,*49
$IIVLW,01323,N,000.1,N*4D
$IIVWR,049,L,25.3,N,,,,*53
$IIRMB,A,4.00,R,,VIDY,,,,,003.16,281,,V,A*60
$IIDPT,015.5,-1.0,*40
$IIHDG,338,,,,*4B
$IIMTW,+20.5,C*4E
$IIMWV,311,R,25.3,N,A*4C
$IIMWV,300,T,20.7,N,A*4C
$IIVHW,,,338,M,06.4,N,,*49
$IIVLW,01323,N,000.1,N*4D
$IIVWR,050,L,25.9,N,,,,*53
$IIDPT,012.8,-1.0,*40
$IIHDG,339,,,,*4B
$IIMTW,+21.5,C*4E
$IIMWV,310,R,25.9,N,A*4C
$IIMWV,299,T,21.4,N,A*4C
$IIVHW,,,339,M,06.4,N,,*49
$IIVLW,01323,N,000.1,N*4D
$IIVWR,049,L,25.6,N,,,,*53
$IIDPT,014.7,-1.0,*40
$IIHDG,338,,,,*4B
$IIMTW,+21.5,C*4E
$IIMWV,311,R,25.6,N,A*4C
$IIMWV,297,T,22.3,N,A*4C
$IIVHW,,,338,M,06.4,N,,*49
$IIVLW,01323,N,000.1,N*4D
$IIVWR,050,L,25.2,N,,,,*53
$IIRMB,A,5.00,R,,VIDY,,,,,003.16,281,,V,A*61
$IIDPT,014.7,-1.0,*40
$IIHDG,338,,,,*4B
$IIMTW,+21.0,C*4E
$IIMWV,310,R,25.2,N,A*4C
$IIMWV,298,T,21.7,N,A*4C
$IIVHW,,,338,M,06.4,N,,*49
$IIVLW,01323,N,000.1,N*4D
$IIVWR,051,L,25.5,N,,,,*53
$IIDPT,014.7,-1.0,*40
$IIHDG,338,,,,*4B
$IIMTW,+21.0,C*4E
$IIMWV,309,R,25.5,N,A*4C
$IIMWV,296,T,21.6,N,A*4C
$IIVHW,,,338,M,06.5,N,,*49
$IIVLW,01323,N,000.1,N*4D
$IIVWR,049,L,24.9,N,,,,*53
$IIDPT,015.2,-1.0,*40
$IIHDG,338,,,,*4B
$IIMTW,+20.5,C*4E
$IIMWV,311,R,24.9,N,A*4C
$IIMWV,296,T,21.9,N,A*4C
$IIVHW,,,338,M,06.5,N,,*49
$IIVLW,01323,N,000.1,N*4D
$IIVWR,050,L,25.4,N,,,,*53
$IIRMB,A,6.00,R,,VIDY,,,,,003.16,281,,V,A*62
$IIDPT,013.7,-1.0,*40
$IIHDG,336,,,,*4B
$IIMTW,+20.5,C*4E
$IIMWV,310,R,25.4,N,A*4C
$IIMWV,298,T,21.0,N,A*4C
$IIVHW,,,336,M,06.5,N,,*49
$IIVLW,01323,N,000.1,N*4D
$IIVWR,050,L,25.7,N,,,,*53
$IIDPT,015.2,-1.0,*40
$IIHDG,334,,,,*4B
$IIMTW,+20.5,C*4E
$IIMWV,310,R,25.7,N,A*4C
$IIMWV,296,T,21.7,N,A*4C
$IIVHW,,,334,M,06.6,N,,*49
$IIVLW,01323,N,000.1,N*4D
$IIVWR,049,L,25.4,N,,,,*53
$IIDPT,013.7,-1.0,*40
$IIHDG,335,,,,*4B
$IIMTW,+20.5,C*4E
$IIMWV,311,R,25.4,N,A*4C
$IIMWV,296,T,22.0,N,A*4C
$IIVHW,,,335,M,06.6,N,,*49
$IIVLW,01323,N,000.1,N*4D
$IIVWR,047,L,24.5,N,,,,*53
$IIRMB,A,7.00,R,,VIDY,,,,,003.16,281,,V,A*63
$IIDPT,012.9,-1.0,*40
$IIHDG,334,,,,*4B
$IIMTW,+18.0,C*4E
$IIMWV,313,R,24.5,N,A*4C
$IIMWV,298,T,21.5,N,A*4C
$IIVHW,,,334,M,06.5,N,,*49
$IIVLW,01323,N,000.1,N*4D
$IIVWR,046,L,24.2,N,,,,*53
$IIDPT,012.9,-1.0,*40
$IIHDG,335,,,,*4B
$IIMTW,+20.0,C*4E
$IIMWV,314,R,24.2,N,A*4C
$IIMWV,299,T,20.4,N,A*4C
$IIVHW,,,335,M,06.5,N,,*49
$IIVLW,01323,N,000.2,N*4D
$IIVWR,047,L,24.4,N,,,,*53
$IIDPT,012.8,-1.0,*40
$IIHDG,335,,,,*4B
$IIMTW,+20.5,C*4E
$IIMWV,313,R,24.4,N,A*4C
$IIMWV,300,T,20.0,N,A*4C
$IIVHW,,,335,M,06.5,N,,*49
$IIVLW,01323,N,000.2,N*4D
$IIVWR,048,L,24.7,N,,,,*53
$IIRMB,A,8.00,R,,VIDY,,,,,003.16,281,,V,A*6C
$IIDPT,012.7,-1.0,*40
$IIHDG,335,,,,*4B
$IIMTW,+20.5,C*4E
$IIMWV,312,R,24.7,N,A*4C
$IIMWV,299,T,20.3,N,A*4C
$IIVHW,,,335,M,06.5,N,,*49
$IIVLW,01323,N,000.2,N*4D
$IIVWR,047,L,24.1,N,,,,*53
$IIDPT,012.7,-1.0,*40
$IIHDG,334,,,,*4B
$IIMTW,+20.5,C*4E
$IIMWV,313,R,24.1,N,A*4C
$IIMWV,299,T,20.7,N,A*4C
$IIVHW,,,334,M,06.6,N,,*49
$IIVLW,01323,N,000.2,N*4D
$IIVWR,053,L,23.6,N,,,,*53
$IIDPT,012.7,-1.0,*40
$IIHDG,337,,,,*4B
$IIMTW,+20.5,C*4E
$IIMWV,307,R,23.6,N,A*4C
$IIMWV,299,T,20.0,N,A*4C
$IIVHW,,,337,M,06.6,N,,*49
$IIVLW,01323,N,000.2,N*4D
$IIVWR,059,L,24.0,N,,,,*53
$IIRMB,A,9.00,R,,VIDY,,,,,003.16,281,,V,A*6D
$IIDPT,012.7,-1.0,*40
$IIHDG,342,,,,*4B
$IIMTW,+20.5,C*4E
$IIMWV,301,R,24.0,N,A*4C
$IIMWV,292,T,20.2,N,A*4C
$IIVHW,,,342,M,06.5,N,,*49
$IIVLW,01323,N,000.2,N*4D
$IIVWR,062,L,23.3,N,,,,*53
$IIDPT,012.7,-1.0,*40
$IIHDG,349,,,,*4B
$IIMTW,+20.5,C*4E
$IIMWV,298,R,23.3,N,A*4C
$IIMWV,286,T,21.4,N,A*4C
$IIVHW,,,349,M,06.6,N,,*49
$IIVLW,01323,N,000.2,N*4D
$IIVWR,062,L,22.0,N,,,,*53
$IIDPT,013.9,-1.0,*40
$IIHDG,351,,,,*4B
$IIMTW,+22.0,C*4E
$IIMWV,298,R,22.0,N,A*4C
$IIMWV,282,T,20.9,N,A*4C
$IIVHW,,,351,M,06.7,N,,*49
$IIVLW,01323,N,000.2,N*4D
$IIVWR,067,L,21.9,N,,,,*53
$IIRMB,A,0.00,R,,VIDY,,,,,003.16,281,,V,A*64
$IIDPT,016.1,-1.0,*40
$IIHDG,353,,,,*4B
$IIMTW,+22.0,C*4E
$IIMWV,293,R,21.9,N,A*4C
$IIMWV,281,T,19.6,N,A*4C
$IIVHW,,,353,M,06.8,N,,*49
$IIVLW,01323,N,000.2,N*4D
$IIVWR,071,L,22.8,N,,,,*53
$IIDPT,016.1,-1.0,*40
$IIHDG,357,,,,*4B
$IIMTW,+21.0,C*4E
$IIMWV,289,R,22.8,N,A*4C
$IIMWV,275,T,20.1,N,A*4C
$IIVHW,,,357,M,06.9,N,,*49
$IIVLW,01323,N,000.2,N*4D
$IIVWR,076,L,22.5,N,,,,*53
$IIDPT,014.1,-1.0,*40
$IIHDG,000,,,,*4B
$IIMTW,+21.0,C*4E
$IIMWV,284,R,22.5,N,A*4C
$IIMWV,272,T,21.6,N,A*4C
$IIVHW,,,000,M,06.9,N,,*49
$IIVLW,01323,N,000.2,N*4D
$IIVWR,080,L,22.3,N,,,,*53
$IIRMB,A,1.00,R,,VIDY,,,,,003.16,281,,V,A*65
$IIDPT,016.1,-1.0,*40
$IIHDG,007,,,,*4B
$IIMTW,+21.0,C*4E
$IIMWV,280,R,22.3,N,A*4C
$IIMWV,266,T,21.8,N,A*4C
$IIVHW,,,007,M,06.9,N,,*49
$IIVLW,01323,N,000.2,N*4D
$IIVWR,085,L,22.5,N,,,,*53
$IIDPT,014.1,-1.0,*40
$IIHDG,009,,,,*4B
$IIMTW,+21.0,C*4E
$IIMWV,275,R,22.5,N,A*4C
$IIMWV,261,T,22.0,N,A*4C
$IIVHW,,,009,M,06.9,N,,*49
$IIVLW,01323,N,000.2,N*4D
$IIVWR,088,L,21.3,N,,,,*53
$IIDPT,014.8,-1.0,*40
$IIHDG,014,,,,*4B
$IIMTW,+21.0,C*4E
$IIMWV,272,R,21.3,N,A*4C
$IIMWV,258,T,23.0,N,A*4C
$IIVHW,,,014,M,07.1,N,,*49
$IIVLW,01323,N,000.2,N*4D
$IIVWR,088,L,21.6,N,,,,*53
$IIRMB,A,2.00,R,,VIDY,,,,,003.16,281,,V,A*66
$IIDPT,012.7,-1.0,*40
$IIHDG,014,,,,*4B
$IIMTW,+21.0,C*4E
$IIMWV,272,R,21.6,N,A*4C
$IIMWV,253,T,22.2,N,A*4C
$IIVHW,,,014,M,07.3,N,,*49
$IIVLW,01323,N,000.2,N*4D
$IIVWR,088,L,22.0,N,,,,*53
$IIDPT,014.0,-1.0,*40
$IIHDG,015,,,,*4B
$IIMTW,+21.0,C*4E
$IIMWV,272,R,22.0,N,A*4C
$IIMWV,253,T,22.6,N,A*4C
$IIVHW,,,015,M,07.4,N,,*49
$IIVLW,01323,N,000.2,N*4D
$IIVWR,090,L,22.3,N,,,,*53
$IIDPT,014.0,-1.0,*40
$IIHDG,017,,,,*4B
$IIMTW,+21.0,C*4E
$IIMWV,270,R,22.3,N,A*4C
$IIMWV,253,T,23.0,N,A*4C
$IIVHW,,,017,M,07.5,N,,*49
$IIVLW,01323,N,000.2,N*4D
$IIVWR,093,L,23.1,N,,,,*53
$IIRMB,A,3.00,R,,VIDY,,,,,003.16,281,,V,A*67
$IIDPT,014.0,-1.0,*40
$IIHDG,019,,,,*4B
$IIMTW,+18.0,C*4E
$IIMWV,267,R,23.1,N,A*4C
$IIMWV,251,T,23.5,N,A*4C
$IIVHW,,,019,M,07.5,N,,*49
$IIVLW,01323,N,000.2,N*4D
$IIVWR,096,L,23.0,N,,,,*53
$IIDPT,017.2,-1.0,*40
$IIHDG,022,,,,*4B
$IIMTW,+20.0,C*4E
$IIMWV,264,R,23.0,N,A*4C
$IIMWV,250,T,24.6,N,A*4C
$IIVHW,,,022,M,07.5,N,,*49
$IIVLW,01323,N,000.2,N*4D
$IIVWR,098,L,21.9,N,,,,*53
$IIDPT,014.2,-1.0,*40
$IIHDG,022,,,,*4B
$IIMTW,+21.5,C*4E
$IIMWV,262,R,21.9,N,A*4C
$IIMWV,247,T,24.7,N,A*4C
$IIVHW,,,022,M,07.6,N,,*49
$IIVLW,01323,N,000.2,N*4D
$IIVWR,100,L,21.2,N,,,,*53
$IIRMB,A,4.00,R,,VIDY,,,,,003.16,281,,V,A*60
$IIDPT,015.3,-1.0,*40
$IIHDG,023,,,,*4B
$IIMTW,+21.0,C*4E
$IIMWV,260,R,21.2,N,A*4C
$IIMWV,244,T,24.0,N,A*4C
$IIVHW,,,023,M,07.6,N,,*49
$IIVLW,01323,N,000.2,N*4D
$IIVWR,100,L,22.2,N,,,,*53
$IIDPT,014.0,-1.0,*40
$IIHDG,023,,,,*4B
$IIMTW,+21.0,C*4E
$IIMWV,260,R,22.2,N,A*4C
$IIMWV,241,T,23.5,N,A*4C
$IIVHW,,,023,M,07.5,N,,*49
$IIVLW,01323,N,000.2,N*4D
$IIVWR,104,L,22.1,N,,,,*53
$IIDPT,014.0,-1.0,*40
$IIHDG,024,,,,*4B
$IIMTW,+21.0,C*4E
$IIMWV,256,R,22.1,N,A*4C
$IIMWV,243,T,24.4,N,A*4C
$IIVHW,,,024,M,07.4,N,,*49
$IIVLW,01323,N,000.2,N*4D
$IIVWR,109,L,21.3,N,,,,*53
$IIRMB,A,5.00,R,,VIDY,,,,,003.16,281,,V,A*61
$IIDPT,014.0,-1.0,*40
$IIHDG,031,,,,*4B
$IIMTW,+21.0,C*4E
$IIMWV,251,R,21.3,N,A*4C
$IIMWV,239,T,24.8,N,A*4C
$IIVHW,,,031,M,07.1,N,,*49
$IIVLW,01323,N,000.2,N*4D
$IIVWR,110,L,20.5,N,,,,*53
$IIDPT,014.0,-1.0,*40
$IIHDG,034,,,,*4B
$IIMTW,+20.5,C*4E
$IIMWV,250,R,20.5,N,A*4C
$IIMWV,235,T,24.6,N,A*4C
$IIVHW,,,034,M,07.0,N,,*49
$IIVLW,01323,N,000.2,N*4D
$IIVWR,109,L,20.0,N,,,,*53
$IIDPT,014.0,-1.0,*40
$IIHDG,034,,,,*4B
$IIMTW,+20.5,C*4E
$IIMWV,251,R,20.0,N,A*4C
$IIMWV,234,T,23.7,N,A*4C
$IIVHW,,,034,M,07.0,N,,*49
$IIVLW,01323,N,000.2,N*4D
$IIVWR,109,L,20.1,N,,,,*53
$IIRMB,A,6.00,R,,VIDY,,,,,003.16,281,,V,A*62
$IIDPT,012.9,-1.0,*40
$IIHDG,034,,,,*4B
$IIMTW,+20.5,C*4E
$IIMWV,251,R,20.1,N,A*4C
$IIMWV,234,T,23.3,N,A*4C
$IIVHW,,,034,M,07.0,N,,*49
$IIVLW,01323,N,000.2,N*4D
$IIVWR,110,L,20.1,N,,,,*53
$IIDPT,013.9,-1.0,*40
$IIHDG,035,,,,*4B
$IIMTW,+20.5,C*4E
$IIMWV,250,R,20.1,N,A*4C
$IIMWV,234,T,23.4,N,A*4C
$IIVHW,,,035,M,07.2,N,,*49
$IIVLW,01323,N,000.2,N*4D
$IIVWR,109,L,19.5,N,,,,*53
$IIDPT,013.9,-1.0,*40
$IIHDG,036,,,,*4B
$IIMTW,+21.5,C*4E
$IIMWV,251,R,19.5,N,A*4C
$IIMWV,233,T,23.4,N,A*4C
$IIVHW,,,036,M,07.4,N,,*49
$IIVLW,01323,N,000.2,N*4D
$IIVWR,105,L,19.0,N,,,,*53
$IIRMB,A,7.00,R,,VIDY,,,,,003.16,281,,V,A*63
$IIDPT,013.9,-1.0,*40
$IIHDG,036,,,,*4B
$IIMTW,+21.5,C*4E
$IIMWV,255,R,19.0,N,A*4C
$IIMWV,233,T,23.0,N,A*4C
$IIVHW,,,036,M,07.6,N,,*49
$IIVLW,01323,N,000.2,N*4D
$IIVWR,103,L,18.0,N,,,,*53
$IIDPT,012.9,-1.0,*40
$IIHDG,036,,,,*4B
$IIMTW,+21.5,C*4E
$IIMWV,257,R,18.0,N,A*4C
$IIMWV,236,T,22.2,N,A*4C
$IIVHW,,,036,M,07.7,N,,*49
$IIVLW,01323,N,000.2,N*4D
$IIVWR,102,L,18.9,N,,,,*53
$IIDPT,012.9,-1.0,*40
$IIHDG,036,,,,*4B
$IIMTW,+21.0,C*4E
$IIMWV,258,R,18.9,N,A*4C
$IIMWV,236,T,20.9,N,A*4C
$IIVHW,,,036,M,07.8,N,,*49
$IIVLW,01323,N,000.2,N*4D
$IIVWR,101,L,19.5,N,,,,*53
$IIRMB,A,8.00,R,,VIDY,,,,,003.16,281,,V,A*6C
$IIDPT,012.9,-1.0,*40
$IIHDG,037,,,,*4B
$IIMTW,+21.0,C*4E
$IIMWV,259,R,19.5,N,A*4C
$IIMWV,238,T,21.8,N,A*4C
$IIVHW,,,037,M,07.8,N,,*49
$IIVLW,01323,N,000.2,N*4D
$IIVWR,105,L,18.7,N,,,,*53
$IIDPT,012.8,-1.0,*40
$IIHDG,037,,,,*4B
$IIMTW,+21.0,C*4E
$IIMWV,255,R,18.7,N,A*4C
$IIMWV,239,T,22.3,N,A*4C
$IIVHW,,,037,M,07.9,N,,*49
$IIVLW,01323,N,000.2,N*4D
$IIVWR,109,L,16.8,N,,,,*53
$IIDPT,012.7,-1.0,*40
$IIHDG,039,,,,*4B
$IIMTW,+21.0,C*4E
$IIMWV,251,R,16.8,N,A*4C
$IIMWV,235,T,22.1,N,A*4C
$IIVHW,,,039,M,07.9,N,,*49
$IIVLW,01323,N,000.2,N*4D
$IIVWR,111,L,16.2,N,,,,*53
$IIRMB,A,9.00,R,,VIDY,,,,,003.16,281,,V,A*6D
$IIDPT,012.7,-1.0,*40
$IIHDG,038,,,,*4B
$IIMTW,+21.0,C*4E
$IIMWV,249,R,16.2,N,A*4C
$IIMWV,230,T,20.8,N,A*4C
$IIVHW,,,038,M,08.0,N,,*49
$IIVLW,01323,N,000.2,N*4D
$IIVWR,113,L,16.4,N,,,,*53
$IIDPT,012.3,-1.0,*40
$IIHDG,036,,,,*4B
$IIMTW,+21.0,C*4E
$IIMWV,247,R,16.4,N,A*4C
$IIMWV,227,T,20.3,N,A*4C
$IIVHW,,,036,M,08.1,N,,*49
$IIVLW,01323,N,000.2,N*4D
$IIVWR,116,L,17.2,N,,,,*53
$IIDPT,011.7,-1.0,*40
$IIHDG,037,,,,*4B
$IIMTW,+21.0,C*4E
$IIMWV,244,R,17.2,N,A*4C
$IIMWV,226,T,20.7,N,A*4C
$IIVHW,,,037,M,08.1,N,,*49
$IIVLW,01323,N,000.2,N*4D
$IIVWR,120,L,16.9,N,,,,*53
$IIRMB,A,0.00,R,,VIDY,,,,,003.16,281,,V,A*64
$IIDPT,011.3,-1.0,*40
$IIHDG,039,,,,*4B
$IIMTW,+22.0,C*4E
$IIMWV,240,R,16.9,N,A*4C
$IIMWV,225,T,21.9,N,A*4C
$IIVHW,,,039,M,08.1,N,,*49
$IIVLW,01323,N,000.2,N*4D
$IIVWR,124,L,15.9,N,,,,*53
$IIDPT,011.3,-1.0,*40
$IIHDG,040,,,,*4B
$IIMTW,+21.0,C*4E
$IIMWV,236,R,15.9,N,A*4C
$IIMWV,221,T,22.1,N,A*4C
$IIVHW,,,040,M,08.1,N,,*49
$IIVLW,01323,N,000.2,N*4D
$IIVWR,127,L,14.9,N,,,,*53
$IIDPT,011.3,-1.0,*40
$IIHDG,043,,,,*4B
$IIMTW,+22.5,C*4E
$IIMWV,233,R,14.9,N,A*4C
$IIMWV,217,T,21.5,N,A*4C
$IIVHW,,,043,M,08.1,N,,*49
$IIVLW,01323,N,000.2,N*4D
$IIVWR,120,L,14.9,N,,,,*53
$IIRMB,A,1.00,R,,VIDY,,,,,003.16,281,,V,A*65
$IIDPT,011.3,-1.0,*40
$IIHDG,044,,,,*4B
$IIMTW,+22.0,C*4E
$IIMWV,240,R,14.9,N,A*4C
$IIMWV,215,T,20.7,N,A*4C
$IIVHW,,,044,M,08.0,N,,*49
$IIVLW,01323,N,000.2,N*4D
$IIVWR,124,L,15.3,N,,,,*53
$IIDPT,011.5,-1.0,*40
$IIHDG,044,,,,*4B
$IIMTW,+21.0,C*4E
$IIMWV,236,R,15.3,N,A*4C
$IIMWV,220,T,20.0,N,A*4C
$IIVHW,,,044,M,07.9,N,,*49
$IIVLW,01323,N,000.2,N*4D
$IIVWR,124,L,15.4,N,,,,*53
$IIDPT,011.7,-1.0,*40
$IIHDG,046,,,,*4B
$IIMTW,+21.0,C*4E
$IIMWV,236,R,15.4,N,A*4C
$IIMWV,218,T,20.6,N,A*4C
$IIVHW,,,046,M,07.7,N,,*49
$IIVLW,01323,N,000.2,N*4D
$IIVWR,129,L,15.2,N,,,,*53
$IIRMB,A,2.00,R,,VIDY,,,,,003.16,281,,V,A*66
$IIDPT,011.8,-1.0,*40
$IIHDG,047,,,,*4B
$IIMTW,+21.0,C*4E
$IIMWV,231,R,15.2,N,A*4C
$IIMWV,218,T,20.7,N,A*4C
$IIVHW,,,047,M,07.6,N,,*49
$IIVLW,01323,N,000.2,N*4D
$IIVWR,133,L,15.8,N,,,,*53
$IIDPT,011.9,-1.0,*40
$IIHDG,048,,,,*4B
$IIMTW,+21.5,C*4E
$IIMWV,227,R,15.8,N,A*4C
$IIMWV,214,T,20.8,N,A*4C
$IIVHW,,,048,M,07.6,N,,*49
$IIVLW,01323,N,000.2,N*4D
$IIVWR,136,L,16.2,N,,,,*53
$IIDPT,012.0,-1.0,*40
$IIHDG,049,,,,*4B
$IIMTW,+21.5,C*4E
$IIMWV,224,R,16.2,N,A*4C
$IIMWV,212,T,21.6,N,A*4C
$IIVHW,,,049,M,07.5,N,,*49
$IIVLW,01323,N,000.2,N*4D
$IIVWR,135,L,16.0,N,,,,*53
$IIRMB,A,3.00,R,,VIDY,,,,,003.16,281,,V,A*67
$IIDPT,012.1,-1.0,*40
$IIHDG,053,,,,*4B
$IIMTW,+21.5,C*4E
$IIMWV,225,R,16.0,N,A*4C
$IIMWV,210,T,22.0,N,A*4C
$IIVHW,,,053,M,07.3,N,,*49
$IIVLW,01323,N,000.2,N*4D
$IIVWR,136,L,15.8,N,,,,*53
$IIDPT,012.1,-1.0,*40
$IIGLL,5929.359,N,00944.704,E,134934,A,A*47
$IIHDG,055,,,,*4B
$IIMTW,+17.5,C*4E
$IIMWV,224,R,15.8,N,A*4C
$IIMWV,211,T,21.8,N,A*4C
$IIRMC,134934,A,5929.359,N,00944.704,E,64.2,311,310713,,,A*5C
$IIVHW,,,055,M,07.2,N,,*49
$IIVLW,01323,N,000.3,N*4D
$IIVWR,140,L,14.7,N,,,,*53
$IIDPT,012.1,-1.0,*40
$IIGLL,5929.373,N,00944.664,E,134936,A,A*47
$IIHDG,056,,,,*4B
$IIMTW,+19.5,C*4E
$IIMWV,220,R,14.7,N,A*4C
$IIMWV,211,T,21.4,N,A*4C
$IIRMC,134936,A,5929.373,N,00944.664,E,65.0,311,310713,,,A*5C
$IIRMB,A,4.00,R,,VIDY,,,,,003.16,281,,V,A*60
$IIRMB,A,4.00,R,,VIDY,,,,,003.16,281,,V,A*60
$IIVLW,01323,N,000.3,N*4D
$IIVWR,137,L,15.2,N,,,,*53
$IIDPT,012.1,-1.0,*40
$IIGLL,5929.387,N,00944.636,E,134937,A,A*47
$IIHDG,056,,,,*4B
$IIMTW,+21.0,C*4E
$IIMWV,223,R,15.2,N,A*4C
$IIMWV,207,T,20.6,N,A*4C
$IIRMC,134938,A,5929.401,N,00944.609,E,65.3,312,310713,,,A*5C
$IIVHW,,,056,M,07.0,N,,*49
$IIVLW,01323,N,000.3,N*4D
$IIVWR,137,L,16.7,N,,,,*53
$IIDPT,012.1,-1.0,*40
$IIGLL,5929.401,N,00944.609,E,134938,A,A*47
$IIHDG,056,,,,*4B
$IIMTW,+20.5,C*4E
$IIMWV,223,R,16.7,N,A*4C
$IIMWV,211,T,22.2,N,A*4C
$IIRMC,134939,A,5929.414,N,00944.583,E,65.9,312,310713,,,A*5C
$IIVHW,,,056,M,07.0,N,,*49
$IIVLW,01323,N,000.3,N*4D
$IIVWR,139,L,17.4,N,,,,*53
$IIDPT,012.1,-1.0,*40
$IIGLL,5929.414,N,00944.583,E,134939,A,A*47
$IIHDG,056,,,,*4B
$IIMTW,+21.0,C*4E
$IIMWV,222,R,17.5,N,A*4C
$IIRMB,A,5.00,R,,VIDY,,,,,003.16,281,,V,A*61
$IIMWV,210,T,23.0,N,A*4C
$IIRMC,134940,A,5929.426,N,00944.556,E,66.4,312,310713,,,A*5C
$IIVHW,,,056,M,07.0,N,,*49
$IIVLW,01323,N,000.3,N*4D
$IIVWR,138,L,17.5,N,,,,*53
$IIDPT,012.1,-1.0,*40
$IIGLL,5929.426,N,00944.556,E,134940,A,A*47
$IIHDG,056,,,,*4B
$IIMTW,+21.0,C*4E
$IIMWV,224,R,17.8,N,A*4C
$IIMWV,211,T,23.0,N,A*4C
$IIRMC,134941,A,5929.440,N,00944.530,E,66.4,312,310713,,,A*5C
$IIVHW,,,055,M,06.9,N,,*49
$IIVLW,01323,N,000.3,N*4D
$IIVWR,136,L,17.8,N,,,,*53
$IIDPT,012.1,-1.0,*40
$IIGLL,5929.440,N,00944.530,E,134941,A,A*47
$IIHDG,055,,,,*4B
$IIMTW,+21.0,C*4E
$IIMWV,224,R,17.4,N,A*4C
$IIMWV,212,T,23.2,N,A*4C
$IIRMC,134942,A,5929.451,N,00944.503,E,65.7,312,310713,,,A*5C
$IIVHW,,,055,M,06.9,N,,*49
$IIVLW,01323,N,000.3,N*4D
$IIVWR,136,L,17.4,N,,,,*53
$IIDPT,012.1,-1.0,*40
$IIRMB,A,6.00,R,,VIDY,,,,,003.16,281,,V,A*62
$IIHDG,055,,,,*4B
$IIMTW,+21.0,C*4E
$IIMWV,227,R,17.4,N,A*4C
$IIMWV,212,T,22.8,N,A*4C
$IIRMC,134943,A,5929.464,N,00944.476,E,66.6,312,310713,,,A*5C
$IIVHW,,,055,M,06.8,N,,*49
$IIVLW,01323,N,000.3,N*4D
$IIVWR,133,L,17.4,N,,,,*53
$IIDPT,012.1,-1.0,*40
$IIGLL,5929.464,N,00944.476,E,134943,A,A*47
$IIHDG,054,,,,*4B
$IIMTW,+21.0,C*4E
$IIMWV,231,R,17.7,N,A*4C
$IIMWV,214,T,22.6,N,A*4C
$IIRMC,134943,A,5929.464,N,00944.476,E,66.6,312,310713,,,A*5C
$IIVHW,,,054,M,06.7,N,,*49
$IIVLW,01323,N,000.3,N*4D
$IIVWR,131,L,17.5,N,,,,*53
$IIDPT,012.1,-1.0,*40
$IIGLL,5929.464,N,00944.476,E,134943,A,A*47
$IIHDG,053,,,,*4B
$IIMTW,+21.0,C*4E
$IIMWV,229,R,17.5,N,A*4C
$IIMWV,218,T,22.6,N,A*4C
$IIRMC,134943,A,5929.464,N,00944.476,E,66.6,312,310713,,,A*5C
$IIVHW,,,053,M,06.6,N,,*49
$IIVLW,01323,N,000.3,N*4D
$IIRMB,A,7.00,R,,VIDY,,,,,003.16,281,,V,A*63
$IIVWR,133,L,17.0,N,,,,*53
$IIDPT,012.1,-1.0,*40
$IIGLL,5929.464,N,00944.476,E,134943,A,A*47
$IIHDG,051,,,,*4B
$IIMTW,+21.0,C*4E
$IIMWV,227,R,17.0,N,A*4C
$IIMWV,216,T,22.4,N,A*4C
$IIRMC,134943,A,5929.464,N,00944.476,E,66.6,312,310713,,,A*5C
$IIVHW,,,049,M,06.7,N,,*49
$IIVLW,01323,N,000.3,N*4D
$IIVWR,129,L,16.4,N,,,,*53
$IIDPT,013.6,-1.0,*40
$IIGLL,5929.464,N,00944.476,E,134943,A,A*47
$IIHDG,049,,,,*4B
$IIMTW,+21.0,C*4E
$IIMWV,231,R,16.4,N,A*4C
$IIMWV,214,T,22.0,N,A*4C
$IIVHW,,,049,M,06.8,N,,*49
$IIVLW,01323,N,000.3,N*4D
$IIVWR,124,L,17.6,N,,,,*53
$IIDPT,013.6,-1.0,*40
$IIHDG,049,,,,*4B
$IIMTW,+21.0,C*4E
$IIMWV,236,R,17.6,N,A*4C
$IIMWV,217,T,21.3,N,A*4C
$IIRMB,A,8.00,R,,VIDY,,,,,003.16,281,,V,A*6C
$IIVHW,,,046,M,06.9,N,,*49
$IIVLW,01323,N,000.3,N*4D
$IIVWR,120,L,19.2,N,,,,*53
$IIDPT,012.5,-1.0,*40
$IIGLL,5929.537,N,00944.318,E,134949,A,A*47
$IIHDG,046,,,,*4B
$IIMTW,+21.0,C*4E
$IIMWV,240,R,19.2,N,A*4C
$IIMWV,225,T,23.5,N,A*4C
$IIRMC,134950,A,5929.550,N,00944.290,E,66.3,312,310713,,,A*5C
$IIVHW,,,046,M,07.0,N,,*49
$IIVLW,01323,N,000.3,N*4D
$IIVWR,122,L,19.2,N,,,,*53
$IIDPT,012.5,-1.0,*40
$IIGLL,5929.550,N,00944.290,E,134950,A,A*47
$IIHDG,046,,,,*4B
$IIMTW,+21.0,C*4E
$IIMWV,238,R,19.2,N,A*4C
$IIMWV,224,T,23.6,N,A*4C
$IIRMC,134951,A,5929.563,N,00944.263,E,66.5,312,310713,,,A*5C
$IIVHW,,,048,M,07.0,N,,*49
$IIVLW,01323,N,000.3,N*4D
$IIVWR,122,L,19.2,N,,,,*53
$IIDPT,012.3,-1.0,*40
$IIGLL,5929.563,N,00944.263,E,134951,A,A*47
$IIHDG,048,,,,*4B
$IIMTW,+21.0,C*4E
$IIRMB,A,9.00,R,,VIDY,,,,,003.16,281,,V,A*6D
$IIMWV,223,T,23.6,N,A*4C
$IIRMC,134952,A,5929.574,N,00944.237,E,66.1,312,310713,,,A*5C
$IIVHW,,,050,M,07.1,N,,*49
$IIVLW,01323,N,000.3,N*4D
$IIVWR,122,L,18.5,N,,,,*53
$IIDPT,012.3,-1.0,*40
$IIGLL,5929.574,N,00944.237,E,134952,A,A*47
$IIHDG,050,,,,*4B
$IIMTW,+18.0,C*4E
$IIMWV,238,R,18.1,N,A*4C
$IIMWV,223,T,23.1,N,A*4C
$IIRMC,134953,A,5929.587,N,00944.209,E,66.5,312,310713,,,A*5C
$IIVHW,,,050,M,07.2,N,,*49
$IIVLW,01323,N,000.3,N*4D
$IIVWR,122,L,18.1,N,,,,*53
$IIDPT,012.3,-1.0,*40
$IIGLL,5929.600,N,00944.182,E,134954,A,A*47
$IIHDG,048,,,,*4B
$IIMTW,+22.0,C*4E
$IIMWV,240,R,18.1,N,A*4C
$IIMWV,222,T,22.7,N,A*4C
$IIRMC,134954,A,5929.600,N,00944.182,E,66.5,312,310713,,,A*5C
$IIVHW,,,048,M,07.3,N,,*49
$IIVLW,01323,N,000.3,N*4D
$IIVWR,120,L,18.1,N,,,,*53
$IIDPT,012.3,-1.0,*40
$IIRMB,A,0.00,R,,VIDY,,,,,003.16,281,,V,A*64
$IIHDG,046,,,,*4B
$IIMTW,+22.0,C*4E
$IIMWV,243,R,17.9,N,A*4C
$IIMWV,224,T,22.7,N,A*4C
$IIRMC,134955,A,5929.612,N,00944.154,E,67.0,312,310713,,,A*5C
$IIVHW,,,046,M,07.4,N,,*49
$IIVLW,01323,N,000.3,N*4D
$IIVWR,114,L,17.8,N,,,,*53
$IIDPT,012.3,-1.0,*40
$IIGLL,5929.626,N,00944.126,E,134956,A,A*47
$IIHDG,044,,,,*4B
$IIMTW,+22.0,C*4E
$IIMWV,246,R,17.8,N,A*4C
$IIMWV,226,T,22.2,N,A*4C
$IIRMC,134956,A,5929.626,N,00944.126,E,66.9,312,310713,,,A*5C
$IIVHW,,,044,M,07.6,N,,*49
$IIVLW,01323,N,000.3,N*4D
$IIVWR,111,L,17.7,N,,,,*53
$IIDPT,012.3,-1.0,*40
$IIGLL,5929.639,N,00944.100,E,134957,A,A*47
$IIHDG,043,,,,*4B
$IIMTW,+22.0,C*4E
$IIMWV,249,R,17.7,N,A*4C
$IIMWV,227,T,21.8,N,A*4C
$IIRMC,134957,A,5929.639,N,00944.100,E,68.1,313,310713,,,A*5C
$IIRMB,A,1.00,R,,VIDY,,,,,003.16,281,,V,A*65
$IIVLW,01323,N,000.3,N*4D
$IIVWR,109,L,18.2,N,,,,*53
$IIDPT,012.3,-1.0,*40
$IIGLL,5929.654,N,00944.072,E,134958,A,A*47
$IIHDG,042,,,,*4B
$IIMTW,+22.0,C*4E
$IIMWV,251,R,18.2,N,A*4C
$IIMWV,230,T,21.5,N,A*4C
$IIRMC,134959,A,5929.667,N,00944.045,E,68.7,313,310713,,,A*5C
$IIVHW,,,041,M,07.7,N,,*49
$IIVLW,01323,N,000.3,N*4D
$IIVWR,108,L,18.6,N,,,,*53
$IIDPT,012.3,-1.0,*40
$IIGLL,5929.667,N,00944.045,E,134959,A,A*47
$IIHDG,041,,,,*4B
$IIMTW,+20.5,C*4E
$IIMWV,252,R,18.6,N,A*4C
$IIMWV,233,T,22.1,N,A*4C
$IIRMC,135000,A,5929.679,N,00944.018,E,67.7,312,310713,,,A*5C
$IIVHW,,,040,M,07.6,N,,*49
$IIVLW,01323,N,000.3,N*4D
$IIVWR,110,L,18.9,N,,,,*53
$IIDPT,012.3,-1.0,*40
$IIGLL,5929.679,N,00944.018,E,135000,A,A*47
$IIHDG,040,,,,*4B
$IIMTW,+20.5,C*4E
$IIMWV,247,R,18.0,N,A*4C
$IIRMB,A,2.00,R,,VIDY,,,,,003.16,281,,V,A*66
$IIMWV,232,T,22.6,N,A*4C
$IIRMC,135001,A,5929.692,N,00943.991,E,69.0,312,310713,,,A*5C
$IIVHW,,,042,M,07.5,N,,*49
$IIVLW,01323,N,000.3,N*4D
$IIVWR,113,L,18.0,N,,,,*53
$IIDPT,012.3,-1.0,*40
$IIGLL,5929.692,N,00943.991,E,135001,A,A*47
$IIHDG,042,,,,*4B
$IIMTW,+20.0,C*4E
$IIMWV,241,R,18.5,N,A*4C
$IIMWV,229,T,21.9,N,A*4C
$IIRMC,135002,A,5929.705,N,00943.963,E,68.3,312,310713,,,A*5C
$IIVHW,,,045,M,07.4,N,,*49
$IIVLW,01323,N,000.3,N*4D
$IIVWR,119,L,18.5,N,,,,*53
$IIDPT,012.3,-1.0,*40
$IIGLL,5929.705,N,00943.963,E,135002,A,A*47
$IIHDG,050,,,,*4B
$IIMTW,+20.0,C*4E
$IIMWV,237,R,18.1,N,A*4C
$IIMWV,225,T,22.7,N,A*4C
$IIRMC,135003,A,5929.717,N,00943.936,E,67.0,311,310713,,,A*5C
$IIVHW,,,050,M,07.2,N,,*49
$IIVLW,01323,N,000.3,N*4D
$IIVWR,123,L,18.1,N,,,,*53
$IIDPT,012.3,-1.0,*40
$IIRMB,A,3.00,R,,VIDY,,,,,003.16,281,,V,A*67
$IIHDG,053,,,,*4B
$IIMTW,+20.0,C*4E
$IIMWV,228,R,17.9,N,A*4C
$IIMWV,222,T,22.7,N,A*4C
$IIRMC,135004,A,5929.729,N,00943.909,E,66.6,311,310713,,,A*5C
$IIVHW,,,053,M,07.0,N,,*49
$IIVLW,01323,N,000.3,N*4D
$IIVWR,132,L,17.9,N,,,,*53
$IIDPT,012.3,-1.0,*40
$IIGLL,5929.741,N,00943.881,E,135005,A,A*47
$IIHDG,054,,,,*4B
$IIMTW,+20.0,C*4E
$IIMWV,223,R,16.9,N,A*4C
$IIMWV,215,T,23.0,N,A*4C
$IIRMC,135005,A,5929.741,N,00943.881,E,66.2,311,310713,,,A*5C
$IIVHW,,,054,M,06.8,N,,*49
$IIVLW,01323,N,000.3,N*4D
$IIVWR,136,L,16.4,N,,,,*53
$IIDPT,012.3,-1.0,*40
$IIGLL,5929.741,N,00943.881,E,135005,A,A*47
$IIHDG,054,,,,*4B
$IIMTW,+20.0,C*4E
$IIMWV,224,R,16.4,N,A*4C
$IIMWV,211,T,22.3,N,A*4C
$IIRMC,135005,A,5929.741,N,00943.881,E,66.2,311,310713,,,A*5C
$IIVHW,,,054,M,06.7,N,,*49
$IIVLW,01323,N,000.3,N*4D
$IIRMB,A,4.00,R,,VIDY,,,,,003.16,281,,V,A*60
$IIVWR,132,L,16.5,N,,,,*53
$IIDPT,012.3,-1.0,*40
$IIGLL,5929.741,N,00943.881,E,135005,A,A*47
$IIHDG,053,,,,*4B
$IIMTW,+20.0,C*4E
$IIMWV,228,R,16.5,N,A*4C
$IIMWV,211,T,21.7,N,A*4C
$IIRMC,135005,A,5929.741,N,00943.881,E,66.2,311,310713,,,A*5C
$IIVHW,,,052,M,06.7,N,,*49
$IIVLW,01323,N,000.3,N*4D
$IIVWR,129,L,16.8,N,,,,*53
$IIDPT,012.3,-1.0,*40
$IIGLL,5929.777,N,00943.799,E,135008,A,A*47
$IIHDG,052,,,,*4B
$IIMTW,+20.0,C*4E
$IIMWV,231,R,16.8,N,A*4C
$IIMWV,215,T,21.4,N,A*4C
$IIRMC,135009,A,5929.789,N,00943.773,E,65.7,311,310713,,,A*5C
$IIVHW,,,050,M,06.8,N,,*49
$IIVLW,01323,N,000.3,N*4D
$IIVWR,126,L,16.3,N,,,,*53
$IIDPT,012.3,-1.0,*40
$IIGLL,5929.789,N,00943.773,E,135009,A,A*47
$IIHDG,050,,,,*4B
$IIMTW,+20.0,C*4E
$IIMWV,234,R,16.3,N,A*4C
$IIMWV,219,T,21.0,N,A*4C
$IIRMB,A,5.00,R,,VIDY,,,,,003.16,281,,V,A*61
$IIRMC,135010,A,5929.800,N,00943.746,E,65.3,312,310713,,,A*5C
$IIVHW,,,050,M,06.8,N,,*49
$IIVLW,01323,N,000.3,N*4D
$IIVWR,122,L,16.0,N,,,,*53
$IIDPT,012.3,-1.0,*40
$IIGLL,5929.800,N,00943.746,E,135010,A,A*47
$IIHDG,050,,,,*4B
$IIMTW,+21.0,C*4E
$IIMWV,242,R,15.3,N,A*4C
$IIMWV,222,T,20.4,N,A*4C
$IIRMC,135011,A,5929.812,N,00943.720,E,65.8,312,310713,,,A*5C
$IIVHW,,,046,M,07.0,N,,*49
$IIVLW,01323,N,000.3,N*4D
$IIVWR,118,L,15.3,N,,,,*53
$IIDPT,012.2,-1.0,*40
$IIGLL,5929.812,N,00943.720,E,135011,A,A*47
$IIHDG,046,,,,*4B
$IIMTW,+21.0,C*4E
$IIMWV,245,R,14.9,N,A*4C
$IIMWV,224,T,19.4,N,A*4C
$IIRMC,135012,A,5929.824,N,00943.693,E,65.7,312,310713,,,A*5C
$IIVHW,,,047,M,07.1,N,,*49
$IIVLW,01323,N,000.3,N*4D
$IIVWR,115,L,14.9,N,,,,*53
$IIDPT,012.2,-1.0,*40
$IIGLL,5929.824,N,00943.693,E,135012,A,A*47
$IIHDG,046,,,,*4B
$IIRMB,A,6.00,R,,VIDY,,,,,003.16,281,,V,A*62
$IIMWV,249,R,15.6,N,A*4C
$IIMWV,225,T,19.0,N,A*4C
$IIRMC,135013,A,5929.837,N,00943.665,E,67.4,312,310713,,,A*5C
$IIVHW,,,046,M,07.3,N,,*49
$IIVLW,01323,N,000.3,N*4D
$IIVWR,111,L,15.6,N,,,,*53
$IIDPT,012.2,-1.0,*40
$IIGLL,5929.851,N,00943.637,E,135014,A,A*47
$IIHDG,044,,,,*4B
$IIMTW,+21.5,C*4E
$IIMWV,251,R,15.6,N,A*4C
$IIMWV,228,T,19.4,N,A*4C
$IIRMC,135014,A,5929.851,N,00943.637,E,68.2,312,310713,,,A*5C
$IIVHW,,,044,M,07.4,N,,*49
$IIVLW,01323,N,000.3,N*4D
$IIVWR,109,L,15.6,N,,,,*53
$IIDPT,013.8,-1.0,*40
$IIGLL,5929.864,N,00943.610,E,135015,A,A*47
$IIHDG,047,,,,*4B
$IIMTW,+21.5,C*4E
$IIMWV,250,R,15.2,N,A*4C
$IIMWV,230,T,19.4,N,A*4C
$IIRMC,135015,A,5929.864,N,00943.610,E,68.3,312,310713,,,A*5C
$IIVHW,,,047,M,07.5,N,,*49
$IIVLW,01323,N,000.3,N*4D
$IIRMB,A,7.00,R,,VIDY,,,,,003.16,281,,V,A*63
$IIDPT,013.8,-1.0,*40
$IIGLL,5929.877,N,00943.582,E,135016,A,A*47
$IIHDG,046,,,,*4B
$IIMTW,+21.5,C*4E
$IIMWV,250,R,14.9,N,A*4C
$IIMWV,228,T,18.9,N,A*4C
$IIRMC,135016,A,5929.877,N,00943.582,E,67.8,312,310713,,,A*5C
$IIVHW,,,046,M,07.5,N,,*49
$IIVLW,01323,N,000.3,N*4D
$IIVWR,110,L,15.2,N,,,,*53
$IIDPT,015.4,-1.0,*40
$IIGLL,5929.890,N,00943.555,E,135017,A,A*47
$IIHDG,045,,,,*4B
$IIMTW,+21.0,C*4E
$IIMWV,250,R,15.2,N,A*4C
$IIMWV,228,T,18.7,N,A*4C
$IIRMC,135017,A,5929.890,N,00943.555,E,67.9,312,310713,,,A*5C
$IIVHW,,,045,M,07.4,N,,*49
$IIVLW,01323,N,000.3,N*4D
$IIVWR,115,L,16.0,N,,,,*53
$IIDPT,016.3,-1.0,*40
$IIGLL,5929.902,N,00943.527,E,135018,A,A*47
$IIHDG,045,,,,*4B
$IIMTW,+21.0,C*4E
$IIMWV,245,R,16.0,N,A*4C
$IIMWV,228,T,18.9,N,A*4C
$IIRMB,A,8.00,R,,VIDY,,,,,003.16,281,,V,A*6C
$IIVHW,,,047,M,07.3,N,,*49
$IIVLW,01323,N,000.3,N*4D
$IIVWR,119,L,16.7,N,,,,*53
$IIDPT,016.3,-1.0,*40
$IIGLL,5929.915,N,00943.499,E,135019,A,A*47
$IIHDG,047,,,,*4B
$IIMTW,+21.0,C*4E
$IIMWV,241,R,16.7,N,A*4C
$IIMWV,223,T,21.0,N,A*4C
$IIRMC,135020,A,5929.928,N,00943.472,E,67.8,311,310713,,,A*5C
$IIVHW,,,046,M,07.1,N,,*49
$IIVLW,01323,N,000.3,N*4D
$IIVWR,118,L,16.1,N,,,,*53
$IIDPT,014.8,-1.0,*40
$IIGLL,5929.928,N,00943.472,E,135020,A,A*47
$IIHDG,046,,,,*4B
$IIMTW,+21.0,C*4E
$IIMWV,241,R,15.5,N,A*4C
$IIMWV,224,T,20.3,N,A*4C
$IIRMC,135020,A,5929.928,N,00943.472,E,67.8,311,310713,,,A*5C
$IIVHW,,,047,M,07.0,N,,*49
$IIVLW,01323,N,000.3,N*4D
$IIVWR,119,L,15.5,N,,,,*53
$IIDPT,012.4,-1.0,*40
$IIGLL,5929.928,N,00943.472,E,135020,A,A*47
$IIHDG,047,,,,*4B
$IIMTW,+21.5,C*4E
$IIRMB,A,9.00,R,,VIDY,,,,,003.16,281,,V,A*6D
$IIMWV,223,T,19.7,N,A*4C
$IIRMC,135020,A,5929.928,N,00943.472,E,67.8,311,310713,,,A*5C
$IIVHW,,,046,M,07.0,N,,*49
$IIVLW,01323,N,000.3,N*4D
$IIVWR,118,L,15.7,N,,,,*53
$IIDPT,012.4,-1.0,*40
$IIGLL,5929.928,N,00943.472,E,135020,A,A*47
$IIHDG,046,,,,*4B
$IIMTW,+21.0,C*4E
$IIMWV,242,R,16.1,N,A*4C
$IIMWV,224,T,19.8,N,A*4C
$IIRMC,135023,A,5929.965,N,00943.389,E,67.1,311,310713,,,A*5C
$IIVHW,,,046,M,06.9,N,,*49
$IIVLW,01323,N,000.3,N*4D
$IIVWR,118,L,16.1,N,,,,*53
$IIDPT,012.4,-1.0,*40
$IIGLL,5929.965,N,00943.389,E,135023,A,A*47
$IIHDG,046,,,,*4B
$IIMTW,+21.0,C*4E
$IIMWV,240,R,15.7,N,A*4C
$IIMWV,224,T,20.1,N,A*4C
$IIRMC,135023,A,5929.965,N,00943.389,E,67.1,311,310713,,,A*5C
$IIVHW,,,046,M,06.9,N,,*49
$IIVLW,01323,N,000.3,N*4D
$IIVWR,120,L,15.7,N,,,,*53
$IIDPT,012.3,-1.0,*40
$IIRMB,A,0.00,R,,VIDY,,,,,003.16,281,,V,A*64
$IIHDG,047,,,,*4B
$IIMTW,+20.5,C*4E
$IIMWV,238,R,15.1,N,A*4C
$IIMWV,223,T,20.0,N,A*4C
$IIRMC,135025,A,5929.991,N,00943.336,E,67.5,312,310713,,,A*5C
$IIVHW,,,047,M,06.9,N,,*49
$IIVLW,01323,N,000.3,N*4D
$IIVWR,117,L,16.0,N,,,,*53
$IIDPT,012.3,-1.0,*40
$IIGLL,5930.003,N,00943.308,E,135026,A,A*47
$IIHDG,047,,,,*4B
$IIMTW,+18.0,C*4E
$IIMWV,243,R,16.0,N,A*4C
$IIMWV,221,T,19.6,N,A*4C
$IIRMC,135026,A,5930.003,N,00943.308,E,67.7,311,310713,,,A*5C
$IIVHW,,,047,M,07.0,N,,*49
$IIVLW,01323,N,000.3,N*4D
$IIVWR,117,L,17.3,N,,,,*53
$IIDPT,012.3,-1.0,*40
$IIGLL,5930.015,N,00943.283,E,135027,A,A*47
$IIHDG,046,,,,*4B
$IIMTW,+19.5,C*4E
$IIMWV,243,R,17.3,N,A*4C
$IIMWV,225,T,20.0,N,A*4C
$IIRMC,135027,A,5930.015,N,00943.283,E,67.7,311,310713,,,A*5C
$IIRMB,A,1.00,R,,VIDY,,,,,003.16,281,,V,A*65
$IIVLW,01323,N,000.4,N*4D
$IIVWR,116,L,16.9,N,,,,*53
$IIDPT,012.3,-1.0,*40
$IIGLL,5930.027,N,00943.255,E,135028,A,A*47
$IIHDG,044,,,,*4B
$IIMTW,+21.5,C*4E
$IIMWV,244,R,16.9,N,A*4C
$IIMWV,226,T,21.2,N,A*4C
$IIRMC,135029,A,5930.040,N,00943.227,E,68.3,311,310713,,,A*5C
$IIVHW,,,044,M,07.0,N,,*49
$IIVLW,01323,N,000.4,N*4D
$IIVWR,119,L,17.1,N,,,,*53
$IIDPT,012.3,-1.0,*40
$IIGLL,5930.040,N,00943.227,E,135029,A,A*47
$IIHDG,044,,,,*4B
$IIMTW,+20.5,C*4E
$IIMWV,241,R,17.1,N,A*4C
$IIMWV,224,T,21.2,N,A*4C
$IIRMC,135029,A,5930.040,N,00943.227,E,68.3,311,310713,,,A*5C
$IIVHW,,,045,M,06.8,N,,*49
$IIVLW,01323,N,000.4,N*4D
$IIVWR,120,L,17.3,N,,,,*53
$IIDPT,012.3,-1.0,*40
$IIGLL,5930.040,N,00943.227,E,135029,A,A*47
$IIHDG,045,,,,*4B
$IIMTW,+20.5,C*4E
$IIMWV,235,R,17.4,N,A*4C
$IIRMB,A,2.00,R,,VIDY,,,,,003.16,281,,V,A*66
$IIMWV,224,T,21.4,N,A*4C
$IIRMC,135029,A,5930.040,N,00943.227,E,68.3,311,310713,,,A*5C
$IIVHW,,,045,M,06.6,N,,*49
$IIVLW,01323,N,000.4,N*4D
$IIVWR,125,L,17.4,N,,,,*53
$IIDPT,012.3,-1.0,*40
$IIGLL,5930.040,N,00943.227,E,135029,A,A*47
$IIHDG,045,,,,*4B
$IIMTW,+20.5,C*4E
$IIMWV,229,R,16.9,N,A*4C
$IIMWV,221,T,21.7,N,A*4C
$IIRMC,135029,A,5930.040,N,00943.227,E,68.3,311,310713,,,A*5C
$IIVHW,,,046,M,06.4,N,,*49
$IIVLW,01323,N,000.4,N*4D
$IIVWR,131,L,16.9,N,,,,*53
$IIDPT,012.3,-1.0,*40
$IIGLL,5930.040,N,00943.227,E,135029,A,A*47
$IIHDG,045,,,,*4B
$IIMTW,+20.5,C*4E
$IIMWV,226,R,15.8,N,A*4C
$IIMWV,216,T,21.6,N,A*4C
$IIRMC,135029,A,5930.040,N,00943.227,E,68.3,311,310713,,,A*5C
$IIVHW,,,045,M,06.4,N,,*49
$IIVLW,01323,N,000.4,N*4D
$IIVWR,134,L,15.8,N,,,,*53
$IIDPT,012.3,-1.0,*40
$IIHDG,043,,,,*4B
$IIRMB,A,3.00,R,,VIDY,,,,,003.16,281,,V,A*67
$IIMWV,230,R,15.7,N,A*4C
$IIMWV,213,T,20.6,N,A*4C
$IIVHW,,,043,M,06.5,N,,*49
$IIVLW,01323,N,000.4,N*4D
$IIVWR,130,L,15.7,N,,,,*53
$IIDPT,012.3,-1.0,*40
$IIHDG,041,,,,*4B
$IIMTW,+21.5,C*4E
$IIMWV,232,R,15.2,N,A*4C
$IIMWV,216,T,20.4,N,A*4C
$IIVHW,,,041,M,06.7,N,,*49
$IIVLW,01323,N,000.4,N*4D
$IIVWR,128,L,15.2,N,,,,*53
$IIDPT,012.3,-1.0,*40
$IIHDG,038,,,,*4B
$IIMTW,+21.5,C*4E
$IIMWV,232,R,14.7,N,A*4C
$IIMWV,217,T,20.0,N,A*4C
$IIVHW,,,038,M,06.9,N,,*49
$IIVLW,01323,N,000.4,N*4D
$IIVWR,128,L,14.7,N,,,,*53
$IIDPT,012.3,-1.0,*40
$IIHDG,037,,,,*4B
$IIRMB,A,4.00,R,,VIDY,,,,,003.16,281,,V,A*60
$IIMWV,235,R,14.9,N,A*4C
$IIMWV,216,T,19.7,N,A*4C
$IIVHW,,,037,M,07.1,N,,*49
$IIVLW,01323,N,000.4,N*4D
$IIVWR,125,L,14.9,N,,,,*53
$IIDPT,012.3,-1.0,*40
$IIHDG,036,,,,*4B
$IIMTW,+22.0,C*4E
$IIMWV,241,R,14.8,N,A*4C
$IIMWV,218,T,19.8,N,A*4C
$IIVHW,,,036,M,07.3,N,,*49
$IIVLW,01323,N,000.4,N*4D
$IIVWR,119,L,14.8,N,,,,*53
$IIDPT,012.3,-1.0,*40
$IIHDG,034,,,,*4B
$IIMTW,+22.0,C*4E
$IIMWV,243,R,14.7,N,A*4C
$IIMWV,222,T,19.2,N,A*4C
$IIVHW,,,034,M,07.4,N,,*49
$IIVLW,01323,N,000.4,N*4D
$IIVWR,117,L,14.7,N,,,,*53
$IIDPT,012.3,-1.0,*40
$IIHDG,034,,,,*4B
$IIRMB,A,5.00,R,,VIDY,,,,,003.16,281,,V,A*61
$IIMWV,243,R,16.4,N,A*4C
$IIMWV,223,T,19.1,N,A*4C
$IIVHW,,,034,M,07.4,N,,*49
$IIVLW,01323,N,000.4,N*4D
$IIVWR,117,L,16.4,N,,,,*53
$IIDPT,012.3,-1.0,*40
$IIHDG,033,,,,*4B
$IIMTW,+21.5,C*4E
$IIMWV,245,R,17.3,N,A*4C
$IIMWV,225,T,20.6,N,A*4C
$IIVHW,,,033,M,07.4,N,,*49
$IIVLW,01323,N,000.4,N*4D
$IIVWR,115,L,17.3,N,,,,*53
$IIDPT,012.3,-1.0,*40
$IIHDG,033,,,,*4B
$IIMTW,+18.0,C*4E
$IIMWV,246,R,17.8,N,A*4C
$IIMWV,227,T,21.4,N,A*4C
$IIVHW,,,033,M,07.3,N,,*49
$IIVLW,01323,N,000.4,N*4D
$IIVWR,114,L,17.8,N,,,,*53
$IIDPT,012.3,-1.0,*40
$IIHDG,031,,,,*4B
$IIRMB,A,6.00,R,,VIDY,,,,,003.16,281,,V,A*62
$IIMWV,249,R,17.6,N,A*4C
$IIMWV,228,T,21.7,N,A*4C
$IIVHW,,,031,M,07.4,N,,*49
$IIVLW,01323,N,000.4,N*4D
$IIVWR,111,L,17.6,N,,,,*53
$IIDPT,012.3,-1.0,*40
$IIHDG,029,,,,*4B
$IIMTW,+20.5,C*4E
$IIMWV,252,R,16.5,N,A*4C
$IIMWV,230,T,21.2,N,A*4C
$IIVHW,,,029,M,07.5,N,,*49
$IIVLW,01323,N,000.4,N*4D
$IIVWR,108,L,16.5,N,,,,*53
$IIDPT,012.3,-1.0,*40
$IIHDG,025,,,,*4B
$IIMTW,+20.5,C*4E
$IIMWV,259,R,16.1,N,A*4C
$IIMWV,231,T,20.0,N,A*4C
$IIVHW,,,025,M,07.5,N,,*49
$IIVLW,01323,N,000.4,N*4D
$IIVWR,101,L,16.1,N,,,,*53
$IIDPT,012.5,-1.0,*40
$IIHDG,025,,,,*4B
$IIRMB,A,7.00,R,,VIDY,,,,,003.16,281,,V,A*63
$IIMWV,260,R,16.3,N,A*4C
$IIMWV,236,T,18.9,N,A*4C
$IIVHW,,,025,M,07.5,N,,*49
$IIVLW,01323,N,000.4,N*4D
$IIVWR,100,L,16.3,N,,,,*53
$IIDPT,012.5,-1.0,*40
$IIHDG,026,,,,*4B
$IIMTW,+18.0,C*4E
$IIMWV,256,R,17.4,N,A*4C
$IIMWV,237,T,18.9,N,A*4C
$IIVHW,,,026,M,07.4,N,,*49
$IIVLW,01323,N,000.4,N*4D
$IIVWR,104,L,17.4,N,,,,*53
$IIDPT,012.3,-1.0,*40
$IIHDG,027,,,,*4B
$IIMTW,+20.5,C*4E
$IIMWV,249,R,17.6,N,A*4C
$IIMWV,236,T,20.3,N,A*4C
$IIVHW,,,027,M,07.3,N,,*49
$IIVLW,01323,N,000.4,N*4D
$IIVWR,111,L,17.6,N,,,,*53
$IIDPT,012.3,-1.0,*40
$IIHDG,031,,,,*4B
$IIRMB,A,8.00,R,,VIDY,,,,,003.16,281,,V,A*6C
$IIMWV,245,R,17.5,N,A*4C
$IIMWV,230,T,21.2,N,A*4C
$IIVHW,,,031,M,07.2,N,,*49
$IIVLW,01323,N,000.4,N*4D
$IIVWR,115,L,17.5,N,,,,*53
$IIDPT,012.3,-1.0,*40
$IIHDG,034,,,,*4B
$IIMTW,+20.5,C*4E
$IIMWV,244,R,17.5,N,A*4C
$IIMWV,228,T,21.5,N,A*4C
$IIVHW,,,034,M,07.1,N,,*49
$IIVLW,01323,N,000.4,N*4D
$IIVWR,116,L,17.5,N,,,,*53
$IIDPT,012.3,-1.0,*40
$IIHDG,036,,,,*4B
$IIMTW,+20.5,C*4E
$IIMWV,241,R,17.9,N,A*4C
$IIMWV,227,T,21.5,N,A*4C
$IIVHW,,,036,M,07.0,N,,*49
$IIVLW,01323,N,000.4,N*4D
$IIVWR,119,L,17.9,N,,,,*53
$IIDPT,012.3,-1.0,*40
$IIRMB,A,9.00,R,,VIDY,,,,,003.16,281,,V,A*6D
$IIHDG,038,,,,*4B
$IIMTW,+21.5,C*4E
$IIMWV,238,R,16.6,N,A*4C
$IIMWV,225,T,21.9,N,A*4C
$IIVHW,,,038,M,07.0,N,,*49
$IIVLW,01323,N,000.4,N*4D
$IIVWR,122,L,16.6,N,,,,*53
$IIDPT,012.3,-1.0,*40
$IIHDG,039,,,,*4B
$IIMTW,+21.5,C*4E
$IIMWV,239,R,16.0,N,A*4C
$IIMWV,222,T,21.1,N,A*4C
$IIVHW,,,038,M,06.9,N,,*49
$IIVLW,01323,N,000.4,N*4D
$IIVWR,120,L,16.4,N,,,,*53
$IIDPT,012.4,-1.0,*40
$IIHDG,038,,,,*4B
$IIMTW,+21.5,C*4E
$IIMWV,240,R,16.4,N,A*4C
$IIMWV,222,T,20.5,N,A*4C
$IIRMB,A,0.00,R,,VIDY,,,,,003.16,281,,V,A*64
$IIVLW,01323,N,000.4,N*4D
$IIVWR,119,L,16.4,N,,,,*53
$IIDPT,013.6,-1.0,*40
$IIHDG,036,,,,*4B
$IIMTW,+18.0,C*4E
$IIMWV,241,R,16.4,N,A*4C
$IIMWV,223,T,20.8,N,A*4C
$IIVHW,,,035,M,06.9,N,,*49
$IIVLW,01323,N,000.4,N*4D
$IIVWR,122,L,16.7,N,,,,*53
$IIDPT,013.6,-1.0,*40
$IIHDG,035,,,,*4B
$IIMTW,+20.5,C*4E
$IIMWV,238,R,16.7,N,A*4C
$IIMWV,224,T,20.4,N,A*4C
$IIVHW,,,034,M,06.9,N,,*49
$IIVLW,01323,N,000.4,N*4D
$IIVWR,123,L,16.6,N,,,,*53
$IIDPT,015.0,-1.0,*40
$IIHDG,034,,,,*4B
$IIMTW,+20.5,C*4E
$IIMWV,237,R,16.6,N,A*4C
$IIMWV,222,T,21.1,N,A*4C
$IIRMB,A,1.00,R,,VIDY,,,,,003.16,281,,V,A*65
$IIVLW,01323,N,000.4,N*4D
$IIVWR,122,L,17.7,N,,,,*53
$IIDPT,013.8,-1.0,*40
$IIHDG,034,,,,*4B
$IIMTW,+20.5,C*4E
$IIMWV,238,R,17.7,N,A*4C
$IIMWV,221,T,21.0,N,A*4C
$IIVHW,,,034,M,07.0,N,,*49
$IIVLW,01323,N,000.4,N*4D
$IIVWR,122,L,18.1,N,,,,*53
$IIDPT,013.7,-1.0,*40
$IIHDG,034,,,,*4B
$IIMTW,+20.5,C*4E
$IIMWV,238,R,18.1,N,A*4C
$IIMWV,223,T,22.1,N,A*4C
$IIVHW,,,035,M,07.1,N,,*49
$IIVLW,01323,N,000.4,N*4D
$IIVWR,006,R,00.0,N,,,,*53
$IIDPT,012.6,-1.0,*40
$IIHDG,035,,,,*4B
$IIMTW,+22.0,C*4E
$IIMWV,006,R,00.0,N,A*4C
$IIMWV,223,T,22.5,N,A*4C
$IIRMB,A,2.00,R,,VIDY,,,,,003.16,281,,V,A*66
$IIVLW,01323,N,000.4,N*4D
$IIVWR,122,L,18.8,N,,,,*53
$IIDPT,012.5,-1.0,*40
$IIHDG,034,,,,*4B
$IIMTW,+21.0,C*4E
$IIMWV,238,R,18.8,N,A*4C
$IIMWV,006,T,07.2,N,A*4C
$IIVHW,,,034,M,07.5,N,,*49
$IIVLW,01323,N,000.4,N*4D
$IIVWR,118,L,19.0,N,,,,*53
$IIDPT,012.5,-1.0,*40
$IIHDG,034,,,,*4B
$IIMTW,+21.0,C*4E
$IIMWV,242,R,19.0,N,A*4C
$IIMWV,223,T,23.4,N,A*4C
$IIVHW,,,035,M,07.6,N,,*49
$IIVLW,01323,N,000.4,N*4D
$IIVWR,116,L,19.5,N,,,,*53
$IIDPT,012.5,-1.0,*40
$IIHDG,035,,,,*4B
$IIMTW,+21.5,C*4E
$IIMWV,244,R,19.5,N,A*4C
$IIMWV,225,T,23.4,N,A*4C
$IIRMB,A,3.00,R,,VIDY,,,,,003.16,281,,V,A*67
$IIVLW,01323,N,000.4,N*4D
$IIVWR,116,L,19.4,N,,,,*53
$IIDPT,012.5,-1.0,*40
$IIHDG,036,,,,*4B
$IIMTW,+21.5,C*4E
$IIMWV,244,R,19.4,N,A*4C
$IIMWV,227,T,23.8,N,A*4C
$IIVHW,,,037,M,07.8,N,,*49
$IIVLW,01323,N,000.4,N*4D
$IIVWR,115,L,18.9,N,,,,*53
$IIDPT,012.5,-1.0,*40
$IIHDG,037,,,,*4B
$IIMTW,+21.5,C*4E
$IIMWV,245,R,18.9,N,A*4C
$IIMWV,227,T,23.8,N,A*4C
$IIVHW,,,037,M,07.8,N,,*49
$IIVLW,01323,N,000.4,N*4D
$IIVWR,116,L,18.7,N,,,,*53
$IIDPT,012.5,-1.0,*40
$IIHDG,037,,,,*4B
$IIMTW,+22.0,C*4E
$IIMWV,244,R,18.7,N,A*4C
$IIMWV,227,T,23.2,N,A*4C
$IIRMB,A,4.00,R,,VIDY,,,,,003.16,281,,V,A*60
$IIVLW,01323,N,000.4,N*4D
$IIVWR,117,L,18.3,N,,,,*53
$IIDPT,012.5,-1.0,*40
$IIHDG,037,,,,*4B
$IIMTW,+22.0,C*4E
$IIMWV,243,R,18.3,N,A*4C
$IIMWV,226,T,23.2,N,A*4C
$IIVHW,,,037,M,07.8,N,,*49
$IIVLW,01323,N,000.4,N*4D
$IIVWR,117,L,18.3,N,,,,*53
$IIDPT,012.6,-1.0,*40
$IIHDG,037,,,,*4B
$IIMTW,+22.0,C*4E
$IIMWV,243,R,18.3,N,A*4C
$IIMWV,225,T,22.8,N,A*4C
$IIVHW,,,037,M,07.8,N,,*49
$IIVLW,01323,N,000.4,N*4D
$IIVWR,117,L,18.3,N,,,,*53
$IIDPT,012.6,-1.0,*40
$IIHDG,037,,,,*4B
$IIMTW,+21.0,C*4E
$IIMWV,243,R,18.3,N,A*4C
$IIMWV,225,T,22.8,N,A*4C
$IIRMB,A,5.00,R,,VIDY,,,,,003.16,281,,V,A*61
$IIVLW,01323,N,000.4,N*4D
$IIVWR,117,L,18.6,N,,,,*53
$IIDPT,012.6,-1.0,*40
$IIHDG,037,,,,*4B
$IIMTW,+21.5,C*4E
$IIMWV,243,R,18.6,N,A*4C
$IIMWV,225,T,22.7,N,A*4C
$IIVHW,,,037,M,07.7,N,,*49
$IIVLW,01323,N,000.4,N*4D
$IIVWR,117,L,19.5,N,,,,*53
$IIDPT,012.6,-1.0,*40
$IIHDG,037,,,,*4B
$IIMTW,+21.5,C*4E
$IIMWV,243,R,19.5,N,A*4C
$IIMWV,226,T,23.0,N,A*4C
$IIVHW,,,035,M,07.6,N,,*49
$IIVLW,01323,N,000.4,N*4D
$IIVWR,116,L,20.0,N,,,,*53
$IIDPT,012.5,-1.0,*40
$IIHDG,035,,,,*4B
$IIMTW,+21.0,C*4E
$IIMWV,244,R,20.0,N,A*4C
$IIMWV,227,T,23.8,N,A*4C
$IIRMB,A,6.00,R,,VIDY,,,,,003.16,281,,V,A*62
$IIVHW,,,035,M,07.5,N,,*49
$IIVLW,01323,N,000.4,N*4D
$IIVWR,115,L,19.8,N,,,,*53
$IIDPT,012.5,-1.0,*40
$IIHDG,035,,,,*4B
$IIMTW,+18.0,C*4E
$IIMWV,245,R,19.8,N,A*4C
$IIMWV,228,T,24.3,N,A*4C
$IIVHW,,,036,M,07.5,N,,*49
$IIVLW,01323,N,000.4,N*4D
$IIVWR,116,L,19.3,N,,,,*53
$IIDPT,012.3,-1.0,*40
$IIRMB,A,7.00,R,,VIDY,,,,,003.16,281,,V,A*63
$IIMTW,+20.0,C*4E
$IIMWV,247,R,19.2,N,A*4C
$IIMWV,227,T,22.7,N,A*4C
$IIVHW,,,033,M,07.4,N,,*49
$IIVLW,01323,N,000.4,N*4D
$IIVWR,113,L,19.2,N,,,,*53
$IIDPT,012.3,-1.0,*40
$IIHDG,031,,,,*4B
$IIMTW,+21.5,C*4E
$IIMWV,248,R,19.2,N,A*4C
$IIMWV,230,T,23.0,N,A*4C
$IIVHW,,,031,M,07.4,N,,*49
$IIVLW,01323,N,000.4,N*4D
$IIVWR,112,L,19.2,N,,,,*53
$IIDPT,012.5,-1.0,*40
$IIHDG,029,,,,*4B
$IIMTW,+21.5,C*4E
$IIMWV,006,R,00.0,N,A*4C
$IIMWV,231,T,22.9,N,A*4C
$IIVHW,,,029,M,07.4,N,,*49
$IIVLW,01323,N,000.5,N*4D
$IIVWR,006,R,00.0,N,,,,*53
$IIDPT,012.9,-1.0,*40
$IIRMB,A,8.00,R,,VIDY,,,,,003.16,281,,V,A*6C
$IIMTW,+21.5,C*4E
$IIMWV,246,R,18.5,N,A*4C
$IIMWV,006,T,07.5,N,A*4C
$IIVHW,,,030,M,07.4,N,,*49
$IIVLW,01323,N,000.5,N*4D
$IIVWR,114,L,18.5,N,,,,*53
$IIDPT,012.9,-1.0,*40
$IIHDG,031,,,,*4B
$IIMTW,+21.5,C*4E
$IIMWV,244,R,18.4,N,A*4C
$IIMWV,228,T,22.5,N,A*4C
$IIVHW,,,031,M,07.5,N,,*49
$IIVLW,01323,N,000.5,N*4D
$IIVWR,116,L,18.4,N,,,,*53
$IIDPT,012.8,-1.0,*40
$IIHDG,031,,,,*4B
$IIMTW,+21.5,C*4E
$IIMWV,006,R,00.0,N,A*4C
$IIMWV,227,T,22.6,N,A*4C
$IIVHW,,,031,M,07.5,N,,*49
$IIVLW,01323,N,000.5,N*4D
$IIVWR,006,R,00.0,N,,,,*53
$IIDPT,012.8,-1.0,*40
$IIRMB,A,9.00,R,,VIDY,,,,,003.16,281,,V,A*6D
$IIMTW,+21.5,C*4E
$IIMWV,244,R,19.3,N,A*4C
$IIMWV,006,T,07.6,N,A*4C
$IIVHW,,,033,M,07.5,N,,*49
$IIVLW,01323,N,000.5,N*4D
$IIVWR,116,L,19.3,N,,,,*53
$IIDPT,012.5,-1.0,*40
$IIHDG,033,,,,*4B
$IIMTW,+21.5,C*4E
$IIMWV,243,R,19.8,N,A*4C
$IIMWV,227,T,23.5,N,A*4C
$IIVHW,,,033,M,07.5,N,,*49
$IIVLW,01323,N,000.5,N*4D
$IIVWR,117,L,19.8,N,,,,*53
$IIDPT,012.5,-1.0,*40
$IIHDG,033,,,,*4B
$IIMTW,+20.5,C*4E
$IIMWV,243,R,19.4,N,A*4C
$IIMWV,227,T,24.0,N,A*4C
$IIVHW,,,033,M,07.5,N,,*49
$IIVLW,01323,N,000.5,N*4D
$IIVWR,117,L,19.4,N,,,,*53
$IIDPT,012.5,-1.0,*40
$IIRMB,A,0.00,R,,VIDY,,,,,003.16,281,,V,A*64
$IIMTW,+20.5,C*4E
$IIMWV,244,R,19.0,N,A*4C
$IIMWV,227,T,23.6,N,A*4C
$IIVHW,,,034,M,07.4,N,,*49
$IIVLW,01323,N,000.5,N*4D
$IIVWR,116,L,19.0,N,,,,*53
$IIDPT,012.5,-1.0,*40
$IIHDG,033,,,,*4B
$IIMTW,+21.5,C*4E
$IIMWV,247,R,19.6,N,A*4C
$IIMWV,227,T,23.2,N,A*4C
$IIVHW,,,033,M,07.3,N,,*49
$IIVLW,01323,N,000.5,N*4D
$IIVWR,113,L,19.6,N,,,,*53
$IIDPT,012.5,-1.0,*40
$IIHDG,031,,,,*4B
$IIMTW,+21.0,C*4E
$IIMWV,006,R,00.0,N,A*4C
$IIMWV,230,T,23.4,N,A*4C
$IIVHW,,,031,M,07.3,N,,*49
$IIVLW,01323,N,000.5,N*4D
$IIVWR,006,R,00.0,N,,,,*53
$IIDPT,012.5,-1.0,*40
$IIRMB,A,1.00,R,,VIDY,,,,,003.16,281,,V,A*65
$IIMTW,+21.0,C*4E
$IIMWV,250,R,19.6,N,A*4C
$IIMWV,006,T,07.3,N,A*4C
$IIVHW,,,031,M,07.2,N,,*49
$IIVLW,01323,N,000.5,N*4D
$IIVWR,110,L,19.6,N,,,,*53
$IIDPT,012.5,-1.0,*40
$IIHDG,032,,,,*4B
$IIMTW,+21.0,C*4E
$IIMWV,250,R,19.5,N,A*4C
$IIMWV,233,T,23.0,N,A*4C
$IIVHW,,,032,M,07.1,N,,*49
$IIVLW,01323,N,000.5,N*4D
$IIVWR,110,L,19.5,N,,,,*53
$IIDPT,012.4,-1.0,*40
$IIHDG,033,,,,*4B
$IIMTW,+21.0,C*4E
$IIMWV,248,R,19.1,N,A*4C
$IIMWV,233,T,22.9,N,A*4C
$IIVHW,,,033,M,07.1,N,,*49
$IIVLW,01323,N,000.5,N*4D
$IIVWR,112,L,19.1,N,,,,*53
$IIDPT,012.4,-1.0,*40
$IIRMB,A,2.00,R,,VIDY,,,,,003.16,281,,V,A*66
$IIMTW,+21.0,C*4E
$IIMWV,246,R,17.9,N,A*4C
$IIMWV,232,T,22.6,N,A*4C
$IIVHW,,,035,M,07.0,N,,*49
$IIVLW,01323,N,000.5,N*4D
$IIVWR,114,L,17.9,N,,,,*53
$IIDPT,012.4,-1.0,*40
$IIHDG,037,,,,*4B
$IIMTW,+21.0,C*4E
$IIMWV,245,R,16.8,N,A*4C
$IIMWV,228,T,21.6,N,A*4C
$IIVHW,,,037,M,07.1,N,,*49
$IIVLW,01323,N,000.5,N*4D
$IIVWR,115,L,16.8,N,,,,*53
$IIDPT,012.4,-1.0,*40
$IIHDG,039,,,,*4B
$IIMTW,+20.5,C*4E
$IIMWV,245,R,17.0,N,A*4C
$IIMWV,227,T,20.7,N,A*4C
$IIVHW,,,039,M,07.1,N,,*49
$IIVLW,01323,N,000.5,N*4D
$IIVWR,115,L,17.0,N,,,,*53
$IIDPT,012.4,-1.0,*40
$IIRMB,A,3.00,R,,VIDY,,,,,003.16,281,,V,A*67
$IIMTW,+21.0,C*4E
$IIMWV,245,R,16.9,N,A*4C
$IIMWV,227,T,21.0,N,A*4C
$IIVHW,,,038,M,07.2,N,,*49
$IIVLW,01323,N,000.5,N*4D
$IIVWR,115,L,16.9,N,,,,*53
$IIDPT,012.4,-1.0,*40
$IIHDG,038,,,,*4B
$IIMTW,+21.0,C*4E
$IIMWV,245,R,16.5,N,A*4C
$IIMWV,227,T,20.9,N,A*4C
$IIVHW,,,038,M,07.3,N,,*49
$IIVLW,01323,N,000.5,N*4D
$IIVWR,115,L,16.5,N,,,,*53
$IIDPT,012.4,-1.0,*40
$IIHDG,038,,,,*4B
$IIMTW,+18.0,C*4E
$IIMWV,246,R,17.7,N,A*4C
$IIMWV,226,T,20.7,N,A*4C
$IIVHW,,,038,M,07.4,N,,*49
$IIVLW,01323,N,000.5,N*4D
$IIVWR,114,L,17.7,N,,,,*53
$IIDPT,012.4,-1.0,*40
$IIRMB,A,4.00,R,,VIDY,,,,,003.16,281,,V,A*60
$IIMTW,+21.0,C*4E
$IIMWV,245,R,18.3,N,A*4C
$IIMWV,228,T,21.7,N,A*4C
$IIVHW,,,037,M,07.3,N,,*49
$IIVLW,01323,N,000.5,N*4D
$IIVWR,115,L,18.3,N,,,,*53
$IIDPT,012.4,-1.0,*40
$IIHDG,039,,,,*4B
$IIMTW,+21.0,C*4E
$IIMWV,242,R,18.7,N,A*4C
$IIMWV,228,T,22.3,N,A*4C
$IIVHW,,,039,M,07.3,N,,*49
