$IIRMB,A,1.00,R,,VIDY,,,,,003.16,281,,V,A*65
$IIRMB,A,2.00,R,,VIDY,,,,,003.16,281,,V,A*66
$IIRMB,A,3.00,R,,VIDY,,,,,003.16,281,,V,A*67
$IIRMB,A,4.00,R,,VIDY,,,,,003.16,281,,V,A*60
$IIRMB,A,5.00,R,,VIDY,,,,,003.16,281,,V,A*61
$IIRMB,A,6.00,R,,VIDY,,,,,003.16,281,,V,A*62
$IIRMB,A,7.00,R,,VIDY,,,,,003.16,281,,V,A*63
$IIRMB,A,8.00,R,,VIDY,,,,,003.16,281,,V,A*6C
$IIRMB,A,9.00,R,,VIDY,,,,,003.16,281,,V,A*6D
$IIHDG,063,,,,*4B
$IIMWV,080,R,00.3,N,A*4C
$IIVHW,,,063,M,,,,*49
$IIVWR,080,R,00.3,N,,,,*53
$IIRMB,A,0.00,R,,VIDY,,,,,003.16,281,,V,A*64
$IIHDG,062,,,,*4B
$IIMTW,+00.0,C*4E
$IIMWV,108,R,00.1,N,A*4C
$IIVHW,,,062,M,00.0,N,,*49
$IIVLW,01318,N,000.0,N*4D
$IIVWR,108,R,00.1,N,,,,*53
$IIHDG,062,,,,*4B
$IIMTW,+20.5,C*4E
$IIMWV,188,R,00.0,N,A*4C
$IIMWV,108,T,00.1,N,A*4C
$IIVHW,,,062,M,00.0,N,,*49
$IIVLW,01318,N,000.0,N*4D
$IIVWR,172,L,00.0,N,,,,*53
$IIHDG,063,,,,*4B
$IIMTW,+20.5,C*4E
$IIMWV,207,R,00.0,N,A*4C
$IIMWV,188,T,00.0,N,A*4C
$IIVHW,,,063,M,00.0,N,,*49
$IIVLW,01318,N,000.0,N*4D
$IIVWR,153,L,00.0,N,,,,*53
$IIDPT,002.6,-1.0,*40
$IIRMB,A,1.00,R,,VIDY,,,,,003.16,281,,V,A*65
$IIHDG,063,,,,*4B
$IIMTW,+20.5,C*4E
$IIMWV,196,R,00.0,N,A*4C
$IIMWV,207,T,00.0,N,A*4C
$IIVHW,,,063,M,00.0,N,,*49
$IIVLW,01318,N,000.0,N*4D
$IIVWR,164,L,00.0,N,,,,*53
$IIDPT,002.6,-1.0,*40
$IIHDG,062,,,,*4B
$IIMTW,+20.5,C*4E
$IIMWV,206,R,00.0,N,A*4C
$IIMWV,196,T,00.0,N,A*4C
$IIVHW,,,062,M,00.0,N,,*49
$IIVLW,01318,N,000.0,N*4D
$IIVWR,154,L,00.0,N,,,,*53
$IIDPT,002.6,-1.0,*40
$IIRMB,A,2.00,R,,VIDY,,,,,003.16,281,,V,A*66
$IIHDG,062,,,,*4B
$IIMTW,+20.5,C*4E
$IIMWV,220,R,00.0,N,A*4C
$IIMWV,206,T,00.0,N,A*4C
$IIVHW,,,062,M,00.0,N,,*49
$IIVLW,01318,N,000.0,N*4D
$IIVWR,140,L,00.0,N,,,,*53
$IIDPT,002.6,-1.0,*40
$IIHDG,062,,,,*4B
$IIMTW,+20.5,C*4E
$IIMWV,224,R,01.0,N,A*4C
$IIMWV,220,T,00.0,N,A*4C
$IIVHW,,,061,M,00.0,N,,*49
$IIVLW,01318,N,000.0,N*4D
$IIVWR,135,L,02.2,N,,,,*53
$IIDPT,002.6,-1.0,*40
$IIHDG,061,,,,*4B
$IIMTW,+20.5,C*4E
$IIMWV,225,R,02.2,N,A*4C
$IIMWV,224,T,01.0,N,A*4C
$IIVHW,,,061,M,00.0,N,,*49
$IIVLW,01318,N,000.0,N*4D
$IIVWR,137,L,02.9,N,,,,*53
$IIDPT,002.6,-1.0,*40
$IIHDG,061,,,,*4B
$IIMTW,+20.5,C*4E
$IIMWV,223,R,02.9,N,A*4C
$IIMWV,225,T,02.2,N,A*4C
$IIRMB,A,3.00,R,,VIDY,,,,,003.16,281,,V,A*67
$IIVHW,,,061,M,00.0,N,,*49
$IIVLW,01318,N,000.0,N*4D
$IIVWR,127,L,03.4,N,,,,*53
$IIDPT,002.6,-1.0,*40
$IIHDG,061,,,,*4B
$IIMTW,+20.5,C*4E
$IIMWV,233,R,03.4,N,A*4C
$IIMWV,223,T,02.9,N,A*4C
$IIVHW,,,061,M,00.0,N,,*49
$IIVLW,01318,N,000.0,N*4D
$IIVWR,109,L,03.5,N,,,,*53
$IIDPT,002.6,-1.0,*40
$IIHDG,061,,,,*4B
$IIMTW,+20.5,C*4E
$IIMWV,251,R,03.5,N,A*4C
$IIMWV,233,T,03.4,N,A*4C
$IIVHW,,,062,M,00.0,N,,*49
$IIVLW,01318,N,000.0,N*4D
$IIVWR,126,L,04.6,N,,,,*53
$IIDPT,002.6,-1.0,*40
$IIHDG,062,,,,*4B
$IIMTW,+20.5,C*4E
$IIMWV,234,R,04.6,N,A*4C
$IIMWV,251,T,03.5,N,A*4C
$IIRMB,A,4.00,R,,VIDY,,,,,003.16,281,,V,A*60
$IIVHW,,,063,M,00.0,N,,*49
$IIVLW,01318,N,000.0,N*4D
$IIVWR,118,L,05.1,N,,,,*53
$IIDPT,002.6,-1.0,*40
$IIHDG,063,,,,*4B
$IIMTW,+20.5,C*4E
$IIMWV,242,R,05.1,N,A*4C
$IIMWV,234,T,04.6,N,A*4C
$IIVHW,,,062,M,00.0,N,,*49
$IIVLW,01318,N,000.0,N*4D
$IIVWR,119,L,04.8,N,,,,*53
$IIDPT,002.6,-1.0,*40
$IIHDG,062,,,,*4B
$IIMTW,+20.5,C*4E
$IIRMB,A,5.00,R,,VIDY,,,,,003.16,281,,V,A*61
$IIRMB,A,5.00,R,,VIDY,,,,,003.16,281,,V,A*5D
$IIRMB,A,5.00,R,,VIDY,,,,,003.16,281,,V,A*5D
$IIRMB,A,5.00,R,,VIDY,,,,,003.16,281,,V,A*5D
$IIRMB,A,5.00,R,,VIDY,,,,,003.16,281,,V,A*5D
$IIRMB,A,5.00,R,,VIDY,,,,,003.16,281,,V,A*5D
$IIRMB,A,5.00,R,,VIDY,,,,,003.16,281,,V,A*5D
$IIRMB,A,5.00,R,,VIDY,,,,,003.16,281,,V,A*5D
$IIRMB,A,5.00,R,,VIDY,,,,,003.16,281,,V,A*5D
$IIRMB,A,5.00,R,,VIDY,,,,,003.16,281,,V,A*5D
$IIRMB,A,5.00,R,,VIDY,,,,,003.16,281,,V,A*5D
$IIRMB,A,5.00,R,,VIDY,,,,,003.16,281,,V,A*5D
$IIRMB,A,5.00,R,,VIDY,,,,,003.16,281,,V,A*5D
$IIRMB,A,5.00,R,,VIDY,,,,,003.16,281,,V,A*5D
$IIRMB,A,5.00,R,,VIDY,,,,,003.16,281,,V,A*5D
$IIRMB,A,5.00,R,,VIDY,,,,,003.16,281,,V,A*5D
$IIRMB,A,5.00,R,,VIDY,,,,,003.16,281,,V,A*5D
$IIRMB,A,5.00,R,,VIDY,,,,,003.16,281,,V,A*5D
$IIRMB,A,5.00,R,,VIDY,,,,,003.16,281,,V,A*5D
$IIRMB,A,5.00,R,,VIDY,,,,,003.16,281,,V,A*5D
$IIRMB,A,5.00,R,,VIDY,,,,,003.16,281,,V,A*5D
$IIRMB,A,5.00,R,,VIDY,,,,,003.16,281,,V,A*5D
$IIRMB,A,5.00,R,,VIDY,,,,,003.16,281,,V,A*5D
$IIRMB,A,5.00,R,,VIDY,,,,,003.16,281,,V,A*5D
$IIRMB,A,5.00,R,,VIDY,,,,,003.16,281,,V,A*5D
$IIRMB,A,5.00,R,,VIDY,,,,,003.16,281,,V,A*5D
$IIRMB,A,5.00,R,,VIDY,,,,,003.16,281,,V,A*5D
$IIRMB,A,5.00,R,,VIDY,,,,,003.16,281,,V,A*5D
$IIRMB,A,5.00,R,,VIDY,,,,,003.16,281,,V,A*5D
$IIRMB,A,5.00,R,,VIDY,,,,,003.16,281,,V,A*5D
$IIRMB,A,5.00,R,,VIDY,,,,,003.16,281,,V,A*5D
$IIRMB,A,5.00,R,,VIDY,,,,,003.16,281,,V,A*5D
$IIRMB,A,6.00,R,,VIDY,,,,,003.16,281,,V,A*62
$IIRMB,A,5.00,R,,VIDY,,,,,003.16,281,,V,A*5D
$IIRMB,A,6.00,R,,VIDY,,,,,003.16,281,,V,A*5D
$IIRMB,A,5.00,R,,VIDY,,,,,003.16,281,,V,A*5D
$IIRMB,A,6.00,R,,VIDY,,,,,003.16,281,,V,A*5D
$IIRMB,A,5.00,R,,VIDY,,,,,003.16,281,,V,A*5D
$IIRMB,A,6.00,R,,VIDY,,,,,003.16,281,,V,A*5D
$IIRMB,A,5.00,R,,VIDY,,,,,003.16,281,,V,A*5D
$IIRMB,A,6.00,R,,VIDY,,,,,003.16,281,,V,A*5D
$IIRMB,A,5.00,R,,VIDY,,,,,003.16,281,,V,A*5D
$IIRMB,A,6.00,R,,VIDY,,,,,003.16,281,,V,A*5D
$IIRMB,A,5.00,R,,VIDY,,,,,003.16,281,,V,A*5D
$IIRMB,A,6.00,R,,VIDY,,,,,003.16,281,,V,A*5D
$IIRMB,A,5.00,R,,VIDY,,,,,003.16,281,,V,A*5D
$IIRMB,A,6.00,R,,VIDY,,,,,003.16,281,,V,A*5D
$IIRMB,A,5.00,R,,VIDY,,,,,003.16,281,,V,A*5D
$IIRMB,A,6.00,R,,VIDY,,,,,003.16,281,,V,A*5D
$IIRMB,A,5.00,R,,VIDY,,,,,003.16,281,,V,A*5D
$IIRMB,A,6.00,R,,VIDY,,,,,003.16,281,,V,A*5D
$IIRMB,A,5.00,R,,VIDY,,,,,003.16,281,,V,A*5D
$IIRMB,A,6.00,R,,VIDY,,,,,003.16,281,,V,A*5D
$IIRMB,A,5.00,R,,VIDY,,,,,003.16,281,,V,A*5D
$IIRMB,A,6.00,R,,VIDY,,,,,003.16,281,,V,A*5D
$IIRMB,A,5.00,R,,VIDY,,,,,003.16,281,,V,A*5D
$IIRMB,A,6.00,R,,VIDY,,,,,003.16,281,,V,A*5D
$IIRMB,A,5.00,R,,VIDY,,,,,003.16,281,,V,A*5D
$IIRMB,A,6.00,R,,VIDY,,,,,003.16,281,,V,A*5D
$IIRMB,A,5.00,R,,VIDY,,,,,003.16,281,,V,A*5D
$IIRMB,A,6.00,R,,VIDY,,,,,003.16,281,,V,A*5D
$IIRMB,A,5.00,R,,VIDY,,,,,003.16,281,,V,A*5D
$IIRMB,A,6.00,R,,VIDY,,,,,003.16,281,,V,A*5D
$IIRMB,A,5.00,R,,VIDY,,,,,003.16,281,,V,A*5D
$IIRMB,A,6.00,R,,VIDY,,,,,003.16,281,,V,A*5D
$IIRMB,A,5.00,R,,VIDY,,,,,003.16,281,,V,A*5D
$IIRMB,A,6.00,R,,VIDY,,,,,003.16,281,,V,A*5D
$IIRMB,A,5.00,R,,VIDY,,,,,003.16,281,,V,A*5D
$IIRMB,A,6.00,R,,VIDY,,,,,003.16,281,,V,A*5D
$IIRMB,A,5.00,R,,VIDY,,,,,003.16,281,,V,A*5D
$IIRMB,A,6.00,R,,VIDY,,,,,003.16,281,,V,A*5D
$IIRMB,A,5.00,R,,VIDY,,,,,003.16,281,,V,A*5D
$IIRMB,A,6.00,R,,VIDY,,,,,003.16,281,,V,A*5D
$IIRMB,A,5.00,R,,VIDY,,,,,003.16,281,,V,A*5D
$IIRMB,A,6.00,R,,VIDY,,,,,003.16,281,,V,A*5D
$IIRMB,A,5.00,R,,VIDY,,,,,003.16,281,,V,A*5D
$IIRMB,A,6.00,R,,VIDY,,,,,003.16,281,,V,A*5D
$IIRMB,A,5.00,R,,VIDY,,,,,003.16,281,,V,A*5D
$IIRMB,A,6.00,R,,VIDY,,,,,003.16,281,,V,A*5D
$IIRMB,A,5.00,R,,VIDY,,,,,003.16,281,,V,A*5D
$IIRMB,A,6.00,R,,VIDY,,,,,003.16,281,,V,A*5D
$IIRMB,A,5.00,R,,VIDY,,,,,003.16,281,,V,A*5D
$IIRMB,A,6.00,R,,VIDY,,,,,003.16,281,,V,A*5D
$IIRMB,A,5.00,R,,VIDY,,,,,003.16,281,,V,A*5D
$IIRMB,A,6.00,R,,VIDY,,,,,003.16,281,,V,A*5D
$IIRMB,A,5.00,R,,VIDY,,,,,003.16,281,,V,A*5D
$IIRMB,A,6.00,R,,VIDY,,,,,003.16,281,,V,A*5D
$IIRMB,A,5.00,R,,VIDY,,,,,003.16,281,,V,A*5D
$IIRMB,A,6.00,R,,VIDY,,,,,003.16,281,,V,A*5D
$IIRMB,A,5.00,R,,VIDY,,,,,003.16,281,,V,A*5D
$IIRMB,A,6.00,R,,VIDY,,,,,003.16,281,,V,A*5D
$IIRMB,A,5.00,R,,VIDY,,,,,003.16,281,,V,A*5D
$IIMWV,225,T,08.8,N,A*4C
$IIRMB,A,7.00,R,,VIDY,,,,,003.16,281,,V,A*63
$IIVHW,,,060,M,00.0,N,,*49
$IIVLW,01318,N,000.0,N*4D
$IIVWR,138,L,10.1,N,,,,*53
$IIDPT,002.6,-1.0,*40
$IIHDG,060,,,,*4B
$IIMTW,+20.5,C*4E
$IIMWV,222,R,10.1,N,A*4C
$IIMWV,000,T,00.0,N,A*4C
$IIVHW,,,060,M,00.0,N,,*49
$IIVLW,01318,N,000.0,N*4D
$IIVWR,137,L,09.4,N,,,,*53
$IIDPT,002.6,-1.0,*40
$IIHDG,060,,,,*4B
$IIMTW,+20.5,C*4E
$IIMWV,223,R,09.4,N,A*4C
$IIMWV,222,T,10.1,N,A*4C
$IIVHW,,,060,M,00.0,N,,*49
$IIVLW,01318,N,000.0,N*4D
$IIVWR,127,L,08.4,N,,,,*53
$IIDPT,002.6,-1.0,*40
$IIHDG,060,,,,*4B
$IIMTW,+20.5,C*4E
$IIMWV,233,R,08.4,N,A*4C
$IIMWV,223,T,09.4,N,A*4C
$IIRMB,A,8.00,R,,VIDY,,,,,003.16,281,,V,A*6C
$IIVHW,,,061,M,00.0,N,,*49
$IIVLW,01318,N,000.0,N*4D
$IIVWR,114,L,07.0,N,,,,*53
$IIDPT,002.6,-1.0,*40
$IIHDG,061,,,,*4B
$IIMTW,+20.5,C*4E
$IIMWV,246,R,07.0,N,A*4C
$IIMWV,233,T,08.4,N,A*4C
$IIVHW,,,061,M,00.0,N,,*49
$IIVLW,01318,N,000.0,N*4D
$IIVWR,103,L,06.3,N,,,,*53
$IIDPT,002.6,-1.0,*40
$IIHDG,061,,,,*4B
$IIMTW,+20.5,C*4E
$IIMWV,257,R,06.3,N,A*4C
$IIMWV,246,T,07.0,N,A*4C
$IIVHW,,,060,M,00.0,N,,*49
$IIVLW,01318,N,000.0,N*4D
$IIVWR,105,L,06.4,N,,,,*53
$IIDPT,002.6,-1.0,*40
$IIHDG,060,,,,*4B
$IIMTW,+20.5,C*4E
$IIMWV,255,R,06.4,N,A*4C
$IIMWV,257,T,06.3,N,A*4C
$IIRMB,A,9.00,R,,VIDY,,,,,003.16,281,,V,A*6D
$IIVHW,,,060,M,00.0,N,,*49
$IIVLW,01318,N,000.0,N*4D
$IIVWR,102,L,06.9,N,,,,*53
$IIDPT,002.6,-1.0,*40
$IIHDG,060,,,,*4B
$IIMTW,+20.5,C*4E
$IIMWV,258,R,06.9,N,A*4C
$IIMWV,255,T,06.4,N,A*4C
$IIVHW,,,060,M,00.0,N,,*49
$IIVLW,01318,N,000.0,N*4D
$IIVWR,106,L,07.2,N,,,,*53
$IIDPT,002.6,-1.0,*40
$IIHDG,060,,,,*4B
$IIMTW,+20.5,C*4E
$IIMWV,254,R,07.2,N,A*4C
$IIMWV,258,T,06.9,N,A*4C
$IIVHW,,,060,M,00.0,N,,*49
$IIVLW,01318,N,000.0,N*4D
$IIVWR,117,L,07.3,N,,,,*53
$IIDPT,002.6,-1.0,*40
$IIHDG,060,,,,*4B
$IIMTW,+20.5,C*4E
$IIMWV,243,R,07.3,N,A*4C
$IIMWV,254,T,07.2,N,A*4C
$IIRMB,A,0.00,R,,VIDY,,,,,003.16,281,,V,A*64
$IIVHW,,,060,M,00.0,N,,*49
$IIVLW,01318,N,000.0,N*4D
$IIVWR,122,L,07.4,N,,,,*53
$IIDPT,002.6,-1.0,*40
$IIHDG,060,,,,*4B
$IIMTW,+20.5,C*4E
$IIMWV,238,R,07.4,N,A*4C
$IIMWV,243,T,07.3,N,A*4C
$IIVHW,,,060,M,00.0,N,,*49
$IIVLW,01318,N,000.0,N*4D
$IIVWR,000,R,00.0,N,,,,*53
$IIDPT,002.6,-1.0,*40
$IIHDG,060,,,,*4B
$IIMTW,+20.5,C*4E
$IIMWV,000,R,00.0,N,A*4C
$IIMWV,238,T,07.4,N,A*4C
$IIVHW,,,060,M,00.0,N,,*49
$IIVLW,01318,N,000.0,N*4D
$IIVWR,117,L,06.9,N,,,,*53
$IIDPT,002.6,-1.0,*40
$IIHDG,060,,,,*4B
$IIMTW,+20.5,C*4E
$IIMWV,243,R,06.9,N,A*4C
$IIMWV,000,T,00.0,N,A*4C
$IIRMB,A,1.00,R,,VIDY,,,,,003.16,281,,V,A*65
$IIVHW,,,060,M,00.0,N,,*49
$IIVLW,01318,N,000.0,N*4D
$IIVWR,111,L,06.3,N,,,,*53
$IIDPT,002.6,-1.0,*40
$IIHDG,060,,,,*4B
$IIMTW,+20.5,C*4E
$IIMWV,249,R,06.3,N,A*4C
$IIMWV,243,T,06.9,N,A*4C
$IIVHW,,,060,M,00.0,N,,*49
$IIVLW,01318,N,000.0,N*4D
$IIVWR,130,L,07.0,N,,,,*53
$IIDPT,002.6,-1.0,*40
$IIHDG,060,,,,*4B
$IIMTW,+20.5,C*4E
$IIMWV,230,R,07.0,N,A*4C
$IIMWV,249,T,06.3,N,A*4C
$IIVHW,,,060,M,00.0,N,,*49
$IIVLW,01318,N,000.0,N*4D
$IIVWR,125,L,06.3,N,,,,*53
$IIDPT,002.6,-1.0,*40
$IIHDG,060,,,,*4B
$IIMTW,+20.5,C*4E
$IIMWV,235,R,06.3,N,A*4C
$IIMWV,230,T,07.0,N,A*4C
$IIRMB,A,2.00,R,,VIDY,,,,,003.16,281,,V,A*66
$IIVHW,,,060,M,00.0,N,,*49
$IIVLW,01318,N,000.0,N*4D
$IIVWR,000,R,00.0,N,,,,*53
$IIDPT,002.6,-1.0,*40
$IIHDG,060,,,,*4B
$IIMTW,+20.5,C*4E
$IIMWV,000,R,00.0,N,A*4C
$IIMWV,235,T,06.3,N,A*4C
$IIVHW,,,060,M,00.0,N,,*49
$IIVLW,01318,N,000.0,N*4D
$IIVWR,131,L,06.4,N,,,,*53
$IIDPT,002.6,-1.0,*40
$IIHDG,060,,,,*4B
$IIMTW,+20.5,C*4E
$IIMWV,229,R,06.4,N,A*4C
$IIMWV,000,T,00.0,N,A*4C
$IIVHW,,,060,M,00.0,N,,*49
$IIVLW,01318,N,000.0,N*4D
$IIVWR,127,L,06.6,N,,,,*53
$IIDPT,002.6,-1.0,*40
$IIHDG,060,,,,*4B
$IIMTW,+20.5,C*4E
$IIMWV,233,R,06.6,N,A*4C
$IIMWV,229,T,06.4,N,A*4C
$IIRMB,A,3.00,R,,VIDY,,,,,003.16,281,,V,A*67
$IIRMC,091405,A,5450.266,N,00931.365,E,00.4,008,310713,,,A*5C
$IIVHW,,,061,M,00.0,N,,*49
$IIVLW,01318,N,000.0,N*4D
$IIVWR,127,L,06.1,N,,,,*53
$IIDPT,002.6,-1.0,*40
$IIGLL,5450.266,N,00931.365,E,091405,A,A*47
$IIHDG,061,,,,*4B
$IIMTW,+20.5,C*4E
$IIMWV,233,R,06.1,N,A*4C
$IIMWV,233,T,06.1,N,A*4C
$IIRMC,091406,A,5450.266,N,00931.364,E,00.3,006,310713,,,A*5C
$IIVHW,,,061,M,00.0,N,,*49
$IIVLW,01318,N,000.0,N*4D
$IIVWR,129,L,05.7,N,,,,*53
$IIDPT,002.6,-1.0,*40
$IIGLL,5450.266,N,00931.364,E,091406,A,A*47
$IIHDG,061,,,,*4B
$IIMTW,+20.5,C*4E
$IIMWV,224,R,06.3,N,A*4C
$IIMWV,231,T,05.7,N,A*4C
$IIRMC,091407,A,5450.267,N,00931.370,E,00.2,008,310713,,,A*5C
$IIVHW,,,061,M,00.0,N,,*49
$IIVLW,01318,N,000.0,N*4D
$IIVWR,136,L,06.3,N,,,,*53
$IIDPT,002.6,-1.0,*40
$IIRMB,A,4.00,R,,VIDY,,,,,003.16,281,,V,A*60
$IIGLL,5450.267,N,00931.370,E,091407,A,A*47
$IIHDG,061,,,,*4B
$IIMTW,+20.0,C*4E
$IIMWV,212,R,05.1,N,A*4C
$IIMWV,224,T,06.3,N,A*4C
$IIRMC,091408,A,5450.267,N,00931.371,E,00.2,008,310713,,,A*5C
$IIVHW,,,060,M,00.0,N,,*49
$IIVLW,01318,N,000.0,N*4D
$IIVWR,148,L,05.1,N,,,,*53
$IIDPT,002.6,-1.0,*40
$IIGLL,5450.267,N,00931.371,E,091408,A,A*47
$IIHDG,060,,,,*4B
$IIMTW,+20.0,C*4E
$IIMWV,210,R,04.9,N,A*4C
$IIMWV,212,T,05.1,N,A*4C
$IIRMC,091409,A,5450.268,N,00931.373,E,00.2,008,310713,,,A*5C
$IIVHW,,,060,M,00.0,N,,*49
$IIVLW,01318,N,000.0,N*4D
$IIVWR,150,L,04.9,N,,,,*53
$IIDPT,002.6,-1.0,*40
$IIGLL,5450.268,N,00931.373,E,091410,A,A*47
$IIHDG,060,,,,*4B
$IIMTW,+20.5,C*4E
$IIMWV,221,R,04.2,N,A*4C
$IIMWV,210,T,04.9,N,A*4C
$IIRMC,091410,A,5450.268,N,00931.373,E,00.2,008,310713,,,A*5C
$IIRMB,A,5.00,R,,VIDY,,,,,003.16,281,,V,A*61
$IIVLW,01318,N,000.0,N*4D
$IIVWR,139,L,04.2,N,,,,*53
$IIDPT,002.6,-1.0,*40
$IIGLL,5450.268,N,00931.374,E,091411,A,A*47
$IIHDG,060,,,,*4B
$IIMTW,+20.5,C*4E
$IIMWV,213,R,03.8,N,A*4C
$IIMWV,221,T,04.2,N,A*4C
$IIRMC,091411,A,5450.268,N,00931.374,E,00.2,008,310713,,,A*5C
$IIVHW,,,060,M,00.0,N,,*49
$IIVLW,01318,N,000.0,N*4D
$IIVWR,161,L,03.2,N,,,,*53
$IIDPT,002.6,-1.0,*40
$IIGLL,5450.268,N,00931.374,E,091412,A,A*47
$IIHDG,061,,,,*4B
$IIMTW,+20.5,C*4E
$IIMWV,199,R,03.2,N,A*4C
$IIMWV,213,T,03.8,N,A*4C
$IIRMC,091412,A,5450.268,N,00931.374,E,00.3,002,310713,,,A*5C
$IIVHW,,,061,M,00.0,N,,*49
$IIVLW,01318,N,000.0,N*4D
$IIVWR,154,L,03.2,N,,,,*53
$IIDPT,002.6,-1.0,*40
$IIGLL,5450.268,N,00931.375,E,091413,A,A*47
$IIHDG,061,,,,*4B
$IIMTW,+20.5,C*4E
$IIMWV,206,R,03.2,N,A*4C
$IIMWV,199,T,03.2,N,A*4C
$IIRMB,A,6.00,R,,VIDY,,,,,003.16,281,,V,A*62
$IIVHW,,,061,M,00.0,N,,*49
$IIVLW,01318,N,000.0,N*4D
$IIVWR,124,L,03.4,N,,,,*53
$IIDPT,002.6,-1.0,*40
$IIGLL,5450.268,N,00931.374,E,091414,A,A*47
$IIHDG,061,,,,*4B
$IIMTW,+20.5,C*4E
$IIMWV,236,R,03.4,N,A*4C
$IIMWV,206,T,03.2,N,A*4C
$IIRMC,091415,A,5450.268,N,00931.373,E,00.4,352,310713,,,A*5C
$IIVHW,,,061,M,00.0,N,,*49
$IIVLW,01318,N,000.0,N*4D
$IIVWR,147,L,03.0,N,,,,*53
$IIDPT,002.6,-1.0,*40
$IIGLL,5450.268,N,00931.373,E,091415,A,A*47
$IIHDG,061,,,,*4B
$IIMTW,+20.5,C*4E
$IIMWV,213,R,03.0,N,A*4C
$IIMWV,213,T,03.0,N,A*4C
$IIRMC,091416,A,5450.267,N,00931.373,E,00.5,346,310713,,,A*5C
$IIVHW,,,061,M,00.0,N,,*49
$IIVLW,01318,N,000.0,N*4D
$IIVWR,169,L,03.1,N,,,,*53
$IIDPT,002.6,-1.0,*40
$IIRMB,A,7.00,R,,VIDY,,,,,003.16,281,,V,A*63
$IIHDG,061,,,,*4B
$IIMTW,+20.5,C*4E
$IIMWV,212,R,03.2,N,A*4C
$IIMWV,191,T,03.1,N,A*4C
$IIRMC,091417,A,5450.268,N,00931.374,E,00.6,344,310713,,,A*5C
$IIVHW,,,060,M,00.0,N,,*49
$IIVLW,01318,N,000.0,N*4D
$IIVWR,148,L,03.2,N,,,,*53
$IIDPT,002.6,-1.0,*40
$IIGLL,5450.268,N,00931.374,E,091417,A,A*47
$IIHDG,060,,,,*4B
$IIMTW,+20.5,C*4E
$IIMWV,220,R,03.4,N,A*4C
$IIMWV,212,T,03.2,N,A*4C
$IIRMC,091418,A,5450.267,N,00931.373,E,00.4,344,310713,,,A*5C
$IIVHW,,,061,M,00.0,N,,*49
$IIVLW,01318,N,000.0,N*4D
$IIVWR,140,L,03.4,N,,,,*53
$IIDPT,002.6,-1.0,*40
$IIGLL,5450.267,N,00931.373,E,091418,A,A*47
$IIRMB,A,8.00,R,,VIDY,,,,,003.16,281,,V,A*6C
$IIHDG,061,,,,*4B
$IIMTW,+20.5,C*4E
$IIMWV,214,R,03.8,N,A*4C
$IIMWV,220,T,03.4,N,A*4C
$IIRMC,091419,A,5450.267,N,00931.374,E,00.2,350,310713,,,A*5C
$IIVHW,,,061,M,00.0,N,,*49
$IIVLW,01318,N,000.0,N*4D
$IIVWR,146,L,03.8,N,,,,*53
$IIDPT,002.6,-1.0,*40
$IIGLL,5450.267,N,00931.373,E,091421,A,A*47
$IIHDG,061,,,,*4B
$IIMTW,+20.5,C*4E
$IIMWV,207,R,03.9,N,A*4C
$IIMWV,198,T,03.7,N,A*4C
$IIRMC,091421,A,5450.267,N,00931.373,E,00.2,333,310713,,,A*5C
$IIVHW,,,061,M,00.0,N,,*49
$IIVLW,01318,N,000.0,N*4D
$IIVWR,153,L,03.9,N,,,,*53
$IIDPT,002.6,-1.0,*40
$IIGLL,5450.267,N,00931.373,E,091422,A,A*47
$IIHDG,060,,,,*4B
$IIMTW,+20.5,C*4E
$IIMWV,176,R,03.8,N,A*4C
$IIMWV,207,T,03.9,N,A*4C
$IIRMB,A,9.00,R,,VIDY,,,,,003.16,281,,V,A*6D
$IIVHW,,,060,M,00.0,N,,*49
$IIVLW,01318,N,000.0,N*4D
$IIVWR,169,L,03.7,N,,,,*53
$IIDPT,002.6,-1.0,*40
$IIGLL,5450.267,N,00931.373,E,091423,A,A*47
$IIHDG,060,,,,*4B
$IIMTW,+20.5,C*4E
$IIMWV,191,R,03.7,N,A*4C
$IIMWV,176,T,03.8,N,A*4C
$IIRMC,091423,A,5450.267,N,00931.373,E,00.2,340,310713,,,A*5C
$IIVHW,,,060,M,00.0,N,,*49
$IIVLW,01318,N,000.0,N*4D
$IIVWR,176,L,03.3,N,,,,*53
$IIDPT,002.6,-1.0,*40
$IIGLL,5450.267,N,00931.373,E,091424,A,A*47
$IIHDG,060,,,,*4B
$IIMTW,+20.5,C*4E
$IIMWV,184,R,03.3,N,A*4C
$IIMWV,191,T,03.7,N,A*4C
$IIRMC,091424,A,5450.267,N,00931.373,E,00.2,346,310713,,,A*5C
$IIVHW,,,061,M,00.0,N,,*49
$IIVLW,01318,N,000.0,N*4D
$IIVWR,168,R,03.1,N,,,,*53
$IIDPT,002.6,-1.0,*40
$IIGLL,5450.267,N,00931.373,E,091425,A,A*47
$IIHDG,061,,,,*4B
$IIMTW,+20.5,C*4E
$IIMWV,168,R,03.1,N,A*4C
$IIRMB,A,0.00,R,,VIDY,,,,,003.16,281,,V,A*64
$IIRMC,091426,A,5450.266,N,00931.373,E,00.2,333,310713,,,A*5C
$IIVHW,,,061,M,00.0,N,,*49
$IIVLW,01318,N,000.0,N*4D
$IIVWR,158,R,02.3,N,,,,*53
$IIDPT,002.6,-1.0,*40
$IIGLL,5450.266,N,00931.373,E,091426,A,A*47
$IIHDG,061,,,,*4B
$IIMTW,+20.5,C*4E
$IIMWV,158,R,02.3,N,A*4C
$IIMWV,158,T,02.3,N,A*4C
$IIRMC,091427,A,5450.267,N,00931.373,E,00.3,338,310713,,,A*5C
$IIVHW,,,061,M,00.0,N,,*49
$IIVLW,01318,N,000.0,N*4D
$IIVWR,141,R,01.7,N,,,,*53
$IIDPT,002.6,-1.0,*40
$IIGLL,5450.267,N,00931.373,E,091427,A,A*47
$IIHDG,061,,,,*4B
$IIMTW,+20.5,C*4E
$IIMWV,116,R,01.3,N,A*4C
$IIMWV,141,T,01.7,N,A*4C
$IIRMC,091428,A,5450.267,N,00931.374,E,00.3,346,310713,,,A*5C
$IIVHW,,,061,M,00.0,N,,*49
$IIVLW,01318,N,000.0,N*4D
$IIVWR,116,R,01.3,N,,,,*53
$IIDPT,002.6,-1.0,*40
$IIRMB,A,1.00,R,,VIDY,,,,,003.16,281,,V,A*65
$IIGLL,5450.267,N,00931.374,E,091428,A,A*47
$IIHDG,061,,,,*4B
$IIMTW,+20.5,C*4E
$IIMWV,050,R,00.9,N,A*4C
$IIMWV,116,T,01.3,N,A*4C
$IIRMC,091429,A,5450.267,N,00931.374,E,00.2,339,310713,,,A*5C
$IIVHW,,,061,M,00.0,N,,*49
$IIVLW,01318,N,000.0,N*4D
$IIVWR,050,R,00.9,N,,,,*53
$IIDPT,002.6,-1.0,*40
$IIGLL,5450.267,N,00931.374,E,091429,A,A*47
$IIHDG,061,,,,*4B
$IIMTW,+20.5,C*4E
$IIMWV,289,R,00.9,N,A*4C
$IIMWV,050,T,00.9,N,A*4C
$IIRMC,091430,A,5450.267,N,00931.374,E,00.3,351,310713,,,A*5C
$IIVHW,,,061,M,00.0,N,,*49
$IIVLW,01318,N,000.0,N*4D
$IIVWR,071,L,00.9,N,,,,*53
$IIDPT,002.6,-1.0,*40
$IIGLL,5450.267,N,00931.374,E,091431,A,A*47
$IIHDG,061,,,,*4B
$IIMTW,+20.5,C*4E
$IIMWV,264,R,01.1,N,A*4C
$IIMWV,289,T,00.9,N,A*4C
$IIRMC,091431,A,5450.267,N,00931.374,E,00.3,351,310713,,,A*5C
$IIRMB,A,2.00,R,,VIDY,,,,,003.16,281,,V,A*66
$IIVLW,01318,N,000.0,N*4D
$IIVWR,096,L,01.1,N,,,,*53
$IIDPT,002.6,-1.0,*40
$IIGLL,5450.267,N,00931.374,E,091432,A,A*47
$IIHDG,062,,,,*4B
$IIMTW,+20.5,C*4E
$IIMWV,226,R,00.8,N,A*4C
$IIMWV,264,T,01.1,N,A*4C
$IIRMC,091432,A,5450.267,N,00931.374,E,00.4,349,310713,,,A*5C
$IIVHW,,,062,M,00.0,N,,*49
$IIVLW,01318,N,000.0,N*4D
$IIVWR,168,L,00.6,N,,,,*53
$IIDPT,002.6,-1.0,*40
$IIGLL,5450.268,N,00931.375,E,091433,A,A*47
$IIHDG,062,,,,*4B
$IIMTW,+20.5,C*4E
$IIMWV,192,R,00.6,N,A*4C
$IIMWV,226,T,00.8,N,A*4C
$IIRMC,091433,A,5450.268,N,00931.375,E,00.4,350,310713,,,A*5C
$IIVHW,,,062,M,00.0,N,,*49
$IIVLW,01318,N,000.0,N*4D
$IIVWR,127,L,00.4,N,,,,*53
$IIDPT,002.6,-1.0,*40
$IIGLL,5450.268,N,00931.375,E,091434,A,A*47
$IIHDG,061,,,,*4B
$IIMTW,+20.5,C*4E
$IIMWV,233,R,00.4,N,A*4C
$IIMWV,192,T,00.6,N,A*4C
$IIRMB,A,3.00,R,,VIDY,,,,,003.16,281,,V,A*67
$IIVHW,,,061,M,00.0,N,,*49
$IIVLW,01318,N,000.0,N*4D
$IIVWR,098,L,00.9,N,,,,*53
$IIDPT,002.6,-1.0,*40
$IIGLL,5450.268,N,00931.377,E,091435,A,A*47
$IIHDG,061,,,,*4B
$IIMTW,+20.5,C*4E
$IIMWV,262,R,00.9,N,A*4C
$IIMWV,233,T,00.4,N,A*4C
$IIRMC,091436,A,5450.268,N,00931.377,E,00.4,350,310713,,,A*5C
$IIVHW,,,060,M,00.0,N,,*49
$IIVLW,01318,N,000.0,N*4D
$IIVWR,100,L,01.3,N,,,,*53
$IIDPT,002.6,-1.0,*40
$IIGLL,5450.268,N,00931.377,E,091436,A,A*47
$IIHDG,060,,,,*4B
$IIMTW,+20.5,C*4E
$IIMWV,260,R,01.3,N,A*4C
$IIMWV,260,T,01.3,N,A*4C
$IIRMC,091437,A,5450.268,N,00931.377,E,00.7,354,310713,,,A*5C
$IIVHW,,,062,M,00.0,N,,*49
$IIVLW,01318,N,000.0,N*4D
$IIVWR,112,L,01.8,N,,,,*53
$IIDPT,002.6,-1.0,*40
$IIRMB,A,4.00,R,,VIDY,,,,,003.16,281,,V,A*60
$IIHDG,062,,,,*4B
$IIMTW,+20.5,C*4E
$IIMWV,238,R,02.6,N,A*4C
$IIMWV,248,T,01.8,N,A*4C
$IIRMC,091438,A,5450.268,N,00931.377,E,00.6,354,310713,,,A*5C
$IIVHW,,,062,M,00.0,N,,*49
$IIVLW,01318,N,000.0,N*4D
$IIVWR,122,L,02.6,N,,,,*53
$IIDPT,002.6,-1.0,*40
$IIGLL,5450.268,N,00931.377,E,091438,A,A*47
$IIHDG,062,,,,*4B
$IIMTW,+20.5,C*4E
$IIMWV,237,R,03.4,N,A*4C
$IIMWV,238,T,02.6,N,A*4C
$IIRMC,091439,A,5450.269,N,00931.376,E,00.3,356,310713,,,A*5C
$IIVHW,,,062,M,00.0,N,,*49
$IIVLW,01318,N,000.0,N*4D
$IIVWR,123,L,03.4,N,,,,*53
$IIDPT,002.6,-1.0,*40
$IIGLL,5450.269,N,00931.376,E,091439,A,A*47
$IIHDG,062,,,,*4B
$IIMTW,+20.5,C*4E
$IIMWV,238,R,04.3,N,A*4C
$IIMWV,237,T,03.4,N,A*4C
$IIRMC,091440,A,5450.268,N,00931.376,E,00.4,348,310713,,,A*5C
$IIVHW,,,062,M,00.0,N,,*49
$IIVLW,01318,N,000.0,N*4D
$IIRMB,A,5.00,R,,VIDY,,,,,003.16,281,,V,A*61
$IIDPT,002.6,-1.0,*40
$IIGLL,5450.268,N,00931.376,E,091441,A,A*47
$IIHDG,061,,,,*4B
$IIMTW,+20.5,C*4E
$IIMWV,235,R,04.7,N,A*4C
$IIMWV,238,T,04.3,N,A*4C
$IIRMC,091441,A,5450.268,N,00931.376,E,00.4,344,310713,,,A*5C
$IIVHW,,,061,M,00.0,N,,*49
$IIVLW,01318,N,000.0,N*4D
$IIVWR,125,L,04.7,N,,,,*53
$IIDPT,002.6,-1.0,*40
$IIGLL,5450.268,N,00931.376,E,091442,A,A*47
$IIHDG,062,,,,*4B
$IIMTW,+20.5,C*4E
$IIMWV,226,R,04.7,N,A*4C
$IIMWV,235,T,04.7,N,A*4C
$IIRMC,091442,A,5450.268,N,00931.376,E,00.3,340,310713,,,A*5C
$IIVHW,,,062,M,00.0,N,,*49
$IIVLW,01318,N,000.0,N*4D
$IIVWR,152,L,04.7,N,,,,*53
$IIDPT,002.6,-1.0,*40
$IIGLL,5450.269,N,00931.376,E,091443,A,A*47
$IIHDG,062,,,,*4B
$IIMTW,+20.5,C*4E
$IIMWV,208,R,04.7,N,A*4C
$IIMWV,226,T,04.7,N,A*4C
$IIRMB,A,6.00,R,,VIDY,,,,,003.16,281,,V,A*62
$IIVHW,,,062,M,00.0,N,,*49
$IIVLW,01318,N,000.0,N*4D
$IIVWR,154,L,04.7,N,,,,*53
$IIDPT,002.6,-1.0,*40
$IIGLL,5450.269,N,00931.376,E,091444,A,A*47
$IIHDG,062,,,,*4B
$IIMTW,+20.5,C*4E
$IIMWV,206,R,04.7,N,A*4C
$IIMWV,208,T,04.7,N,A*4C
$IIRMC,091444,A,5450.269,N,00931.376,E,00.2,344,310713,,,A*5C
$IIVHW,,,062,M,00.0,N,,*49
$IIVLW,01318,N,000.0,N*4D
$IIVWR,156,L,05.2,N,,,,*53
$IIDPT,002.6,-1.0,*40
$IIGLL,5450.269,N,00931.377,E,091445,A,A*47
$IIHDG,062,,,,*4B
$IIMTW,+20.5,C*4E
$IIMWV,204,R,05.2,N,A*4C
$IIMWV,206,T,04.7,N,A*4C
$IIRMC,091446,A,5450.269,N,00931.377,E,00.3,348,310713,,,A*5C
$IIVHW,,,062,M,00.0,N,,*49
$IIVLW,01318,N,000.0,N*4D
$IIVWR,160,L,05.9,N,,,,*53
$IIDPT,002.6,-1.0,*40
$IIGLL,5450.269,N,00931.377,E,091446,A,A*47
$IIRMB,A,7.00,R,,VIDY,,,,,003.16,281,,V,A*63
$IIMTW,+20.5,C*4E
$IIMWV,200,R,05.9,N,A*4C
$IIMWV,200,T,05.9,N,A*4C
$IIRMC,091447,A,5450.269,N,00931.378,E,00.2,348,310713,,,A*5C
$IIVHW,,,063,M,00.0,N,,*49
$IIVLW,01318,N,000.0,N*4D
$IIVWR,169,L,06.4,N,,,,*53
$IIDPT,002.6,-1.0,*40
$IIGLL,5450.269,N,00931.378,E,091447,A,A*47
$IIHDG,063,,,,*4B
$IIMTW,+20.5,C*4E
$IIMWV,195,R,06.8,N,A*4C
$IIMWV,191,T,06.4,N,A*4C
$IIRMC,091448,A,5450.269,N,00931.378,E,00.5,337,310713,,,A*5C
$IIVHW,,,063,M,00.0,N,,*49
$IIVLW,01318,N,000.0,N*4D
$IIVWR,165,L,06.8,N,,,,*53
$IIDPT,002.6,-1.0,*40
$IIGLL,5450.269,N,00931.378,E,091448,A,A*47
$IIHDG,063,,,,*4B
$IIMTW,+20.5,C*4E
$IIMWV,206,R,06.8,N,A*4C
$IIMWV,195,T,06.8,N,A*4C
$IIRMC,091449,A,5450.269,N,00931.379,E,00.5,337,310713,,,A*5C
$IIVHW,,,062,M,00.0,N,,*49
$IIVLW,01318,N,000.0,N*4D
$IIVWR,154,L,06.8,N,,,,*53
$IIRMB,A,8.00,R,,VIDY,,,,,003.16,281,,V,A*6C
$IIGLL,5450.269,N,00931.379,E,091449,A,A*47
$IIHDG,062,,,,*4B
$IIMTW,+20.5,C*4E
$IIMWV,219,R,06.7,N,A*4C
$IIMWV,206,T,06.8,N,A*4C
$IIRMC,091450,A,5450.270,N,00931.381,E,00.4,344,310713,,,A*5C
$IIVHW,,,062,M,00.0,N,,*49
$IIVLW,01318,N,000.0,N*4D
$IIVWR,141,L,06.7,N,,,,*53
$IIDPT,002.6,-1.0,*40
$IIGLL,5450.271,N,00931.383,E,091451,A,A*47
$IIHDG,063,,,,*4B
$IIMTW,+20.5,C*4E
$IIMWV,210,R,06.1,N,A*4C
$IIMWV,219,T,06.7,N,A*4C
$IIRMC,091451,A,5450.271,N,00931.383,E,00.4,346,310713,,,A*5C
$IIVHW,,,063,M,00.0,N,,*49
$IIVLW,01318,N,000.0,N*4D
$IIVWR,150,L,06.1,N,,,,*53
$IIDPT,002.6,-1.0,*40
$IIGLL,5450.270,N,00931.383,E,091452,A,A*47
$IIHDG,063,,,,*4B
$IIMTW,+20.5,C*4E
$IIMWV,217,R,05.3,N,A*4C
$IIMWV,210,T,06.1,N,A*4C
$IIRMC,091452,A,5450.270,N,00931.383,E,00.6,337,310713,,,A*5C
$IIRMB,A,9.00,R,,VIDY,,,,,003.16,281,,V,A*6D
$IIVHW,,,063,M,00.0,N,,*49
$IIVLW,01318,N,000.0,N*4D
$IIVWR,144,L,04.8,N,,,,*53
$IIDPT,002.6,-1.0,*40
$IIGLL,5450.269,N,00931.382,E,091453,A,A*47
$IIHDG,063,,,,*4B
$IIMTW,+20.5,C*4E
$IIMWV,216,R,04.8,N,A*4C
$IIMWV,217,T,05.3,N,A*4C
$IIRMC,091453,A,5450.269,N,00931.382,E,00.6,331,310713,,,A*5C
$IIVHW,,,063,M,00.0,N,,*49
$IIVLW,01318,N,000.0,N*4D
$IIVWR,151,L,04.7,N,,,,*53
$IIDPT,002.6,-1.0,*40
$IIGLL,5450.269,N,00931.382,E,091454,A,A*47
$IIHDG,064,,,,*4B
$IIMTW,+20.5,C*4E
$IIMWV,209,R,04.7,N,A*4C
$IIMWV,216,T,04.8,N,A*4C
$IIRMC,091454,A,5450.269,N,00931.382,E,00.3,324,310713,,,A*5C
$IIVHW,,,064,M,00.0,N,,*49
$IIVLW,01318,N,000.0,N*4D
$IIVWR,158,L,04.4,N,,,,*53
$IIDPT,002.6,-1.0,*40
$IIGLL,5450.268,N,00931.382,E,091455,A,A*47
$IIHDG,064,,,,*4B
$IIMTW,+20.5,C*4E
$IIMWV,202,R,04.4,N,A*4C
$IIRMB,A,0.00,R,,VIDY,,,,,003.16,281,,V,A*64
$IIRMC,091456,A,5450.269,N,00931.383,E,00.3,324,310713,,,A*5C
$IIVHW,,,064,M,00.0,N,,*49
$IIVLW,01318,N,000.0,N*4D
$IIVWR,162,L,04.4,N,,,,*53
$IIDPT,002.6,-1.0,*40
$IIGLL,5450.269,N,00931.383,E,091456,A,A*47
$IIHDG,064,,,,*4B
$IIMTW,+20.5,C*4E
$IIMWV,198,R,04.4,N,A*4C
$IIMWV,198,T,04.4,N,A*4C
$IIRMC,091457,A,5450.269,N,00931.383,E,00.6,329,310713,,,A*5C
$IIVHW,,,064,M,00.0,N,,*49
$IIVLW,01318,N,000.0,N*4D
$IIVWR,167,L,04.4,N,,,,*53
$IIDPT,002.6,-1.0,*40
$IIGLL,5450.269,N,00931.383,E,091457,A,A*47
$IIHDG,064,,,,*4B
$IIMTW,+20.5,C*4E
$IIMWV,192,R,04.2,N,A*4C
$IIMWV,193,T,04.4,N,A*4C
$IIRMC,091458,A,5450.268,N,00931.383,E,00.6,329,310713,,,A*5C
$IIVHW,,,064,M,00.0,N,,*49
$IIVLW,01318,N,000.0,N*4D
$IIVWR,168,L,04.2,N,,,,*53
$IIDPT,002.6,-1.0,*40
$IIRMB,A,1.00,R,,VIDY,,,,,003.16,281,,V,A*65
$IIGLL,5450.268,N,00931.383,E,091458,A,A*47
$IIHDG,064,,,,*4B
$IIMTW,+20.5,C*4E
$IIMWV,187,R,04.3,N,A*4C
$IIMWV,192,T,04.2,N,A*4C
$IIRMC,091459,A,5450.267,N,00931.382,E,01.0,322,310713,,,A*5C
$IIVHW,,,064,M,00.0,N,,*49
$IIVLW,01318,N,000.0,N*4D
$IIVWR,173,L,04.3,N,,,,*53
$IIDPT,002.6,-1.0,*40
$IIGLL,5450.267,N,00931.382,E,091459,A,A*47
$IIHDG,063,,,,*4B
$IIMTW,+20.5,C*4E
$IIMWV,178,R,04.1,N,A*4C
$IIMWV,187,T,04.3,N,A*4C
$IIRMC,091500,A,5450.267,N,00931.383,E,00.2,323,310713,,,A*5C
$IIVHW,,,063,M,00.0,N,,*49
$IIVLW,01318,N,000.0,N*4D
$IIRMB,A,2.00,R,,VIDY,,,,,003.16,281,,V,A*66
$IIDPT,002.6,-1.0,*40
$IIGLL,5450.268,N,00931.385,E,091502,A,A*47
$IIHDG,063,,,,*4B
$IIMTW,+20.5,C*4E
$IIMWV,181,R,04.3,N,A*4C
$IIMWV,174,T,04.2,N,A*4C
$IIRMC,091502,A,5450.268,N,00931.385,E,00.9,327,310713,,,A*5C
$IIVHW,,,063,M,00.0,N,,*49
$IIVLW,01318,N,000.0,N*4D
$IIVWR,179,L,04.3,N,,,,*53
$IIDPT,002.6,-1.0,*40
$IIGLL,5450.267,N,00931.383,E,091503,A,A*47
$IIHDG,063,,,,*4B
$IIMTW,+20.5,C*4E
$IIMWV,190,R,04.4,N,A*4C
$IIMWV,181,T,04.3,N,A*4C
$IIRMC,091503,A,5450.267,N,00931.383,E,00.3,320,310713,,,A*5C
$IIVHW,,,063,M,00.0,N,,*49
$IIVLW,01318,N,000.0,N*4D
$IIVWR,161,L,04.7,N,,,,*53
$IIDPT,002.6,-1.0,*40
$IIGLL,5450.267,N,00931.383,E,091504,A,A*47
$IIHDG,063,,,,*4B
$IIMTW,+20.5,C*4E
$IIMWV,199,R,04.7,N,A*4C
$IIMWV,190,T,04.4,N,A*4C
$IIRMB,A,3.00,R,,VIDY,,,,,003.16,281,,V,A*67
$IIVHW,,,063,M,00.0,N,,*49
$IIVLW,01318,N,000.0,N*4D
$IIVWR,158,L,04.7,N,,,,*53
$IIDPT,002.6,-1.0,*40
$IIGLL,5450.267,N,00931.383,E,091505,A,A*47
$IIHDG,064,,,,*4B
$IIMTW,+20.5,C*4E
$IIMWV,202,R,04.7,N,A*4C
$IIMWV,199,T,04.7,N,A*4C
$IIRMC,091505,A,5450.267,N,00931.383,E,00.4,326,310713,,,A*5C
$IIVHW,,,064,M,00.0,N,,*49
$IIVLW,01318,N,000.0,N*4D
$IIVWR,152,L,04.4,N,,,,*53
$IIDPT,002.6,-1.0,*40
$IIGLL,5450.267,N,00931.383,E,091506,A,A*47
$IIHDG,064,,,,*4B
$IIMTW,+20.5,C*4E
$IIMWV,208,R,04.4,N,A*4C
$IIMWV,202,T,04.7,N,A*4C
$IIRMC,091507,A,5450.267,N,00931.382,E,00.1,317,310713,,,A*5C
$IIVHW,,,063,M,00.0,N,,*49
$IIVLW,01318,N,000.0,N*4D
$IIVWR,145,L,04.4,N,,,,*53
$IIDPT,002.6,-1.0,*40
$IIGLL,5450.267,N,00931.382,E,091507,A,A*47
$IIRMB,A,4.00,R,,VIDY,,,,,003.16,281,,V,A*60
$IIMTW,+20.5,C*4E
$IIMWV,215,R,04.4,N,A*4C
$IIMWV,215,T,04.4,N,A*4C
$IIRMC,091508,A,5450.267,N,00931.382,E,00.2,310,310713,,,A*5C
$IIVHW,,,063,M,00.0,N,,*49
$IIVLW,01318,N,000.0,N*4D
$IIVWR,140,L,04.5,N,,,,*53
$IIDPT,002.6,-1.0,*40
$IIGLL,5450.267,N,00931.382,E,091508,A,A*47
$IIHDG,063,,,,*4B
$IIMTW,+18.0,C*4E
$IIMWV,224,R,04.2,N,A*4C
$IIMWV,220,T,04.5,N,A*4C
$IIRMC,091509,A,5450.267,N,00931.382,E,00.3,303,310713,,,A*5C
$IIVHW,,,063,M,00.0,N,,*49
$IIVLW,01318,N,000.0,N*4D
$IIVWR,136,L,04.2,N,,,,*53
$IIDPT,002.6,-1.0,*40
$IIGLL,5450.267,N,00931.382,E,091509,A,A*47
$IIHDG,063,,,,*4B
$IIMTW,+18.0,C*4E
$IIMWV,218,R,04.0,N,A*4C
$IIMWV,224,T,04.2,N,A*4C
$IIRMC,091510,A,5450.267,N,00931.381,E,00.3,303,310713,,,A*5C
$IIVHW,,,063,M,00.0,N,,*49
$IIVLW,01318,N,000.0,N*4D
$IIVWR,142,L,04.0,N,,,,*53
$IIRMB,A,5.00,R,,VIDY,,,,,003.16,281,,V,A*61
$IIGLL,5450.267,N,00931.381,E,091510,A,A*47
$IIHDG,063,,,,*4B
$IIMTW,+20.0,C*4E
$IIMWV,218,R,03.6,N,A*4C
$IIMWV,218,T,04.0,N,A*4C
$IIRMC,091511,A,5450.267,N,00931.381,E,00.9,309,310713,,,A*5C
$IIVHW,,,063,M,00.0,N,,*49
$IIVLW,01318,N,000.0,N*4D
$IIVWR,142,L,03.6,N,,,,*53
$IIDPT,002.6,-1.0,*40
$IIGLL,5450.267,N,00931.382,E,091512,A,A*47
$IIHDG,063,,,,*4B
$IIMTW,+20.0,C*4E
$IIMWV,214,R,03.5,N,A*4C
$IIMWV,218,T,03.6,N,A*4C
$IIRMC,091512,A,5450.267,N,00931.382,E,00.2,310,310713,,,A*5C
$IIVHW,,,063,M,00.0,N,,*49
$IIVLW,01318,N,000.0,N*4D
$IIVWR,146,L,03.5,N,,,,*53
$IIDPT,002.6,-1.0,*40
$IIGLL,5450.267,N,00931.382,E,091513,A,A*47
$IIHDG,063,,,,*4B
$IIMTW,+20.5,C*4E
$IIMWV,215,R,03.4,N,A*4C
$IIMWV,214,T,03.5,N,A*4C
$IIRMC,091513,A,5450.267,N,00931.382,E,00.3,320,310713,,,A*5C
$IIRMB,A,6.00,R,,VIDY,,,,,003.16,281,,V,A*62
$IIVLW,01318,N,000.0,N*4D
$IIVWR,152,L,03.2,N,,,,*53
$IIDPT,002.6,-1.0,*40
$IIGLL,5450.267,N,00931.383,E,091514,A,A*47
$IIHDG,063,,,,*4B
$IIMTW,+20.5,C*4E
$IIMWV,208,R,03.2,N,A*4C
$IIMWV,215,T,03.4,N,A*4C
$IIRMC,091514,A,5450.267,N,00931.383,E,00.3,330,310713,,,A*5C
$IIVHW,,,063,M,00.0,N,,*49
$IIVLW,01318,N,000.0,N*4D
$IIVWR,157,L,02.9,N,,,,*53
$IIDPT,002.6,-1.0,*40
$IIGLL,5450.267,N,00931.383,E,091515,A,A*47
$IIHDG,063,,,,*4B
$IIMTW,+20.5,C*4E
$IIMWV,203,R,02.9,N,A*4C
$IIMWV,208,T,03.2,N,A*4C
$IIRMC,091515,A,5450.267,N,00931.383,E,00.9,340,310713,,,A*5C
$IIVHW,,,063,M,00.0,N,,*49
$IIVLW,01318,N,000.0,N*4D
$IIVWR,170,L,03.0,N,,,,*53
$IIDPT,002.6,-1.0,*40
$IIGLL,5450.267,N,00931.384,E,091516,A,A*47
$IIHDG,063,,,,*4B
$IIMTW,+20.5,C*4E
$IIMWV,190,R,03.0,N,A*4C
$IIRMB,A,7.00,R,,VIDY,,,,,003.16,281,,V,A*63
$IIRMC,091517,A,5450.267,N,00931.383,E,00.3,359,310713,,,A*5C
$IIVHW,,,064,M,00.0,N,,*49
$IIVLW,01318,N,000.0,N*4D
$IIVWR,179,R,03.1,N,,,,*53
$IIDPT,002.6,-1.0,*40
$IIGLL,5450.267,N,00931.383,E,091517,A,A*47
$IIHDG,064,,,,*4B
$IIMTW,+20.5,C*4E
$IIMWV,179,R,03.1,N,A*4C
$IIMWV,179,T,03.1,N,A*4C
$IIRMC,091518,A,5450.268,N,00931.383,E,00.4,354,310713,,,A*5C
$IIVHW,,,065,M,00.0,N,,*49
$IIVLW,01318,N,000.0,N*4D
$IIVWR,173,R,03.3,N,,,,*53
$IIDPT,002.6,-1.0,*40
$IIGLL,5450.268,N,00931.383,E,091518,A,A*47
$IIHDG,065,,,,*4B
$IIMTW,+20.5,C*4E
$IIMWV,172,R,03.3,N,A*4C
$IIMWV,173,T,03.3,N,A*4C
$IIRMC,091519,A,5450.267,N,00931.383,E,00.4,354,310713,,,A*5C
$IIVHW,,,065,M,00.0,N,,*49
$IIVLW,01318,N,000.0,N*4D
$IIVWR,172,R,03.3,N,,,,*53
$IIDPT,002.6,-1.0,*40
$IIRMB,A,8.00,R,,VIDY,,,,,003.16,281,,V,A*6C
$IIHDG,065,,,,*4B
$IIMTW,+20.5,C*4E
$IIMWV,177,R,03.7,N,A*4C
$IIMWV,172,T,03.3,N,A*4C
$IIRMC,091520,A,5450.267,N,00931.383,E,00.4,354,310713,,,A*5C
$IIVHW,,,063,M,00.0,N,,*49
$IIVLW,01318,N,000.0,N*4D
$IIVWR,177,R,03.7,N,,,,*53
$IIDPT,002.6,-1.0,*40
$IIGLL,5450.267,N,00931.383,E,091520,A,A*47
$IIHDG,062,,,,*4B
$IIMTW,+20.5,C*4E
$IIMWV,182,R,04.0,N,A*4C
$IIMWV,177,T,03.7,N,A*4C
$IIRMC,091521,A,5450.267,N,00931.383,E,00.2,345,310713,,,A*5C
$IIVHW,,,062,M,00.0,N,,*49
$IIVLW,01318,N,000.0,N*4D
$IIRMB,A,9.00,R,,VIDY,,,,,003.16,281,,V,A*6D
$IIDPT,002.6,-1.0,*40
$IIGLL,5450.267,N,00931.383,E,091523,A,A*47
$IIHDG,060,,,,*4B
$IIMTW,+20.5,C*4E
$IIMWV,213,R,04.7,N,A*4C
$IIMWV,201,T,03.9,N,A*4C
$IIRMC,091523,A,5450.267,N,00931.383,E,00.4,337,310713,,,A*5C
$IIVHW,,,060,M,00.0,N,,*49
$IIVLW,01318,N,000.0,N*4D
$IIVWR,147,L,04.7,N,,,,*53
$IIDPT,002.6,-1.0,*40
$IIGLL,5450.266,N,00931.383,E,091524,A,A*47
$IIHDG,059,,,,*4B
$IIMTW,+20.5,C*4E
$IIMWV,200,R,04.3,N,A*4C
$IIMWV,213,T,04.7,N,A*4C
$IIRMC,091524,A,5450.266,N,00931.383,E,00.2,346,310713,,,A*5C
$IIVHW,,,059,M,00.0,N,,*49
$IIVLW,01318,N,000.0,N*4D
$IIVWR,179,R,04.0,N,,,,*53
$IIDPT,002.6,-1.0,*40
$IIGLL,5450.266,N,00931.383,E,091525,A,A*47
$IIHDG,059,,,,*4B
$IIMTW,+20.5,C*4E
$IIMWV,179,R,04.0,N,A*4C
$IIMWV,200,T,04.3,N,A*4C
$IIRMB,A,0.00,R,,VIDY,,,,,003.16,281,,V,A*64
$IIVHW,,,059,M,00.0,N,,*49
$IIVLW,01318,N,000.0,N*4D
$IIVWR,171,R,03.5,N,,,,*53
$IIDPT,002.6,-1.0,*40
$IIGLL,5450.266,N,00931.383,E,091526,A,A*47
$IIHDG,059,,,,*4B
$IIMTW,+20.5,C*4E
$IIMWV,171,R,03.5,N,A*4C
$IIMWV,179,T,04.0,N,A*4C
$IIRMC,091526,A,5450.266,N,00931.383,E,00.3,336,310713,,,A*5C
$IIVHW,,,059,M,00.0,N,,*49
$IIVLW,01318,N,000.0,N*4D
$IIVWR,171,R,03.1,N,,,,*53
$IIDPT,002.6,-1.0,*40
$IIGLL,5450.266,N,00931.383,E,091527,A,A*47
$IIHDG,059,,,,*4B
$IIMTW,+20.5,C*4E
$IIMWV,171,R,03.1,N,A*4C
$IIMWV,171,T,03.5,N,A*4C
$IIRMC,091528,A,5450.266,N,00931.384,E,00.6,343,310713,,,A*5C
$IIVHW,,,059,M,00.0,N,,*49
$IIVLW,01318,N,000.0,N*4D
$IIVWR,172,R,03.2,N,,,,*53
$IIDPT,002.6,-1.0,*40
$IIGLL,5450.266,N,00931.384,E,091528,A,A*47
$IIRMB,A,1.00,R,,VIDY,,,,,003.16,281,,V,A*65
$IIMTW,+20.5,C*4E
$IIMWV,172,R,03.2,N,A*4C
$IIMWV,172,T,03.2,N,A*4C
$IIRMC,091529,A,5450.267,N,00931.385,E,00.3,346,310713,,,A*5C
$IIVHW,,,060,M,00.0,N,,*49
$IIVLW,01318,N,000.0,N*4D
$IIVWR,163,R,03.3,N,,,,*53
$IIDPT,002.6,-1.0,*40
$IIGLL,5450.267,N,00931.385,E,091529,A,A*47
$IIHDG,060,,,,*4B
$IIMTW,+20.5,C*4E
$IIMWV,158,R,02.9,N,A*4C
$IIMWV,163,T,03.3,N,A*4C
$IIRMC,091530,A,5450.267,N,00931.386,E,00.2,344,310713,,,A*5C
$IIVHW,,,060,M,00.0,N,,*49
$IIVLW,01318,N,000.0,N*4D
$IIVWR,158,R,02.9,N,,,,*53
$IIDPT,002.6,-1.0,*40
$IIGLL,5450.267,N,00931.386,E,091530,A,A*47
$IIHDG,060,,,,*4B
$IIMTW,+20.5,C*4E
$IIMWV,000,R,00.0,N,A*4C
$IIMWV,158,T,02.9,N,A*4C
$IIRMC,091531,A,5450.268,N,00931.386,E,00.5,347,310713,,,A*5C
$IIVHW,,,060,M,00.0,N,,*49
$IIVLW,01318,N,000.0,N*4D
$IIVWR,000,R,00.0,N,,,,*53
$IIRMB,A,2.00,R,,VIDY,,,,,003.16,281,,V,A*66
$IIGLL,5450.268,N,00931.386,E,091531,A,A*47
$IIHDG,060,,,,*4B
$IIMTW,+20.5,C*4E
$IIMWV,140,R,02.6,N,A*4C
$IIMWV,000,T,00.0,N,A*4C
$IIRMC,091532,A,5450.268,N,00931.386,E,00.5,347,310713,,,A*5C
$IIVHW,,,060,M,00.0,N,,*49
$IIVLW,01318,N,000.0,N*4D
$IIRMB,A,3.00,R,,VIDY,,,,,003.16,281,,V,A*67
$IIDPT,002.6,-1.0,*40
$IIGLL,5450.269,N,00931.386,E,091535,A,A*47
$IIHDG,059,,,,*4B
$IIMTW,+20.5,C*4E
$IIMWV,136,R,01.7,N,A*4C
$IIMWV,108,T,02.1,N,A*4C
$IIRMC,091535,A,5450.269,N,00931.386,E,00.1,346,310713,,,A*5C
$IIVHW,,,059,M,00.0,N,,*49
$IIVLW,01318,N,000.0,N*4D
$IIVWR,136,R,01.7,N,,,,*53
$IIDPT,002.6,-1.0,*40
$IIGLL,5450.269,N,00931.386,E,091536,A,A*47
$IIHDG,059,,,,*4B
$IIMTW,+20.5,C*4E
$IIMWV,137,R,01.8,N,A*4C
$IIMWV,136,T,01.7,N,A*4C
$IIRMC,091536,A,5450.269,N,00931.386,E,00.2,346,310713,,,A*5C
$IIVHW,,,059,M,00.0,N,,*49
$IIVLW,01318,N,000.0,N*4D
$IIVWR,135,R,01.6,N,,,,*53
$IIDPT,002.6,-1.0,*40
$IIGLL,5450.268,N,00931.386,E,091537,A,A*47
$IIHDG,060,,,,*4B
$IIMTW,+20.5,C*4E
$IIMWV,135,R,01.6,N,A*4C
$IIMWV,137,T,01.8,N,A*4C
$IIRMB,A,4.00,R,,VIDY,,,,,003.16,281,,V,A*60
$IIVHW,,,060,M,00.0,N,,*49
$IIVLW,01318,N,000.0,N*4D
$IIVWR,155,R,01.4,N,,,,*53
$IIDPT,002.6,-1.0,*40
$IIGLL,5450.268,N,00931.386,E,091538,A,A*47
$IIHDG,059,,,,*4B
$IIMTW,+20.5,C*4E
$IIMWV,155,R,01.4,N,A*4C
$IIMWV,135,T,01.6,N,A*4C
$IIRMC,091538,A,5450.268,N,00931.386,E,00.3,337,310713,,,A*5C
$IIVHW,,,059,M,00.0,N,,*49
$IIVLW,01318,N,000.0,N*4D
$IIVWR,176,L,01.4,N,,,,*53
$IIDPT,002.6,-1.0,*40
$IIGLL,5450.268,N,00931.386,E,091539,A,A*47
$IIHDG,059,,,,*4B
$IIMTW,+20.5,C*4E
$IIMWV,184,R,01.4,N,A*4C
$IIMWV,155,T,01.4,N,A*4C
$IIRMC,091540,A,5450.268,N,00931.387,E,00.5,329,310713,,,A*5C
$IIVHW,,,060,M,00.0,N,,*49
$IIVLW,01318,N,000.0,N*4D
$IIVWR,146,L,01.3,N,,,,*53
$IIDPT,002.6,-1.0,*40
$IIGLL,5450.268,N,00931.387,E,091540,A,A*47
$IIRMB,A,5.00,R,,VIDY,,,,,003.16,281,,V,A*61
$IIMTW,+20.5,C*4E
$IIMWV,214,R,01.3,N,A*4C
$IIMWV,214,T,01.3,N,A*4C
$IIRMC,091541,A,5450.267,N,00931.386,E,00.5,329,310713,,,A*5C
$IIVHW,,,060,M,00.0,N,,*49
$IIVLW,01318,N,000.0,N*4D
$IIVWR,150,L,01.6,N,,,,*53
$IIDPT,002.6,-1.0,*40
$IIGLL,5450.267,N,00931.386,E,091541,A,A*47
$IIHDG,060,,,,*4B
$IIMTW,+20.5,C*4E
$IIMWV,206,R,01.7,N,A*4C
$IIMWV,210,T,01.6,N,A*4C
$IIRMC,091542,A,5450.267,N,00931.385,E,00.5,329,310713,,,A*5C
$IIVHW,,,060,M,00.0,N,,*49
$IIVLW,01318,N,000.0,N*4D
$IIVWR,154,L,01.7,N,,,,*53
$IIDPT,002.6,-1.0,*40
$IIGLL,5450.267,N,00931.385,E,091542,A,A*47
$IIHDG,060,,,,*4B
$IIMTW,+20.5,C*4E
$IIMWV,198,R,02.0,N,A*4C
$IIMWV,206,T,01.7,N,A*4C
$IIRMC,091543,A,5450.267,N,00931.385,E,00.5,329,310713,,,A*5C
$IIVHW,,,061,M,00.0,N,,*49
$IIVLW,01318,N,000.0,N*4D
$IIVWR,162,L,02.0,N,,,,*53
$IIRMB,A,6.00,R,,VIDY,,,,,003.16,281,,V,A*62
$IIGLL,5450.267,N,00931.385,E,091543,A,A*47
$IIHDG,061,,,,*4B
$IIMTW,+20.5,C*4E
$IIMWV,178,R,02.1,N,A*4C
$IIMWV,198,T,02.0,N,A*4C
$IIRMC,091544,A,5450.267,N,00931.385,E,00.5,329,310713,,,A*5C
$IIVHW,,,061,M,00.0,N,,*49
$IIVLW,01318,N,000.0,N*4D
$IIVWR,178,R,02.1,N,,,,*53
$IIDPT,002.6,-1.0,*40
$IIGLL,5450.267,N,00931.385,E,091545,A,A*47
$IIHDG,061,,,,*4B
$IIMTW,+20.5,C*4E
$IIMWV,176,R,02.2,N,A*4C
$IIMWV,178,T,02.1,N,A*4C
$IIRMC,091545,A,5450.267,N,00931.385,E,00.5,329,310713,,,A*5C
$IIVHW,,,061,M,00.0,N,,*49
$IIVLW,01318,N,000.0,N*4D
$IIVWR,176,R,02.2,N,,,,*53
$IIDPT,002.6,-1.0,*40
$IIGLL,5450.267,N,00931.386,E,091546,A,A*47
$IIHDG,061,,,,*4B
$IIMTW,+20.5,C*4E
$IIMWV,176,R,02.9,N,A*4C
$IIMWV,176,T,02.2,N,A*4C
$IIRMC,091546,A,5450.267,N,00931.386,E,00.5,329,310713,,,A*5C
$IIRMB,A,7.00,R,,VIDY,,,,,003.16,281,,V,A*63
$IIVHW,,,061,M,00.0,N,,*49
$IIVLW,01318,N,000.0,N*4D
$IIVWR,179,R,03.1,N,,,,*53
$IIDPT,002.6,-1.0,*40
$IIGLL,5450.267,N,00931.386,E,091547,A,A*47
$IIHDG,059,,,,*4B
$IIMTW,+20.5,C*4E
$IIMWV,179,R,03.1,N,A*4C
$IIMWV,176,T,02.9,N,A*4C
$IIRMC,091547,A,5450.267,N,00931.386,E,00.2,333,310713,,,A*5C
$IIVHW,,,059,M,00.0,N,,*49
$IIVLW,01318,N,000.0,N*4D
$IIVWR,171,R,03.2,N,,,,*53
$IIDPT,002.6,-1.0,*40
$IIGLL,5450.267,N,00931.386,E,091548,A,A*47
$IIHDG,060,,,,*4B
$IIMTW,+20.5,C*4E
$IIMWV,171,R,03.2,N,A*4C
$IIMWV,179,T,03.1,N,A*4C
$IIRMC,091548,A,5450.267,N,00931.386,E,00.2,333,310713,,,A*5C
$IIVHW,,,060,M,00.0,N,,*49
$IIVLW,01318,N,000.0,N*4D
$IIVWR,169,R,03.6,N,,,,*53
$IIDPT,002.6,-1.0,*40
$IIGLL,5450.267,N,00931.386,E,091549,A,A*47
$IIHDG,060,,,,*4B
$IIMTW,+20.5,C*4E
$IIMWV,169,R,03.6,N,A*4C
$IIRMB,A,8.00,R,,VIDY,,,,,003.16,281,,V,A*6C
$IIRMC,091550,A,5450.267,N,00931.385,E,00.2,333,310713,,,A*5C
$IIVHW,,,060,M,00.0,N,,*49
$IIVLW,01318,N,000.0,N*4D
$IIVWR,178,R,03.6,N,,,,*53
$IIDPT,002.6,-1.0,*40
$IIGLL,5450.267,N,00931.385,E,091550,A,A*47
$IIHDG,060,,,,*4B
$IIMTW,+20.5,C*4E
$IIMWV,178,R,03.6,N,A*4C
$IIMWV,178,T,03.6,N,A*4C
$IIRMC,091551,A,5450.267,N,00931.385,E,00.2,333,310713,,,A*5C
$IIVHW,,,060,M,00.0,N,,*49
$IIVLW,01318,N,000.0,N*4D
$IIVWR,178,L,03.2,N,,,,*53
$IIDPT,002.6,-1.0,*40
$IIGLL,5450.267,N,00931.385,E,091551,A,A*47
$IIHDG,060,,,,*4B
$IIMTW,+20.5,C*4E
$IIMWV,177,R,03.5,N,A*4C
$IIMWV,182,T,03.2,N,A*4C
$IIRMC,091552,A,5450.267,N,00931.385,E,00.2,333,310713,,,A*5C
$IIVHW,,,060,M,00.0,N,,*49
$IIVLW,01318,N,000.0,N*4D
$IIVWR,177,R,03.5,N,,,,*53
$IIDPT,002.6,-1.0,*40
$IIRMB,A,9.00,R,,VIDY,,,,,003.16,281,,V,A*6D
$IIGLL,5450.267,N,00931.385,E,091552,A,A*47
$IIHDG,060,,,,*4B
$IIMTW,+20.5,C*4E
$IIMWV,178,R,03.4,N,A*4C
$IIMWV,177,T,03.5,N,A*4C
$IIRMC,091553,A,5450.267,N,00931.384,E,00.2,333,310713,,,A*5C
$IIVHW,,,060,M,00.0,N,,*49
$IIVLW,01318,N,000.0,N*4D
$IIVWR,178,R,03.4,N,,,,*53
$IIDPT,002.6,-1.0,*40
$IIGLL,5450.267,N,00931.384,E,091553,A,A*47
$IIHDG,060,,,,*4B
$IIMTW,+20.5,C*4E
$IIMWV,194,R,03.1,N,A*4C
$IIMWV,178,T,03.4,N,A*4C
$IIRMC,091554,A,5450.267,N,00931.384,E,00.2,333,310713,,,A*5C
$IIVHW,,,060,M,00.0,N,,*49
$IIVLW,01318,N,000.0,N*4D
$IIVWR,166,L,03.1,N,,,,*53
$IIDPT,002.6,-1.0,*40
$IIGLL,5450.267,N,00931.384,E,091555,A,A*47
$IIHDG,060,,,,*4B
$IIMTW,+20.5,C*4E
$IIMWV,212,R,03.0,N,A*4C
$IIMWV,194,T,03.1,N,A*4C
$IIRMC,091555,A,5450.267,N,00931.384,E,00.2,333,310713,,,A*5C
$IIRMB,A,0.00,R,,VIDY,,,,,003.16,281,,V,A*64
$IIVLW,01318,N,000.0,N*4D
$IIVWR,148,L,03.0,N,,,,*53
$IIDPT,002.6,-1.0,*40
$IIGLL,5450.267,N,00931.383,E,091556,A,A*47
$IIHDG,061,,,,*4B
$IIMTW,+20.5,C*4E
$IIMWV,219,R,03.0,N,A*4C
$IIMWV,212,T,03.0,N,A*4C
$IIRMC,091556,A,5450.267,N,00931.383,E,00.2,334,310713,,,A*5C
$IIVHW,,,061,M,00.0,N,,*49
$IIVLW,01318,N,000.0,N*4D
$IIVWR,136,L,03.2,N,,,,*53
$IIDPT,002.6,-1.0,*40
$IIGLL,5450.267,N,00931.383,E,091557,A,A*47
$IIHDG,061,,,,*4B
$IIMTW,+18.0,C*4E
$IIMWV,224,R,03.2,N,A*4C
$IIMWV,219,T,03.0,N,A*4C
$IIRMC,091557,A,5450.267,N,00931.383,E,00.2,334,310713,,,A*5C
$IIVHW,,,061,M,00.0,N,,*49
$IIVLW,01318,N,000.0,N*4D
$IIVWR,140,L,03.2,N,,,,*53
$IIDPT,002.6,-1.0,*40
$IIGLL,5450.267,N,00931.383,E,091558,A,A*47
$IIHDG,060,,,,*4B
$IIMTW,+20.5,C*4E
$IIMWV,220,R,03.2,N,A*4C
$IIMWV,224,T,03.2,N,A*4C
$IIRMB,A,1.00,R,,VIDY,,,,,003.16,281,,V,A*65
$IIVHW,,,060,M,00.0,N,,*49
$IIVLW,01318,N,000.0,N*4D
$IIVWR,140,L,03.6,N,,,,*53
$IIDPT,002.6,-1.0,*40
$IIGLL,5450.267,N,00931.383,E,091559,A,A*47
$IIHDG,060,,,,*4B
$IIMTW,+20.5,C*4E
$IIMWV,220,R,03.6,N,A*4C
$IIMWV,220,T,03.2,N,A*4C
$IIRMC,091600,A,5450.267,N,00931.382,E,00.2,334,310713,,,A*5C
$IIVHW,,,061,M,00.0,N,,*49
$IIVLW,01318,N,000.0,N*4D
$IIVWR,135,L,03.9,N,,,,*53
$IIDPT,002.6,-1.0,*40
$IIGLL,5450.267,N,00931.382,E,091600,A,A*47
$IIHDG,061,,,,*4B
$IIMTW,+20.5,C*4E
$IIMWV,225,R,03.9,N,A*4C
$IIMWV,225,T,03.9,N,A*4C
$IIRMC,091601,A,5450.267,N,00931.382,E,00.2,334,310713,,,A*5C
$IIVHW,,,061,M,00.0,N,,*49
$IIVLW,01318,N,000.0,N*4D
$IIVWR,133,L,04.1,N,,,,*53
$IIDPT,002.6,-1.0,*40
$IIRMB,A,2.00,R,,VIDY,,,,,003.16,281,,V,A*66
$IIHDG,061,,,,*4B
$IIMTW,+20.5,C*4E
$IIMWV,230,R,03.9,N,A*4C
$IIMWV,227,T,04.1,N,A*4C
$IIRMC,091602,A,5450.267,N,00931.382,E,00.2,334,310713,,,A*5C
$IIVHW,,,062,M,00.0,N,,*49
$IIVLW,01318,N,000.0,N*4D
$IIVWR,130,L,03.9,N,,,,*53
$IIDPT,002.6,-1.0,*40
$IIGLL,5450.267,N,00931.382,E,091602,A,A*47
$IIHDG,062,,,,*4B
$IIMTW,+20.5,C*4E
$IIMWV,230,R,03.8,N,A*4C
$IIMWV,230,T,03.9,N,A*4C
$IIRMC,091603,A,5450.267,N,00931.382,E,00.2,334,310713,,,A*5C
$IIVHW,,,062,M,00.0,N,,*49
$IIVLW,01318,N,000.0,N*4D
$IIVWR,130,L,03.8,N,,,,*53
$IIDPT,002.6,-1.0,*40
$IIGLL,5450.267,N,00931.382,E,091603,A,A*47
$IIHDG,062,,,,*4B
$IIMTW,+20.5,C*4E
$IIMWV,227,R,03.7,N,A*4C
$IIMWV,230,T,03.8,N,A*4C
$IIRMC,091604,A,5450.267,N,00931.382,E,00.2,334,310713,,,A*5C
$IIVHW,,,062,M,00.0,N,,*49
$IIVLW,01318,N,000.0,N*4D
$IIRMB,A,3.00,R,,VIDY,,,,,003.16,281,,V,A*67
$IIDPT,002.6,-1.0,*40
$IIGLL,5450.267,N,00931.381,E,091605,A,A*47
$IIHDG,061,,,,*4B
$IIMTW,+20.5,C*4E
$IIMWV,226,R,03.6,N,A*4C
$IIMWV,227,T,03.7,N,A*4C
$IIRMC,091605,A,5450.267,N,00931.381,E,00.2,334,310713,,,A*5C
$IIVHW,,,061,M,00.0,N,,*49
$IIVLW,01318,N,000.0,N*4D
$IIVWR,134,L,03.6,N,,,,*53
$IIDPT,002.6,-1.0,*40
$IIGLL,5450.267,N,00931.381,E,091606,A,A*47
$IIHDG,061,,,,*4B
$IIMTW,+20.5,C*4E
$IIMWV,226,R,03.6,N,A*4C
$IIMWV,226,T,03.6,N,A*4C
$IIRMC,091606,A,5450.267,N,00931.381,E,00.2,334,310713,,,A*5C
$IIVHW,,,061,M,00.0,N,,*49
$IIVLW,01318,N,000.0,N*4D
$IIVWR,129,L,03.8,N,,,,*53
$IIDPT,002.6,-1.0,*40
$IIGLL,5450.267,N,00931.381,E,091607,A,A*47
$IIHDG,061,,,,*4B
$IIMTW,+20.5,C*4E
$IIMWV,231,R,03.8,N,A*4C
$IIMWV,226,T,03.6,N,A*4C
$IIRMB,A,4.00,R,,VIDY,,,,,003.16,281,,V,A*60
$IIVHW,,,061,M,00.0,N,,*49
$IIVLW,01318,N,000.0,N*4D
$IIVWR,129,L,04.0,N,,,,*53
$IIDPT,002.6,-1.0,*40
$IIGLL,5450.267,N,00931.381,E,091608,A,A*47
$IIHDG,060,,,,*4B
$IIMTW,+20.5,C*4E
$IIMWV,231,R,04.0,N,A*4C
$IIMWV,231,T,03.8,N,A*4C
$IIRMC,091608,A,5450.267,N,00931.381,E,00.2,334,310713,,,A*5C
$IIVHW,,,060,M,00.0,N,,*49
$IIVLW,01318,N,000.0,N*4D
$IIVWR,125,L,04.2,N,,,,*53
$IIDPT,002.6,-1.0,*40
$IIGLL,5450.267,N,00931.381,E,091609,A,A*47
$IIHDG,060,,,,*4B
$IIMTW,+20.5,C*4E
$IIMWV,235,R,04.2,N,A*4C
$IIMWV,231,T,04.0,N,A*4C
$IIRMC,091610,A,5450.267,N,00931.381,E,00.2,334,310713,,,A*5C
$IIVHW,,,061,M,00.0,N,,*49
$IIVLW,01318,N,000.0,N*4D
$IIVWR,136,L,04.1,N,,,,*53
$IIDPT,002.6,-1.0,*40
$IIGLL,5450.267,N,00931.381,E,091610,A,A*47
$IIRMB,A,5.00,R,,VIDY,,,,,003.16,281,,V,A*61
$IIMTW,+20.5,C*4E
$IIMWV,224,R,04.1,N,A*4C
$IIMWV,224,T,04.1,N,A*4C
$IIRMC,091611,A,5450.266,N,00931.381,E,00.2,334,310713,,,A*5C
$IIVHW,,,060,M,00.0,N,,*49
$IIVLW,01318,N,000.0,N*4D
$IIVWR,127,L,03.8,N,,,,*53
$IIDPT,002.6,-1.0,*40
$IIGLL,5450.266,N,00931.381,E,091611,A,A*47
$IIHDG,060,,,,*4B
$IIMTW,+20.5,C*4E
$IIMWV,240,R,03.7,N,A*4C
$IIMWV,233,T,03.8,N,A*4C
$IIRMC,091612,A,5450.267,N,00931.381,E,00.2,334,310713,,,A*5C
$IIVHW,,,061,M,00.0,N,,*49
$IIVLW,01318,N,000.0,N*4D
$IIVWR,120,L,03.7,N,,,,*53
$IIDPT,002.6,-1.0,*40
$IIGLL,5450.267,N,00931.381,E,091612,A,A*47
$IIHDG,061,,,,*4B
$IIMTW,+20.5,C*4E
$IIMWV,235,R,03.7,N,A*4C
$IIMWV,240,T,03.7,N,A*4C
$IIRMC,091613,A,5450.267,N,00931.381,E,00.2,334,310713,,,A*5C
$IIVHW,,,060,M,00.0,N,,*49
$IIVLW,01318,N,000.0,N*4D
$IIVWR,125,L,03.7,N,,,,*53
$IIRMB,A,6.00,R,,VIDY,,,,,003.16,281,,V,A*62
$IIGLL,5450.267,N,00931.381,E,091613,A,A*47
$IIHDG,060,,,,*4B
$IIMTW,+20.5,C*4E
$IIMWV,228,R,03.6,N,A*4C
$IIMWV,235,T,03.7,N,A*4C
$IIRMC,091614,A,5450.267,N,00931.381,E,00.2,334,310713,,,A*5C
$IIVHW,,,060,M,00.0,N,,*49
$IIVLW,01318,N,000.0,N*4D
$IIVWR,132,L,03.6,N,,,,*53
$IIDPT,002.6,-1.0,*40
$IIGLL,5450.267,N,00931.381,E,091616,A,A*47
$IIHDG,060,,,,*4B
$IIMTW,+20.5,C*4E
$IIMWV,204,R,03.8,N,A*4C
$IIMWV,000,T,00.0,N,A*4C
$IIRMC,091616,A,5450.267,N,00931.381,E,00.2,334,310713,,,A*5C
$IIRMB,A,7.00,R,,VIDY,,,,,003.16,281,,V,A*63
$IIVLW,01318,N,000.0,N*4D
$IIVWR,156,L,03.8,N,,,,*53
$IIDPT,002.6,-1.0,*40
$IIGLL,5450.267,N,00931.381,E,091617,A,A*47
$IIHDG,061,,,,*4B
$IIMTW,+20.5,C*4E
$IIMWV,206,R,03.5,N,A*4C
$IIMWV,204,T,03.8,N,A*4C
$IIRMC,091617,A,5450.267,N,00931.381,E,00.2,334,310713,,,A*5C
$IIVHW,,,061,M,00.0,N,,*49
$IIVLW,01318,N,000.0,N*4D
$IIVWR,000,R,00.0,N,,,,*53
$IIDPT,002.6,-1.0,*40
$IIGLL,5450.267,N,00931.381,E,091618,A,A*47
$IIHDG,062,,,,*4B
$IIMTW,+20.5,C*4E
$IIMWV,000,R,00.0,N,A*4C
$IIMWV,206,T,03.5,N,A*4C
$IIRMC,091618,A,5450.267,N,00931.381,E,00.2,334,310713,,,A*5C
$IIVHW,,,062,M,00.0,N,,*49
$IIVLW,01318,N,000.0,N*4D
$IIVWR,000,R,00.0,N,,,,*53
$IIDPT,002.6,-1.0,*40
$IIGLL,5450.267,N,00931.382,E,091619,A,A*47
$IIHDG,062,,,,*4B
$IIMTW,+20.5,C*4E
$IIMWV,000,R,00.0,N,A*4C
$IIMWV,000,T,00.0,N,A*4C
$IIRMB,A,8.00,R,,VIDY,,,,,003.16,281,,V,A*6C
$IIVHW,,,060,M,00.0,N,,*49
$IIVLW,01318,N,000.0,N*4D
$IIVWR,150,L,03.5,N,,,,*53
$IIDPT,002.6,-1.0,*40
$IIGLL,5450.267,N,00931.382,E,091620,A,A*47
$IIHDG,060,,,,*4B
$IIMTW,+20.5,C*4E
$IIMWV,210,R,03.5,N,A*4C
$IIMWV,000,T,00.0,N,A*4C
$IIRMC,091621,A,5450.267,N,00931.382,E,00.2,334,310713,,,A*5C
$IIVHW,,,060,M,00.0,N,,*49
$IIVLW,01318,N,000.0,N*4D
$IIVWR,162,L,03.2,N,,,,*53
$IIDPT,002.6,-1.0,*40
$IIGLL,5450.267,N,00931.382,E,091621,A,A*47
$IIHDG,060,,,,*4B
$IIMTW,+20.5,C*4E
$IIMWV,198,R,03.2,N,A*4C
$IIMWV,198,T,03.2,N,A*4C
$IIRMC,091622,A,5450.267,N,00931.383,E,00.2,334,310713,,,A*5C
$IIVHW,,,060,M,00.0,N,,*49
$IIVLW,01318,N,000.0,N*4D
$IIVWR,170,R,03.3,N,,,,*53
$IIDPT,002.6,-1.0,*40
$IIRMB,A,9.00,R,,VIDY,,,,,003.16,281,,V,A*6D
$IIHDG,060,,,,*4B
$IIMTW,+20.5,C*4E
$IIMWV,162,R,03.1,N,A*4C
$IIMWV,170,T,03.3,N,A*4C
$IIRMC,091623,A,5450.267,N,00931.383,E,00.2,334,310713,,,A*5C
$IIVHW,,,060,M,00.0,N,,*49
$IIVLW,01318,N,000.0,N*4D
$IIVWR,162,R,03.1,N,,,,*53
$IIDPT,002.6,-1.0,*40
$IIGLL,5450.267,N,00931.383,E,091623,A,A*47
$IIHDG,060,,,,*4B
$IIMTW,+20.5,C*4E
$IIMWV,141,R,03.5,N,A*4C
$IIMWV,162,T,03.1,N,A*4C
$IIRMC,091624,A,5450.267,N,00931.383,E,00.2,334,310713,,,A*5C
$IIVHW,,,060,M,00.0,N,,*49
$IIVLW,01318,N,000.0,N*4D
$IIVWR,141,R,03.5,N,,,,*53
$IIDPT,002.6,-1.0,*40
$IIGLL,5450.267,N,00931.383,E,091624,A,A*47
$IIHDG,059,,,,*4B
$IIMTW,+20.5,C*4E
$IIMWV,144,R,04.2,N,A*4C
$IIMWV,141,T,03.5,N,A*4C
$IIRMC,091625,A,5450.267,N,00931.383,E,00.2,334,310713,,,A*5C
$IIVHW,,,059,M,00.0,N,,*49
$IIVLW,01318,N,000.0,N*4D
$IIRMB,A,0.00,R,,VIDY,,,,,003.16,281,,V,A*64
$IIDPT,002.6,-1.0,*40
$IIGLL,5450.267,N,00931.384,E,091626,A,A*47
$IIHDG,061,,,,*4B
$IIMTW,+20.5,C*4E
$IIMWV,145,R,04.3,N,A*4C
$IIMWV,144,T,04.2,N,A*4C
$IIRMC,091626,A,5450.267,N,00931.384,E,00.2,334,310713,,,A*5C
$IIVHW,,,061,M,00.0,N,,*49
$IIVLW,01318,N,000.0,N*4D
$IIVWR,145,R,04.3,N,,,,*53
$IIDPT,002.6,-1.0,*40
$IIGLL,5450.267,N,00931.384,E,091627,A,A*47
$IIHDG,060,,,,*4B
$IIMTW,+20.5,C*4E
$IIMWV,126,R,04.1,N,A*4C
$IIMWV,145,T,04.3,N,A*4C
$IIRMC,091627,A,5450.267,N,00931.384,E,00.2,334,310713,,,A*5C
$IIVHW,,,060,M,00.0,N,,*49
$IIVLW,01318,N,000.0,N*4D
$IIVWR,117,R,03.5,N,,,,*53
$IIDPT,002.6,-1.0,*40
$IIGLL,5450.267,N,00931.384,E,091628,A,A*47
$IIHDG,060,,,,*4B
$IIMTW,+20.5,C*4E
$IIMWV,117,R,03.5,N,A*4C
$IIMWV,126,T,04.1,N,A*4C
$IIRMB,A,1.00,R,,VIDY,,,,,003.16,281,,V,A*65
$IIVHW,,,060,M,00.0,N,,*49
$IIVLW,01318,N,000.0,N*4D
$IIVWR,136,R,03.4,N,,,,*53
$IIDPT,002.6,-1.0,*40
$IIGLL,5450.267,N,00931.384,E,091629,A,A*47
$IIHDG,060,,,,*4B
$IIMTW,+18.0,C*4E
$IIMWV,136,R,03.4,N,A*4C
$IIMWV,117,T,03.5,N,A*4C
$IIRMC,091629,A,5450.267,N,00931.384,E,00.2,334,310713,,,A*5C
$IIVHW,,,060,M,00.0,N,,*49
$IIVLW,01318,N,000.0,N*4D
$IIVWR,163,R,03.0,N,,,,*53
$IIDPT,002.6,-1.0,*40
$IIGLL,5450.267,N,00931.384,E,091630,A,A*47
$IIHDG,060,,,,*4B
$IIMTW,+20.0,C*4E
$IIMWV,163,R,03.0,N,A*4C
$IIMWV,136,T,03.4,N,A*4C
$IIRMC,091631,A,5450.267,N,00931.384,E,00.2,334,310713,,,A*5C
$IIVHW,,,060,M,00.0,N,,*49
$IIVLW,01318,N,000.0,N*4D
$IIVWR,160,R,02.9,N,,,,*53
$IIDPT,002.6,-1.0,*40
$IIGLL,5450.267,N,00931.384,E,091631,A,A*47
$IIRMB,A,2.00,R,,VIDY,,,,,003.16,281,,V,A*66
$IIMTW,+20.0,C*4E
$IIMWV,160,R,02.9,N,A*4C
$IIMWV,160,T,02.9,N,A*4C
$IIRMC,091632,A,5450.267,N,00931.384,E,00.2,334,310713,,,A*5C
$IIVHW,,,061,M,00.0,N,,*49
$IIVLW,01318,N,000.0,N*4D
$IIVWR,019,R,02.7,N,,,,*53
$IIDPT,002.6,-1.0,*40
$IIGLL,5450.267,N,00931.384,E,091632,A,A*47
$IIHDG,061,,,,*4B
$IIMTW,+20.0,C*4E
$IIMWV,289,R,02.5,N,A*4C
$IIMWV,019,T,02.7,N,A*4C
$IIRMC,091633,A,5450.267,N,00931.384,E,00.2,334,310713,,,A*5C
$IIVHW,,,060,M,00.0,N,,*49
$IIVLW,01318,N,000.0,N*4D
$IIVWR,071,L,02.5,N,,,,*53
$IIDPT,002.6,-1.0,*40
$IIGLL,5450.267,N,00931.384,E,091633,A,A*47
$IIHDG,060,,,,*4B
$IIMTW,+20.0,C*4E
$IIMWV,237,R,02.5,N,A*4C
$IIMWV,289,T,02.5,N,A*4C
$IIRMC,091634,A,5450.267,N,00931.384,E,00.2,334,310713,,,A*5C
$IIVHW,,,059,M,00.0,N,,*49
$IIVLW,01318,N,000.0,N*4D
$IIVWR,123,L,02.5,N,,,,*53
$IIRMB,A,3.00,R,,VIDY,,,,,003.16,281,,V,A*67
$IIGLL,5450.267,N,00931.384,E,091634,A,A*47
$IIHDG,059,,,,*4B
$IIMTW,+20.0,C*4E
$IIMWV,233,R,02.9,N,A*4C
$IIMWV,237,T,02.5,N,A*4C
$IIRMC,091635,A,5450.267,N,00931.384,E,00.2,334,310713,,,A*5C
$IIVHW,,,059,M,00.0,N,,*49
$IIVLW,01318,N,000.0,N*4D
$IIVWR,127,L,02.9,N,,,,*53
$IIDPT,002.6,-1.0,*40
$IIGLL,5450.267,N,00931.384,E,091636,A,A*47
$IIHDG,059,,,,*4B
$IIMTW,+20.0,C*4E
$IIMWV,000,R,00.0,N,A*4C
$IIMWV,233,T,02.9,N,A*4C
$IIRMC,091636,A,5450.267,N,00931.384,E,00.2,334,310713,,,A*5C
$IIVHW,,,059,M,00.0,N,,*49
$IIVLW,01318,N,000.0,N*4D
$IIVWR,000,R,00.0,N,,,,*53
$IIDPT,002.6,-1.0,*40
$IIGLL,5450.267,N,00931.384,E,091637,A,A*47
$IIHDG,059,,,,*4B
$IIMTW,+20.0,C*4E
$IIMWV,254,R,03.1,N,A*4C
$IIMWV,000,T,00.0,N,A*4C
$IIRMC,091637,A,5450.267,N,00931.384,E,00.2,334,310713,,,A*5C
$IIRMB,A,4.00,R,,VIDY,,,,,003.16,281,,V,A*60
$IIVHW,,,059,M,00.0,N,,*49
$IIVLW,01318,N,000.0,N*4D
$IIVWR,103,L,03.1,N,,,,*53
$IIDPT,002.6,-1.0,*40
$IIGLL,5450.267,N,00931.384,E,091638,A,A*47
$IIHDG,059,,,,*4B
$IIMTW,+20.5,C*4E
$IIMWV,257,R,03.1,N,A*4C
$IIMWV,254,T,03.1,N,A*4C
$IIRMC,091638,A,5450.267,N,00931.384,E,00.2,336,310713,,,A*5C
$IIVHW,,,059,M,00.0,N,,*49
$IIVLW,01318,N,000.0,N*4D
$IIVWR,107,L,03.0,N,,,,*53
$IIDPT,002.6,-1.0,*40
$IIGLL,5450.267,N,00931.384,E,091639,A,A*47
$IIHDG,061,,,,*4B
$IIMTW,+20.5,C*4E
$IIMWV,253,R,03.0,N,A*4C
$IIMWV,257,T,03.1,N,A*4C
$IIRMC,091639,A,5450.267,N,00931.384,E,00.2,337,310713,,,A*5C
$IIVHW,,,061,M,00.0,N,,*49
$IIVLW,01318,N,000.0,N*4D
$IIVWR,100,L,03.0,N,,,,*53
$IIDPT,002.6,-1.0,*40
$IIGLL,5450.267,N,00931.383,E,091640,A,A*47
$IIHDG,061,,,,*4B
$IIMTW,+20.5,C*4E
$IIMWV,260,R,03.0,N,A*4C
$IIRMB,A,5.00,R,,VIDY,,,,,003.16,281,,V,A*61
$IIRMC,091641,A,5450.267,N,00931.383,E,00.2,340,310713,,,A*5C
$IIVHW,,,062,M,00.0,N,,*49
$IIVLW,01318,N,000.0,N*4D
$IIVWR,000,R,00.0,N,,,,*53
$IIDPT,002.6,-1.0,*40
$IIGLL,5450.267,N,00931.383,E,091641,A,A*47
$IIHDG,062,,,,*4B
$IIMTW,+20.5,C*4E
$IIMWV,000,R,00.0,N,A*4C
$IIMWV,000,T,00.0,N,A*4C
$IIRMC,091642,A,5450.267,N,00931.383,E,00.3,341,310713,,,A*5C
$IIVHW,,,061,M,00.0,N,,*49
$IIVLW,01318,N,000.0,N*4D
$IIVWR,000,R,00.0,N,,,,*53
$IIDPT,002.6,-1.0,*40
$IIGLL,5450.267,N,00931.383,E,091642,A,A*47
$IIHDG,061,,,,*4B
$IIMTW,+20.5,C*4E
$IIMWV,295,R,02.9,N,A*4C
$IIMWV,000,T,00.0,N,A*4C
$IIRMC,091643,A,5450.267,N,00931.383,E,00.3,342,310713,,,A*5C
$IIVHW,,,061,M,00.0,N,,*49
$IIVLW,01318,N,000.0,N*4D
$IIVWR,065,L,02.9,N,,,,*53
$IIDPT,002.6,-1.0,*40
$IIRMB,A,6.00,R,,VIDY,,,,,003.16,281,,V,A*62
$IIGLL,5450.267,N,00931.383,E,091643,A,A*47
$IIHDG,061,,,,*4B
$IIMTW,+20.5,C*4E
$IIMWV,298,R,02.7,N,A*4C
$IIMWV,295,T,02.9,N,A*4C
$IIRMC,091644,A,5450.267,N,00931.383,E,00.3,343,310713,,,A*5C
$IIVHW,,,061,M,00.0,N,,*49
$IIVLW,01318,N,000.0,N*4D
$IIVWR,062,L,02.7,N,,,,*53
$IIDPT,002.6,-1.0,*40
$IIGLL,5450.267,N,00931.383,E,091644,A,A*47
$IIHDG,062,,,,*4B
$IIMTW,+20.5,C*4E
$IIMWV,300,R,02.6,N,A*4C
$IIMWV,298,T,02.7,N,A*4C
$IIRMC,091645,A,5450.268,N,00931.383,E,00.3,342,310713,,,A*5C
$IIVHW,,,062,M,00.0,N,,*49
$IIVLW,01318,N,000.0,N*4D
$IIVWR,060,L,02.6,N,,,,*53
$IIDPT,002.6,-1.0,*40
$IIGLL,5450.267,N,00931.383,E,091646,A,A*47
$IIHDG,062,,,,*4B
$IIMTW,+20.5,C*4E
$IIMWV,308,R,02.6,N,A*4C
$IIMWV,300,T,02.6,N,A*4C
$IIRMC,091646,A,5450.267,N,00931.383,E,00.3,342,310713,,,A*5C
$IIRMB,A,7.00,R,,VIDY,,,,,003.16,281,,V,A*63
$IIVLW,01318,N,000.0,N*4D
$IIVWR,052,L,02.6,N,,,,*53
$IIDPT,002.6,-1.0,*40
$IIGLL,5450.267,N,00931.383,E,091647,A,A*47
$IIHDG,061,,,,*4B
$IIMTW,+20.5,C*4E
$IIMWV,320,R,02.4,N,A*4C
$IIMWV,308,T,02.6,N,A*4C
$IIRMC,091647,A,5450.267,N,00931.383,E,00.3,342,310713,,,A*5C
$IIVHW,,,061,M,00.0,N,,*49
$IIVLW,01318,N,000.0,N*4D
$IIVWR,026,L,02.0,N,,,,*53
$IIDPT,002.6,-1.0,*40
$IIGLL,5450.267,N,00931.383,E,091648,A,A*47
$IIHDG,060,,,,*4B
$IIMTW,+20.5,C*4E
$IIMWV,334,R,02.0,N,A*4C
$IIMWV,320,T,02.4,N,A*4C
$IIRMC,091648,A,5450.267,N,00931.383,E,00.3,342,310713,,,A*5C
$IIVHW,,,060,M,00.0,N,,*49
$IIVLW,01318,N,000.0,N*4D
$IIVWR,011,L,02.0,N,,,,*53
$IIDPT,002.6,-1.0,*40
$IIGLL,5450.267,N,00931.383,E,091649,A,A*47
$IIHDG,060,,,,*4B
$IIMTW,+20.5,C*4E
$IIMWV,349,R,02.0,N,A*4C
$IIMWV,334,T,02.0,N,A*4C
$IIRMB,A,8.00,R,,VIDY,,,,,003.16,281,,V,A*6C
$IIVHW,,,059,M,00.0,N,,*49
$IIVLW,01318,N,000.0,N*4D
$IIVWR,006,R,01.6,N,,,,*53
$IIDPT,002.6,-1.0,*40
$IIGLL,5450.267,N,00931.383,E,091650,A,A*47
$IIHDG,059,,,,*4B
$IIMTW,+20.5,C*4E
$IIMWV,006,R,01.6,N,A*4C
$IIMWV,349,T,02.0,N,A*4C
$IIRMC,091651,A,5450.267,N,00931.383,E,00.3,342,310713,,,A*5C
$IIVHW,,,059,M,00.0,N,,*49
$IIVLW,01318,N,000.0,N*4D
$IIVWR,018,R,01.8,N,,,,*53
$IIDPT,002.6,-1.0,*40
$IIGLL,5450.267,N,00931.383,E,091651,A,A*47
$IIHDG,059,,,,*4B
$IIMTW,+20.5,C*4E
$IIMWV,018,R,01.8,N,A*4C
$IIMWV,018,T,01.8,N,A*4C
$IIRMC,091652,A,5450.267,N,00931.383,E,00.3,342,310713,,,A*5C
$IIVHW,,,060,M,00.0,N,,*49
$IIVLW,01318,N,000.0,N*4D
$IIVWR,022,R,01.4,N,,,,*53
$IIDPT,002.6,-1.0,*40
$IIRMB,A,9.00,R,,VIDY,,,,,003.16,281,,V,A*6D
$IIHDG,060,,,,*4B
$IIMTW,+20.5,C*4E
$IIMWV,028,R,01.5,N,A*4C
$IIMWV,022,T,01.4,N,A*4C
$IIRMC,091653,A,5450.267,N,00931.383,E,00.3,342,310713,,,A*5C
$IIVHW,,,060,M,00.0,N,,*49
$IIVLW,01318,N,000.0,N*4D
$IIVWR,028,R,01.5,N,,,,*53
$IIDPT,002.6,-1.0,*40
$IIGLL,5450.267,N,00931.383,E,091653,A,A*47
$IIHDG,060,,,,*4B
$IIMTW,+20.5,C*4E
$IIMWV,033,R,01.7,N,A*4C
$IIMWV,028,T,01.5,N,A*4C
$IIRMC,091654,A,5450.267,N,00931.384,E,00.3,342,310713,,,A*5C
$IIVHW,,,060,M,00.0,N,,*49
$IIVLW,01318,N,000.0,N*4D
$IIVWR,033,R,01.7,N,,,,*53
$IIDPT,002.6,-1.0,*40
$IIGLL,5450.267,N,00931.384,E,091654,A,A*47
$IIHDG,062,,,,*4B
$IIMTW,+20.5,C*4E
$IIMWV,035,R,01.4,N,A*4C
$IIMWV,033,T,01.7,N,A*4C
$IIRMC,091655,A,5450.267,N,00931.384,E,00.3,342,310713,,,A*5C
$IIVHW,,,062,M,00.0,N,,*49
$IIVLW,01318,N,000.0,N*4D
$IIRMB,A,0.00,R,,VIDY,,,,,003.16,281,,V,A*64
$IIDPT,002.6,-1.0,*40
$IIGLL,5450.267,N,00931.384,E,091656,A,A*47
$IIHDG,062,,,,*4B
$IIMTW,+20.5,C*4E
$IIMWV,032,R,01.5,N,A*4C
$IIMWV,035,T,01.4,N,A*4C
$IIRMC,091656,A,5450.267,N,00931.384,E,00.3,342,310713,,,A*5C
$IIVHW,,,062,M,00.0,N,,*49
$IIVLW,01318,N,000.0,N*4D
$IIVWR,032,R,01.5,N,,,,*53
$IIDPT,002.6,-1.0,*40
$IIGLL,5450.267,N,00931.384,E,091657,A,A*47
$IIHDG,062,,,,*4B
$IIMTW,+20.5,C*4E
$IIMWV,026,R,01.7,N,A*4C
$IIMWV,032,T,01.5,N,A*4C
$IIRMC,091657,A,5450.267,N,00931.384,E,00.3,342,310713,,,A*5C
$IIVHW,,,062,M,00.0,N,,*49
$IIVLW,01318,N,000.0,N*4D
$IIVWR,028,R,01.3,N,,,,*53
$IIDPT,002.6,-1.0,*40
$IIGLL,5450.267,N,00931.384,E,091658,A,A*47
$IIHDG,062,,,,*4B
$IIMTW,+20.5,C*4E
$IIMWV,028,R,01.3,N,A*4C
$IIMWV,026,T,01.7,N,A*4C
$IIRMB,A,1.00,R,,VIDY,,,,,003.16,281,,V,A*65
$IIVHW,,,062,M,00.0,N,,*49
$IIVLW,01318,N,000.0,N*4D
$IIVWR,038,R,01.5,N,,,,*53
$IIDPT,002.6,-1.0,*40
$IIGLL,5450.267,N,00931.384,E,091659,A,A*47
$IIHDG,062,,,,*4B
$IIMTW,+20.5,C*4E
$IIMWV,038,R,01.5,N,A*4C
$IIMWV,028,T,01.3,N,A*4C
$IIRMC,091659,A,5450.267,N,00931.384,E,00.3,342,310713,,,A*5C
$IIVHW,,,062,M,00.0,N,,*49
$IIVLW,01318,N,000.0,N*4D
$IIVWR,000,R,00.0,N,,,,*53
$IIDPT,002.6,-1.0,*40
$IIGLL,5450.268,N,00931.383,E,091700,A,A*47
$IIHDG,062,,,,*4B
$IIMTW,+20.5,C*4E
$IIMWV,000,R,00.0,N,A*4C
$IIMWV,038,T,01.5,N,A*4C
$IIRMC,091701,A,5450.268,N,00931.383,E,00.3,342,310713,,,A*5C
$IIVHW,,,061,M,00.0,N,,*49
$IIVLW,01318,N,000.0,N*4D
$IIVWR,059,R,01.4,N,,,,*53
$IIDPT,002.6,-1.0,*40
$IIGLL,5450.268,N,00931.383,E,091701,A,A*47
$IIRMB,A,2.00,R,,VIDY,,,,,003.16,281,,V,A*66
$IIMTW,+20.5,C*4E
$IIMWV,059,R,01.4,N,A*4C
$IIMWV,059,T,01.4,N,A*4C
$IIRMC,091702,A,5450.268,N,00931.383,E,00.3,342,310713,,,A*5C
$IIVHW,,,060,M,00.0,N,,*49
$IIVLW,01318,N,000.0,N*4D
$IIVWR,061,R,01.1,N,,,,*53
$IIDPT,002.6,-1.0,*40
$IIGLL,5450.268,N,00931.383,E,091702,A,A*47
$IIHDG,060,,,,*4B
$IIMTW,+20.5,C*4E
$IIMWV,061,R,01.3,N,A*4C
$IIMWV,061,T,01.1,N,A*4C
$IIRMC,091703,A,5450.268,N,00931.383,E,00.3,342,310713,,,A*5C
$IIVHW,,,060,M,00.0,N,,*49
$IIVLW,01318,N,000.0,N*4D
$IIVWR,061,R,01.3,N,,,,*53
$IIDPT,002.6,-1.0,*40
$IIGLL,5450.268,N,00931.383,E,091703,A,A*47
$IIHDG,060,,,,*4B
$IIMTW,+20.5,C*4E
$IIMWV,056,R,01.0,N,A*4C
$IIMWV,061,T,01.3,N,A*4C
$IIRMC,091704,A,5450.268,N,00931.383,E,00.3,342,310713,,,A*5C
$IIVHW,,,060,M,00.0,N,,*49
$IIVLW,01318,N,000.0,N*4D
$IIVWR,056,R,01.0,N,,,,*53
$IIRMB,A,3.00,R,,VIDY,,,,,003.16,281,,V,A*67
$IIGLL,5450.268,N,00931.383,E,091704,A,A*47
$IIHDG,060,,,,*4B
$IIMTW,+20.5,C*4E
$IIMWV,067,R,00.8,N,A*4C
$IIMWV,056,T,01.0,N,A*4C
$IIRMC,091705,A,5450.267,N,00931.383,E,00.3,342,310713,,,A*5C
$IIVHW,,,060,M,00.0,N,,*49
$IIVLW,01318,N,000.0,N*4D
$IIVWR,067,R,00.8,N,,,,*53
$IIDPT,002.6,-1.0,*40
$IIGLL,5450.267,N,00931.382,E,091706,A,A*47
$IIHDG,061,,,,*4B
$IIMTW,+20.5,C*4E
$IIMWV,087,R,01.1,N,A*4C
$IIMWV,067,T,00.8,N,A*4C
$IIRMC,091706,A,5450.267,N,00931.382,E,00.3,342,310713,,,A*5C
$IIVHW,,,061,M,00.0,N,,*49
$IIVLW,01318,N,000.0,N*4D
$IIVWR,087,R,01.1,N,,,,*53
$IIDPT,002.6,-1.0,*40
$IIGLL,5450.267,N,00931.382,E,091707,A,A*47
$IIHDG,062,,,,*4B
$IIMTW,+18.0,C*4E
$IIMWV,101,R,01.3,N,A*4C
$IIMWV,087,T,01.1,N,A*4C
$IIRMC,091707,A,5450.267,N,00931.382,E,00.3,342,310713,,,A*5C
$IIRMB,A,4.00,R,,VIDY,,,,,003.16,281,,V,A*60
$IIVHW,,,062,M,00.0,N,,*49
$IIVLW,01318,N,000.0,N*4D
$IIVWR,173,R,01.6,N,,,,*53
$IIDPT,002.6,-1.0,*40
$IIGLL,5450.267,N,00931.382,E,091708,A,A*47
$IIHDG,063,,,,*4B
$IIMTW,+20.0,C*4E
$IIMWV,173,R,01.6,N,A*4C
$IIMWV,101,T,01.3,N,A*4C
$IIRMC,091708,A,5450.267,N,00931.382,E,00.3,342,310713,,,A*5C
$IIVHW,,,063,M,00.0,N,,*49
$IIVLW,01318,N,000.0,N*4D
$IIVWR,180,R,01.8,N,,,,*53
$IIDPT,002.6,-1.0,*40
$IIGLL,5450.267,N,00931.382,E,091709,A,A*47
$IIHDG,064,,,,*4B
$IIMTW,+20.5,C*4E
$IIMWV,180,R,01.8,N,A*4C
$IIMWV,173,T,01.6,N,A*4C
$IIRMC,091709,A,5450.267,N,00931.382,E,00.3,342,310713,,,A*5C
$IIVHW,,,064,M,00.0,N,,*49
$IIVLW,01318,N,000.0,N*4D
$IIVWR,160,L,02.0,N,,,,*53
$IIDPT,002.6,-1.0,*40
$IIGLL,5450.267,N,00931.382,E,091710,A,A*47
$IIHDG,064,,,,*4B
$IIMTW,+20.5,C*4E
$IIMWV,200,R,02.0,N,A*4C
$IIRMB,A,5.00,R,,VIDY,,,,,003.16,281,,V,A*61
$IIRMC,091711,A,5450.266,N,00931.382,E,00.3,342,310713,,,A*5C
$IIVHW,,,064,M,00.0,N,,*49
$IIVLW,01318,N,000.0,N*4D
$IIVWR,141,L,02.4,N,,,,*53
$IIDPT,002.6,-1.0,*40
$IIGLL,5450.266,N,00931.382,E,091711,A,A*47
$IIHDG,064,,,,*4B
$IIMTW,+20.5,C*4E
$IIMWV,219,R,02.4,N,A*4C
$IIMWV,219,T,02.4,N,A*4C
$IIRMC,091712,A,5450.266,N,00931.382,E,00.3,342,310713,,,A*5C
$IIVHW,,,064,M,00.0,N,,*49
$IIVLW,01318,N,000.0,N*4D
$IIVWR,139,L,02.4,N,,,,*53
