$IIMTW,+15.5,C*39
$IIMWV,032,R,07.4,N,A*11
$IIMWV,055,T,04.7,N,A*16
$IIVHW,,,342,M,03.3,N,,*61
$IIVWR,032,R,07.4,N,,,,*63
$IIDPT,007.4,-1.0,*43
$IIHDG,342,,,,*52
$IIMTW,+15.5,C*39
$IIMWV,031,R,07.5,N,A*13
$IIMWV,054,T,04.8,N,A*18
$IIVHW,,,343,M,03.3,N,,*60
$IIVWR,031,R,07.5,N,,,,*61
$IIDPT,007.4,-1.0,*43
$IIHDG,343,,,,*53
$IIMTW,+15.5,C*39
$IIMWV,028,R,07.5,N,A*1B
$IIMWV,052,T,04.9,N,A*1F
$IIVHW,,,351,M,03.3,N,,*63
$IIVWR,028,R,07.5,N,,,,*69
$IIDPT,007.4,-1.0,*43
$IIHDG,351,,,,*50
$IIMTW,+15.5,C*39
$IIMWV,027,R,07.5,N,A*14
$IIMWV,048,T,04.7,N,A*1A
$IIVHW,,,356,M,03.3,N,,*64
$IIVWR,027,R,07.5,N,,,,*66
$IIDPT,007.4,-1.0,*43
$IIHDG,356,,,,*57
$IIMTW,+15.5,C*39
$IIMWV,023,R,07.9,N,A*1C
$IIMWV,046,T,04.5,N,A*16
$IIVHW,,,008,M,03.3,N,,*6C
$IIVWR,023,R,07.9,N,,,,*6E
$IIDPT,007.4,-1.0,*43
$IIHDG,008,,,,*5F
$IIMTW,+15.5,C*39
$IIMWV,020,R,07.8,N,A*1E
$IIMWV,038,T,04.8,N,A*12
$IIVHW,,,013,M,03.3,N,,*66
$IIVWR,020,R,07.8,N,,,,*6C
$IIDPT,007.5,-1.0,*42
$IIHDG,013,,,,*55
$IIMTW,+15.5,C*39
$IIMWV,018,R,07.8,N,A*15
$IIMWV,033,T,04.7,N,A*16
$IIVHW,,,020,M,03.1,N,,*64
$IIVWR,018,R,07.8,N,,,,*67
$IIDPT,007.5,-1.0,*42
$IIHDG,020,,,,*55
$IIMTW,+15.5,C*39
$IIMWV,012,R,08.0,N,A*18
$IIMWV,029,T,04.9,N,A*13
$IIVHW,,,025,M,03.1,N,,*61
$IIVWR,012,R,08.0,N,,,,*6A
$IIDPT,007.5,-1.0,*42
$IIHDG,025,,,,*50
$IIMTW,+15.5,C*39
$IIMWV,010,R,07.9,N,A*1C
$IIMWV,019,T,04.9,N,A*10
$IIVHW,,,030,M,03.0,N,,*64
$IIVWR,010,R,07.9,N,,,,*6E
$IIDPT,007.5,-1.0,*42
$IIHDG,030,,,,*54
$IIMTW,+15.5,C*39
$IIMWV,008,R,07.8,N,A*14
$IIMWV,016,T,04.7,N,A*11
$IIVHW,,,031,M,03.0,N,,*65
$IIVWR,008,R,07.8,N,,,,*66
$IIDPT,007.5,-1.0,*42
$IIHDG,031,,,,*55
$IIMTW,+15.5,C*39
$IIMWV,005,R,07.7,N,A*16
$IIMWV,012,T,04.8,N,A*1A
$IIVHW,,,032,M,03.0,N,,*66
$IIVWR,005,R,07.7,N,,,,*64
$IIDPT,007.5,-1.0,*42
$IIHDG,032,,,,*56
$IIMTW,+15.5,C*39
$IIMWV,001,R,07.6,N,A*13
$IIMWV,007,T,04.7,N,A*11
$IIVHW,,,032,M,02.9,N,,*6E
$IIVWR,001,R,07.6,N,,,,*61
$IIDPT,007.5,-1.0,*42
$IIHDG,032,,,,*56
$IIMTW,+15.5,C*39
$IIMWV,000,R,07.6,N,A*12
$IIMWV,001,T,04.6,N,A*16
$IIVHW,,,034,M,02.9,N,,*68
$IIVWR,000,R,07.6,N,,,,*60
$IIDPT,007.5,-1.0,*42
$IIHDG,034,,,,*50
$IIMTW,+15.5,C*39
$IIMWV,357,R,07.6,N,A*13
$IIMWV,000,T,04.7,N,A*16
$IIVHW,,,038,M,02.8,N,,*65
$IIVWR,003,L,07.6,N,,,,*7D
$IIDPT,007.5,-1.0,*42
$IIHDG,038,,,,*5C
$IIMTW,+15.5,C*39
$IIMWV,356,R,07.5,N,A*11
$IIMWV,356,T,04.7,N,A*16
$IIVHW,,,043,M,02.8,N,,*69
$IIVWR,004,L,07.5,N,,,,*79
$IIDPT,007.5,-1.0,*42
$IIHDG,043,,,,*50
$IIMTW,+15.5,C*39
$IIMWV,353,R,07.6,N,A*17
$IIMWV,354,T,04.7,N,A*14
$IIVHW,,,046,M,02.7,N,,*63
$IIVWR,007,L,07.6,N,,,,*79
$IIDPT,007.5,-1.0,*42
$IIHDG,046,,,,*55
$IIMTW,+16.0,C*3F
$IIMWV,350,R,07.3,N,A*11
$IIMWV,349,T,04.7,N,A*18
$IIVHW,,,051,M,02.6,N,,*64
$IIVWR,010,L,07.3,N,,,,*7A
$IIDPT,007.5,-1.0,*42
$IIHDG,051,,,,*53
$IIMTW,+16.0,C*3F
$IIMWV,348,R,07.4,N,A*1F
$IIMWV,345,T,04.5,N,A*16
$IIVHW,,,053,M,02.6,N,,*66
$IIVWR,012,L,07.4,N,,,,*7F
$IIDPT,007.5,-1.0,*42
$IIHDG,053,,,,*51
$IIMTW,+15.5,C*39
$IIMWV,349,R,07.1,N,A*1B
$IIMWV,342,T,04.8,N,A*1C
$IIVHW,,,060,M,02.6,N,,*66
$IIVWR,011,L,07.1,N,,,,*79
$IIDPT,007.5,-1.0,*42
$IIHDG,060,,,,*51
$IIMTW,+15.5,C*39
$IIMWV,346,R,06.9,N,A*1D
$IIMWV,343,T,04.4,N,A*11
$IIVHW,,,063,M,02.5,N,,*66
$IIVWR,014,L,06.9,N,,,,*75
$IIDPT,007.5,-1.0,*42
$IIHDG,063,,,,*52
$IIMTW,+15.5,C*39
$IIMWV,343,R,06.8,N,A*19
$IIMWV,338,T,04.3,N,A*1A
$IIVHW,,,067,M,02.4,N,,*63
$IIVWR,017,L,06.8,N,,,,*77
$IIDPT,007.5,-1.0,*42
$IIHDG,067,,,,*56
$IIMTW,+15.5,C*39
$IIMWV,340,R,06.6,N,A*14
$IIMWV,335,T,04.4,N,A*10
$IIVHW,,,071,M,02.4,N,,*64
$IIVWR,020,L,06.6,N,,,,*7D
$IIDPT,007.5,-1.0,*42
$IIHDG,071,,,,*51
$IIMTW,+15.5,C*39
$IIMWV,333,R,06.6,N,A*10
$IIMWV,330,T,04.3,N,A*12
$IIVHW,,,075,M,02.3,N,,*67
$IIVWR,027,L,06.6,N,,,,*7A
$IIDPT,007.5,-1.0,*42
$IIHDG,075,,,,*55
$IIMTW,+15.5,C*39
$IIMWV,333,R,06.7,N,A*11
$IIMWV,320,T,04.4,N,A*14
$IIVHW,,,078,M,02.3,N,,*6A
$IIVWR,027,L,06.7,N,,,,*7B
$IIDPT,007.5,-1.0,*42
$IIHDG,078,,,,*58
$IIMTW,+15.5,C*39
$IIMWV,330,R,06.7,N,A*12
$IIMWV,320,T,04.6,N,A*16
$IIVHW,,,079,M,02.2,N,,*6A
$IIVWR,030,L,06.7,N,,,,*7D
$IIDPT,007.5,-1.0,*42
$IIHDG,079,,,,*59
$IIMTW,+15.5,C*39
$IIMWV,329,R,06.7,N,A*1A
$IIMWV,317,T,04.8,N,A*1C
$IIVHW,,,082,M,02.2,N,,*6E
$IIVWR,031,L,06.7,N,,,,*7C
$IIDPT,007.5,-1.0,*42
$IIHDG,082,,,,*5D
$IIMTW,+15.5,C*39
$IIMWV,327,R,06.7,N,A*14
$IIMWV,316,T,04.8,N,A*1D
$IIVHW,,,081,M,02.2,N,,*6D
$IIVWR,033,L,06.7,N,,,,*7E
$IIDPT,007.5,-1.0,*42
$IIHDG,081,,,,*5E
$IIMTW,+15.5,C*39
$IIMWV,325,R,06.7,N,A*16
$IIMWV,313,T,04.9,N,A*19
$IIVHW,,,085,M,02.1,N,,*6A
$IIVWR,035,L,06.7,N,,,,*78
$IIDPT,007.5,-1.0,*42
$IIHDG,085,,,,*5A
$IIMTW,+15.5,C*39
$IIMWV,326,R,06.3,N,A*11
$IIMWV,310,T,04.9,N,A*1A
$IIVHW,,,086,M,02.1,N,,*69
$IIVWR,034,L,06.3,N,,,,*7D
$IIDPT,007.5,-1.0,*42
$IIHDG,086,,,,*59
$IIMTW,+15.5,C*39
$IIMWV,322,R,06.4,N,A*12
$IIMWV,311,T,04.6,N,A*14
$IIVHW,,,088,M,02.1,N,,*67
$IIVWR,038,L,06.4,N,,,,*76
$IIDPT,007.5,-1.0,*42
$IIHDG,088,,,,*57
$IIMTW,+15.5,C*39
$IIMWV,322,R,06.4,N,A*12
$IIMWV,307,T,04.8,N,A*1D
$IIVHW,,,091,M,02.0,N,,*6E
$IIVWR,038,L,06.4,N,,,,*76
$IIDPT,007.5,-1.0,*42
$IIHDG,091,,,,*5F
$IIMTW,+15.5,C*39
$IIMWV,323,R,06.4,N,A*13
$IIMWV,308,T,04.9,N,A*13
$IIVHW,,,094,M,01.7,N,,*6F
$IIVWR,042,L,06.2,N,,,,*7D
$IIDPT,007.5,-1.0,*42
$IIHDG,094,,,,*5A
$IIMTW,+15.5,C*39
$IIMWV,318,R,06.2,N,A*1D
$IIMWV,312,T,05.0,N,A*10
$IIVHW,,,095,M,01.8,N,,*61
$IIVWR,044,L,06.7,N,,,,*7E
$IIDPT,007.5,-1.0,*42
$IIHDG,095,,,,*5B
$IIMTW,+15.5,C*39
$IIMWV,316,R,06.7,N,A*16
$IIMWV,303,T,04.9,N,A*18
$IIVHW,,,097,M,01.9,N,,*62
$IIVWR,045,L,06.7,N,,,,*7F
$IIDPT,007.5,-1.0,*42
$IIHDG,097,,,,*59
$IIMTW,+15.5,C*39
$IIMWV,315,R,06.7,N,A*15
$IIMWV,302,T,05.4,N,A*15
$IIVHW,,,099,M,01.9,N,,*6C
$IIVWR,045,L,06.3,N,,,,*7B
$IIDPT,007.5,-1.0,*42
$IIHDG,099,,,,*57
$IIMTW,+15.5,C*39
$IIMWV,315,R,06.3,N,A*11
$IIMWV,301,T,05.4,N,A*16
$IIVHW,,,101,M,02.0,N,,*66
$IIVWR,049,L,06.4,N,,,,*70
$IIDPT,007.5,-1.0,*42
$IIHDG,101,,,,*57
$IIMTW,+15.5,C*39
$IIMWV,311,R,06.4,N,A*12
$IIMWV,299,T,05.0,N,A*12
$IIVHW,,,105,M,02.0,N,,*62
$IIVWR,052,L,06.2,N,,,,*7C
$IIDPT,007.5,-1.0,*42
$IIHDG,105,,,,*53
$IIMTW,+15.5,C*39
$IIMWV,308,R,06.2,N,A*1C
$IIMWV,295,T,05.2,N,A*1C
$IIVHW,,,107,M,02.0,N,,*60
$IIVWR,052,L,06.3,N,,,,*7D
$IIDPT,007.5,-1.0,*42
$IIHDG,107,,,,*51
$IIMTW,+15.5,C*39
$IIMWV,308,R,06.3,N,A*1D
$IIMWV,291,T,05.1,N,A*1B
$IIVHW,,,109,M,02.1,N,,*6F
$IIVWR,055,L,06.3,N,,,,*7A
$IIDPT,007.5,-1.0,*42
$IIHDG,109,,,,*5F
$IIMTW,+15.5,C*39
$IIMWV,305,R,06.3,N,A*10
$IIMWV,290,T,05.2,N,A*19
$IIVHW,,,111,M,02.1,N,,*66
$IIVWR,057,L,06.5,N,,,,*7E
$IIDPT,007.5,-1.0,*42
$IIHDG,111,,,,*56
$IIMTW,+15.5,C*39
$IIMWV,303,R,06.5,N,A*10
$IIMWV,285,T,05.2,N,A*1D
$IIVHW,,,112,M,02.1,N,,*65
$IIVWR,057,L,06.6,N,,,,*7D
$IIDPT,007.5,-1.0,*42
$IIHDG,112,,,,*55
$IIMTW,+15.5,C*39
$IIMWV,303,R,06.6,N,A*13
$IIMWV,285,T,05.5,N,A*1A
$IIVHW,,,112,M,02.1,N,,*65
$IIVWR,059,L,06.6,N,,,,*73
$IIDPT,007.5,-1.0,*42
$IIHDG,112,,,,*55
$IIMTW,+15.5,C*39
$IIMWV,301,R,06.6,N,A*11
$IIMWV,283,T,05.6,N,A*1F
$IIVHW,,,114,M,02.2,N,,*60
$IIVWR,059,L,06.7,N,,,,*72
$IIDPT,007.5,-1.0,*42
$IIHDG,114,,,,*53
$IIMTW,+15.0,C*3C
$IIMWV,301,R,06.7,N,A*10
$IIMWV,282,T,05.7,N,A*1F
$IIVHW,,,113,M,02.2,N,,*67
$IIVWR,057,L,06.6,N,,,,*7D
$IIDPT,007.5,-1.0,*42
$IIHDG,113,,,,*54
$IIMTW,+15.0,C*3C
$IIMWV,303,R,06.6,N,A*13
$IIMWV,282,T,05.8,N,A*10
$IIVHW,,,113,M,02.3,N,,*66
$IIVWR,058,L,06.6,N,,,,*72
$IIDPT,007.5,-1.0,*42
$IIHDG,113,,,,*54
$IIMTW,+15.0,C*3C
$IIMWV,302,R,06.6,N,A*12
$IIMWV,282,T,05.6,N,A*1E
$IIVHW,,,116,M,02.3,N,,*63
$IIVWR,061,L,07.0,N,,,,*7F
$IIDPT,007.5,-1.0,*42
$IIHDG,116,,,,*51
$IIMTW,+15.0,C*3C
$IIMWV,299,R,07.0,N,A*16
$IIMWV,281,T,05.7,N,A*1C
$IIVHW,,,117,M,02.3,N,,*62
$IIVWR,058,L,06.8,N,,,,*7C
$IIDPT,007.5,-1.0,*42
$IIHDG,117,,,,*50
$IIMTW,+15.0,C*3C
$IIMWV,302,R,06.8,N,A*1C
$IIMWV,279,T,06.0,N,A*1F
$IIVHW,,,119,M,02.3,N,,*6C
$IIVWR,062,L,06.7,N,,,,*7A
$IIDPT,007.5,-1.0,*42
$IIHDG,119,,,,*5E
$IIMTW,+15.0,C*3C
$IIMWV,298,R,06.7,N,A*11
$IIMWV,282,T,05.8,N,A*10
$IIVHW,,,121,M,02.4,N,,*60
$IIVWR,063,L,06.7,N,,,,*7B
$IIDPT,007.5,-1.0,*42
$IIHDG,121,,,,*55
$IIMTW,+15.0,C*3C
$IIMWV,297,R,06.7,N,A*1E
$IIMWV,277,T,05.8,N,A*1A
$IIVHW,,,125,M,02.5,N,,*65
$IIVWR,062,L,06.7,N,,,,*7A
$IIDPT,007.5,-1.0,*42
$IIHDG,125,,,,*51
$IIMTW,+15.0,C*3C
$IIMWV,298,R,06.7,N,A*11
$IIMWV,276,T,05.9,N,A*1A
$IIVHW,,,127,M,02.5,N,,*67
$IIVWR,063,L,06.4,N,,,,*78
$IIDPT,007.5,-1.0,*42
$IIHDG,127,,,,*53
$IIMTW,+16.0,C*3F
$IIMWV,297,R,06.4,N,A*1D
$IIMWV,276,T,05.8,N,A*1B
$IIVHW,,,130,M,02.6,N,,*62
$IIVWR,066,L,06.5,N,,,,*7C
$IIDPT,007.5,-1.0,*42
$IIHDG,130,,,,*55
$IIMTW,+15.5,C*39
$IIMWV,294,R,06.5,N,A*1F
$IIMWV,272,T,05.6,N,A*11
$IIVHW,,,135,M,02.7,N,,*66
$IIVWR,071,L,06.5,N,,,,*7A
$IIDPT,007.5,-1.0,*42
$IIHDG,135,,,,*50
$IIMTW,+15.5,C*39
$IIMWV,289,R,06.5,N,A*13
$IIMWV,270,T,05.9,N,A*1C
$IIVHW,,,139,M,02.7,N,,*6A
$IIVWR,072,L,06.5,N,,,,*79
$IIDPT,007.5,-1.0,*42
$IIHDG,139,,,,*5C
$IIMTW,+15.5,C*39
$IIMWV,288,R,06.5,N,A*12
$IIMWV,265,T,06.1,N,A*13
$IIVHW,,,141,M,02.8,N,,*6A
$IIVWR,070,L,06.3,N,,,,*7D
$IIDPT,007.5,-1.0,*42
$IIHDG,141,,,,*53
$IIMTW,+15.5,C*39
$IIMWV,290,R,06.3,N,A*1D
$IIMWV,262,T,06.1,N,A*14
$IIVHW,,,143,M,02.8,N,,*68
$IIVWR,076,L,06.3,N,,,,*7B
$IIDPT,007.5,-1.0,*42
$IIHDG,143,,,,*51
$IIMTW,+15.5,C*39
$IIMWV,284,R,06.3,N,A*18
$IIMWV,263,T,05.9,N,A*1E
$IIVHW,,,146,M,02.9,N,,*6C
$IIVWR,082,L,06.2,N,,,,*71
$IIDPT,007.5,-1.0,*42
$IIHDG,146,,,,*54
$IIMTW,+15.5,C*39
$IIMWV,278,R,06.2,N,A*1A
$IIMWV,257,T,06.2,N,A*11
$IIVHW,,,147,M,02.9,N,,*6D
$IIVWR,077,L,06.0,N,,,,*79
$IIDPT,007.5,-1.0,*42
$IIHDG,147,,,,*55
$IIMTW,+15.5,C*39
$IIMWV,283,R,06.0,N,A*1C
$IIMWV,251,T,06.4,N,A*11
$IIVHW,,,147,M,03.0,N,,*65
$IIVWR,079,L,05.8,N,,,,*7C
$IIDPT,007.5,-1.0,*42
$IIHDG,147,,,,*55
$IIMTW,+15.5,C*39
$IIMWV,281,R,05.8,N,A*15
$IIMWV,254,T,06.0,N,A*10
$IIVHW,,,148,M,03.0,N,,*6A
$IIVWR,078,L,06.0,N,,,,*76
$IIDPT,007.5,-1.0,*42
$IIHDG,148,,,,*5A
$IIMTW,+15.5,C*39
$IIMWV,282,R,06.0,N,A*1D
$IIMWV,251,T,05.9,N,A*1F
$IIVHW,,,150,M,03.1,N,,*62
$IIVWR,080,L,06.0,N,,,,*71
$IIDPT,007.5,-1.0,*42
$IIHDG,150,,,,*53
$IIMTW,+15.5,C*39
$IIMWV,280,R,06.0,N,A*1F
$IIMWV,252,T,06.1,N,A*17
$IIVHW,,,151,M,03.1,N,,*63
$IIVWR,076,L,05.9,N,,,,*72
$IIDPT,007.5,-1.0,*42
$IIHDG,154,,,,*57
$IIMTW,+15.5,C*39
$IIMWV,282,R,05.7,N,A*19
$IIMWV,248,T,06.1,N,A*1C
$IIVHW,,,154,M,03.2,N,,*65
$IIVWR,078,L,05.7,N,,,,*72
$IIDPT,007.5,-1.0,*42
$IIHDG,153,,,,*50
$IIMTW,+15.5,C*39
$IIMWV,280,R,05.7,N,A*1B
$IIMWV,248,T,05.9,N,A*17
$IIVHW,,,153,M,03.3,N,,*63
$IIVWR,080,L,05.7,N,,,,*75
$IIDPT,007.4,-1.0,*43
$IIHDG,153,,,,*50
$IIMTW,+16.0,C*3F
$IIMWV,281,R,05.7,N,A*1A
$IIMWV,247,T,06.0,N,A*12
$IIVHW,,,153,M,03.3,N,,*63
$IIVWR,079,L,05.7,N,,,,*73
$IIDPT,007.4,-1.0,*43
$IIHDG,150,,,,*53
$IIMTW,+16.0,C*3F
$IIMWV,283,R,05.6,N,A*19
$IIMWV,247,T,05.9,N,A*18
$IIVHW,,,150,M,03.3,N,,*60
$IIVWR,077,L,05.6,N,,,,*7C
$IIDPT,007.4,-1.0,*43
$IIGLL,4612.939,N,00610.108,E,113704,A,A*5C
$IIHDG,147,,,,*55
$IIMTW,+15.5,C*39
$IIMWV,283,R,05.4,N,A*1B
$IIMWV,248,T,05.8,N,A*16
$IIRMC,113704,A,4612.939,N,00610.108,E,03.5,157,100708,,,A*4E
$IIVHW,,,147,M,03.4,N,,*61
$IIVWR,076,L,05.5,N,,,,*7E
$IIDPT,007.4,-1.0,*43
$IIGLL,4612.939,N,00610.108,E,113704,A,A*5C
$IIHDG,146,,,,*54
$IIMTW,+15.5,C*39
$IIMWV,284,R,05.5,N,A*1D
$IIMWV,246,T,05.6,N,A*16
$IIRMB,A,0.00,L,,OUC ,,,,,025.57,047,-01.3,V,A*39
$IIRMC,113706,A,4612.938,N,00610.112,E,03.7,145,100708,,,A*47
$IIVHW,,,144,M,03.4,N,,*62
$IIVWR,073,L,06.0,N,,,,*7D
$IIDPT,007.4,-1.0,*43
$IIGLL,4612.938,N,00610.112,E,113706,A,A*54
$IIHDG,144,,,,*56
$IIMTW,+15.5,C*39
$IIMWV,287,R,06.0,N,A*18
$IIMWV,253,T,05.9,N,A*1D
$IIRMB,A,0.01,L,,OUC ,,,,,025.57,047,-00.8,V,A*32
$IIRMC,113706,A,4612.938,N,00610.112,E,03.7,145,100708,,,A*47
$IIVHW,,,142,M,03.4,N,,*64
$IIVWR,071,L,05.8,N,,,,*74
$IIDPT,007.4,-1.0,*43
$IIGLL,4612.938,N,00610.112,E,113706,A,A*54
$IIHDG,144,,,,*56
$IIMTW,+15.5,C*39
$IIMWV,289,R,05.9,N,A*1C
$IIMWV,254,T,05.7,N,A*14
$IIRMC,113708,A,4612.937,N,00610.114,E,03.7,145,100708,,,A*40
$IIVHW,,,144,M,03.5,N,,*63
$IIVWR,071,L,05.9,N,,,,*75
$IIDPT,007.4,-1.0,*43
$IIGLL,4612.937,N,00610.114,E,113708,A,A*53
$IIHDG,146,,,,*54
$IIMTW,+15.5,C*39
$IIMWV,288,R,05.9,N,A*1D
$IIMWV,254,T,05.8,N,A*1B
$IIRMB,A,0.01,L,,OUC ,,,,,025.57,047,-00.4,V,A*3E
$IIRMC,113708,A,4612.937,N,00610.114,E,03.7,145,100708,,,A*40
$IIVHW,,,146,M,03.5,N,,*61
$IIVWR,079,L,05.7,N,,,,*73
$IIDPT,007.4,-1.0,*43
$IIGLL,4612.932,N,00610.117,E,113712,A,A*5E
$IIHDG,168,,,,*58
$IIMTW,+16.0,C*3F
$IIMWV,281,R,05.7,N,A*1A
$IIMWV,247,T,05.9,N,A*18
$IIRMB,A,0.01,L,,OUC ,,,,,025.57,047,-00.9,V,A*33
$IIRMC,113712,A,4612.932,N,00610.117,E,04.0,173,100708,,,A*48
$IIVHW,,,175,M,03.6,N,,*62
$IIVWR,081,L,05.5,N,,,,*76
$IIDPT,007.2,-1.0,*45
$IIGLL,4612.932,N,00610.117,E,113712,A,A*5E
$IIHDG,175,,,,*54
$IIMTW,+16.0,C*3F
$IIMWV,279,R,05.5,N,A*1F
$IIMWV,242,T,06.1,N,A*16
$IIRMB,A,0.01,L,,OUC ,,,,,025.57,047,-01.8,V,A*33
$IIRMC,113714,A,4612.930,N,00610.117,E,04.0,178,100708,,,A*47
$IIVHW,,,180,M,03.6,N,,*68
$IIVWR,090,L,05.2,N,,,,*71
$IIDPT,007.2,-1.0,*45
$IIGLL,4612.930,N,00610.117,E,113714,A,A*5A
$IIHDG,185,,,,*5B
$IIMTW,+15.5,C*39
$IIMWV,268,R,04.8,N,A*13
$IIMWV,235,T,06.3,N,A*14
$IIRMB,A,0.01,L,,OUC ,,,,,025.57,047,-02.6,V,A*3E
$IIRMC,113714,A,4612.930,N,00610.117,E,04.0,178,100708,,,A*47
$IIVHW,,,185,M,03.6,N,,*6D
$IIVWR,092,L,04.8,N,,,,*78
$IIDPT,007.2,-1.0,*45
$IIGLL,4612.928,N,00610.117,E,113716,A,A*51
$IIHDG,187,,,,*59
$IIMTW,+15.5,C*39
$IIMWV,261,R,04.5,N,A*17
$IIMWV,232,T,06.1,N,A*11
$IIRMC,113716,A,4612.928,N,00610.117,E,03.9,192,100708,,,A*46
$IIVHW,,,187,M,03.6,N,,*6F
$IIVWR,102,L,04.2,N,,,,*7A
$IIDPT,007.2,-1.0,*45
$IIGLL,4612.928,N,00610.117,E,113716,A,A*51
$IIHDG,189,,,,*57
$IIMTW,+15.5,C*39
$IIMWV,258,R,04.2,N,A*1A
$IIMWV,226,T,06.1,N,A*14
$IIRMB,A,0.02,L,,OUC ,,,,,025.57,047,-02.7,V,A*3C
$IIRMC,113718,A,4612.926,N,00610.116,E,03.7,191,100708,,,A*4A
$IIVHW,,,188,M,03.5,N,,*63
$IIVWR,109,L,03.9,N,,,,*7D
$IIDPT,007.2,-1.0,*45
$IIGLL,4612.926,N,00610.116,E,113718,A,A*50
$IIHDG,188,,,,*56
$IIMTW,+15.5,C*39
$IIMWV,251,R,03.9,N,A*1F
$IIMWV,218,T,06.0,N,A*18
$IIRMB,A,0.02,L,,OUC ,,,,,025.57,047,-03.1,V,A*3B
$IIRMC,113718,A,4612.926,N,00610.116,E,03.7,191,100708,,,A*4A
$IIVHW,,,185,M,03.5,N,,*6E
$IIVWR,106,L,03.5,N,,,,*7E
$IIDPT,007.2,-1.0,*45
$IIGLL,4612.926,N,00610.116,E,113718,A,A*50
$IIHDG,183,,,,*5D
$IIMTW,+15.5,C*39
$IIMWV,247,R,03.5,N,A*14
$IIMWV,217,T,05.5,N,A*11
$IIRMC,113720,A,4612.924,N,00610.116,E,03.6,186,100708,,,A*44
$IIVHW,,,183,M,03.4,N,,*69
$IIVWR,113,L,03.5,N,,,,*7A
$IIDPT,007.2,-1.0,*45
$IIGLL,4612.924,N,00610.116,E,113720,A,A*59
$IIHDG,178,,,,*59
$IIMTW,+15.5,C*39
$IIMWV,252,R,03.2,N,A*17
$IIMWV,214,T,05.7,N,A*10
$IIRMB,A,0.02,L,,OUC ,,,,,025.58,047,-02.8,V,A*3C
$IIRMC,113720,A,4612.924,N,00610.116,E,03.6,186,100708,,,A*44
$IIVHW,,,178,M,03.4,N,,*6D
$IIVWR,106,L,03.3,N,,,,*78
$IIDPT,007.2,-1.0,*45
$IIGLL,4612.922,N,00610.116,E,113722,A,A*5D
$IIHDG,175,,,,*54
$IIMTW,+15.5,C*39
$IIMWV,254,R,03.3,N,A*10
$IIMWV,215,T,05.2,N,A*14
$IIRMC,113722,A,4612.922,N,00610.116,E,03.5,176,100708,,,A*4C
$IIVHW,,,169,M,03.3,N,,*6A
$IIVWR,104,L,03.3,N,,,,*7A
$IIDPT,007.2,-1.0,*45
$IIGLL,4612.922,N,00610.116,E,113722,A,A*5D
$IIHDG,169,,,,*59
$IIMTW,+15.5,C*39
$IIMWV,256,R,03.3,N,A*12
$IIMWV,216,T,05.3,N,A*16
$IIRMB,A,0.02,L,,OUC ,,,,,025.58,047,-02.8,V,A*3C
$IIRMC,113724,A,4612.920,N,00610.116,E,03.3,164,100708,,,A*4D
$IIVHW,,,163,M,03.3,N,,*60
$IIVWR,100,L,03.3,N,,,,*7E
$IIDPT,007.2,-1.0,*45
$IIGLL,4612.920,N,00610.116,E,113724,A,A*59
$IIHDG,163,,,,*53
$IIMTW,+15.5,C*39
$IIMWV,260,R,03.3,N,A*17
$IIMWV,220,T,04.9,N,A*18
$IIRMB,A,0.02,L,,OUC ,,,,,025.58,047,-02.0,V,A*34
$IIRMC,113724,A,4612.920,N,00610.116,E,03.3,164,100708,,,A*4D
$IIVHW,,,157,M,03.3,N,,*67
$IIVWR,096,L,03.6,N,,,,*75
$IIDPT,007.2,-1.0,*45
$IIGLL,4612.920,N,00610.116,E,113724,A,A*59
$IIHDG,151,,,,*52
$IIMTW,+15.5,C*39
$IIMWV,268,R,03.9,N,A*15
$IIMWV,224,T,05.0,N,A*14
$IIRMC,113726,A,4612.919,N,00610.118,E,03.4,150,100708,,,A*4B
$IIVHW,,,151,M,03.3,N,,*61
$IIVWR,092,L,03.9,N,,,,*7E
$IIDPT,007.2,-1.0,*45
$IIGLL,4612.919,N,00610.118,E,113726,A,A*5F
$IIHDG,145,,,,*57
$IIMTW,+15.5,C*39
$IIMWV,274,R,04.0,N,A*16
$IIMWV,229,T,05.1,N,A*18
$IIRMB,A,0.02,L,,OUC ,,,,,025.58,047,-01.2,V,A*35
$IIRMC,113726,A,4612.919,N,00610.118,E,03.4,150,100708,,,A*4B
$IIVHW,,,145,M,03.3,N,,*64
$IIVWR,082,L,04.9,N,,,,*78
$IIDPT,007.2,-1.0,*45
$IIGLL,4612.917,N,00610.119,E,113728,A,A*5E
$IIHDG,138,,,,*5D
$IIMTW,+15.5,C*39
$IIMWV,278,R,04.9,N,A*13
$IIMWV,232,T,05.0,N,A*13
$IIRMC,113728,A,4612.917,N,00610.119,E,03.2,140,100708,,,A*4D
$IIVHW,,,134,M,03.2,N,,*63
$IIVWR,078,L,05.1,N,,,,*74
$IIDPT,007.2,-1.0,*45
$IIGLL,4612.917,N,00610.119,E,113728,A,A*5E
$IIHDG,134,,,,*51
$IIMTW,+15.5,C*39
$IIMWV,282,R,05.1,N,A*1F
$IIMWV,241,T,05.5,N,A*12
$IIRMB,A,0.02,L,,OUC ,,,,,025.58,047,-00.4,V,A*32
$IIRMC,113730,A,4612.916,N,00610.121,E,03.3,129,100708,,,A*40
$IIVHW,,,130,M,03.2,N,,*67
$IIVWR,073,L,05.2,N,,,,*7C
$IIDPT,007.2,-1.0,*45
$IIGLL,4612.916,N,00610.121,E,113730,A,A*5D
$IIHDG,130,,,,*55
$IIMTW,+15.5,C*39
$IIMWV,287,R,05.2,N,A*19
$IIMWV,250,T,05.2,N,A*15
$IIRMB,A,0.03,L,,OUC ,,,,,025.58,047,00.1,V,A*1B
$IIRMC,113730,A,4612.916,N,00610.121,E,03.3,129,100708,,,A*40
$IIVHW,,,127,M,03.3,N,,*60
$IIVWR,070,L,05.4,N,,,,*79
$IIDPT,007.2,-1.0,*45
$IIGLL,4612.916,N,00610.121,E,113730,A,A*5D
$IIHDG,126,,,,*52
$IIMTW,+15.5,C*39
$IIMWV,292,R,05.7,N,A*18
$IIMWV,253,T,05.2,N,A*16
$IIRMC,113732,A,4612.915,N,00610.123,E,03.4,128,100708,,,A*45
$IIVHW,,,126,M,03.3,N,,*61
$IIVWR,068,L,05.7,N,,,,*73
$IIDPT,007.1,-1.0,*46
$IIGLL,4612.915,N,00610.123,E,113732,A,A*5E
$IIHDG,123,,,,*57
$IIMTW,+16.0,C*3F
$IIMWV,294,R,05.9,N,A*10
$IIMWV,257,T,05.4,N,A*14
$IIRMB,A,0.03,L,,OUC ,,,,,025.58,047,00.5,V,A*1F
$IIRMC,113732,A,4612.915,N,00610.123,E,03.4,128,100708,,,A*45
$IIVHW,,,123,M,03.2,N,,*65
$IIVWR,064,L,06.0,N,,,,*7B
$IIDPT,007.1,-1.0,*46
$IIGLL,4612.914,N,00610.125,E,113734,A,A*5F
$IIHDG,122,,,,*56
$IIMTW,+16.0,C*3F
$IIMWV,296,R,06.0,N,A*18
$IIMWV,260,T,05.3,N,A*17
$IIRMC,113734,A,4612.914,N,00610.125,E,03.3,124,100708,,,A*4F
$IIVHW,,,121,M,03.3,N,,*66
$IIVWR,062,L,06.2,N,,,,*7F
$IIDPT,007.1,-1.0,*46
$IIGLL,4612.914,N,00610.125,E,113734,A,A*5F
$IIHDG,121,,,,*55
$IIMTW,+16.0,C*3F
$IIMWV,298,R,06.2,N,A*14
$IIMWV,263,T,05.4,N,A*13
$IIRMB,A,0.03,L,,OUC ,,,,,025.58,047,00.6,V,A*1C
$IIRMC,113736,A,4612.913,N,00610.127,E,03.4,124,100708,,,A*4F
$IIVHW,,,119,M,03.3,N,,*6D
$IIVWR,062,L,06.3,N,,,,*7E
$IIDPT,007.1,-1.0,*46
$IIGLL,4612.913,N,00610.127,E,113736,A,A*58
$IIHDG,119,,,,*5E
$IIMTW,+15.5,C*39
$IIMWV,298,R,06.3,N,A*15
$IIMWV,266,T,05.5,N,A*17
$IIRMB,A,0.03,L,,OUC ,,,,,025.58,047,00.8,V,A*12
$IIRMC,113736,A,4612.913,N,00610.127,E,03.4,124,100708,,,A*4F
$IIVHW,,,118,M,03.3,N,,*6C
$IIVWR,060,L,06.4,N,,,,*7B
$IIDPT,007.1,-1.0,*46
$IIGLL,4612.913,N,00610.127,E,113736,A,A*58
$IIHDG,117,,,,*50
$IIMTW,+15.5,C*39
$IIMWV,300,R,06.5,N,A*13
$IIMWV,269,T,05.5,N,A*18
$IIRMC,113738,A,4612.912,N,00610.130,E,03.4,122,100708,,,A*40
$IIVHW,,,117,M,03.3,N,,*63
$IIVWR,060,L,06.5,N,,,,*7A
$IIDPT,007.1,-1.0,*46
$IIGLL,4612.912,N,00610.130,E,113738,A,A*51
$IIHDG,116,,,,*51
$IIMTW,+15.5,C*39
$IIMWV,300,R,06.7,N,A*11
$IIMWV,269,T,05.6,N,A*1B
$IIRMB,A,0.03,L,,OUC ,,,,,025.58,047,00.8,V,A*12
$IIRMC,113738,A,4612.912,N,00610.130,E,03.4,122,100708,,,A*40
$IIVHW,,,116,M,03.3,N,,*62
$IIVWR,060,L,06.8,N,,,,*77
$IIDPT,007.1,-1.0,*46
$IIGLL,4612.911,N,00610.132,E,113740,A,A*5F
$IIHDG,117,,,,*50
$IIMTW,+15.5,C*39
$IIMWV,300,R,06.8,N,A*1E
$IIMWV,270,T,05.8,N,A*1D
$IIRMC,113740,A,4612.911,N,00610.132,E,03.3,118,100708,,,A*40
$IIVHW,,,117,M,03.3,N,,*63
$IIVWR,059,L,06.9,N,,,,*7C
$IIDPT,007.0,-1.0,*47
$IIGLL,4612.911,N,00610.132,E,113740,A,A*5F
$IIHDG,117,,,,*50
$IIMTW,+15.5,C*39
$IIMWV,301,R,06.9,N,A*1E
$IIMWV,271,T,05.9,N,A*1D
$IIRMB,A,0.04,L,,OUC ,,,,,025.58,047,00.9,V,A*14
$IIRMC,113742,A,4612.910,N,00610.134,E,03.3,118,100708,,,A*45
$IIVHW,,,116,M,03.3,N,,*62
$IIVWR,059,L,06.9,N,,,,*7C
$IIDPT,007.0,-1.0,*47
$IIGLL,4612.910,N,00610.134,E,113742,A,A*5A
$IIHDG,116,,,,*51
$IIMTW,+15.5,C*39
$IIMWV,301,R,06.9,N,A*1E
$IIMWV,272,T,05.9,N,A*1E
$IIRMB,A,0.04,L,,OUC ,,,,,025.58,047,01.0,V,A*1C
$IIRMC,113742,A,4612.910,N,00610.134,E,03.3,118,100708,,,A*45
$IIVHW,,,116,M,03.3,N,,*62
$IIVWR,057,L,07.0,N,,,,*7A
$IIDPT,007.0,-1.0,*47
$IIGLL,4612.910,N,00610.134,E,113742,A,A*5A
$IIHDG,115,,,,*52
$IIMTW,+15.5,C*39
$IIMWV,302,R,07.0,N,A*15
$IIMWV,274,T,05.8,N,A*19
$IIRMC,113744,A,4612.909,N,00610.137,E,03.3,118,100708,,,A*48
$IIVHW,,,115,M,03.3,N,,*61
$IIVWR,058,L,07.0,N,,,,*75
$IIDPT,006.9,-1.0,*4F
$IIGLL,4612.909,N,00610.137,E,113744,A,A*57
$IIHDG,115,,,,*52
$IIMTW,+15.5,C*39
$IIMWV,302,R,07.0,N,A*15
$IIMWV,274,T,05.9,N,A*18
$IIRMB,A,0.04,L,,OUC ,,,,,025.58,047,01.1,V,A*1D
$IIRMC,113744,A,4612.909,N,00610.137,E,03.3,118,100708,,,A*48
$IIVHW,,,115,M,03.2,N,,*60
$IIVWR,056,L,07.0,N,,,,*7B
$IIDPT,006.9,-1.0,*4F
$IIGLL,4612.908,N,00610.139,E,113746,A,A*5A
$IIHDG,115,,,,*52
$IIMTW,+15.5,C*39
$IIMWV,304,R,07.0,N,A*13
$IIMWV,274,T,05.9,N,A*18
$IIRMC,113746,A,4612.908,N,00610.139,E,03.5,117,100708,,,A*4C
$IIVHW,,,115,M,03.2,N,,*60
$IIVWR,057,L,07.1,N,,,,*7B
$IIDPT,006.8,-1.0,*4E
$IIGLL,4612.908,N,00610.139,E,113746,A,A*5A
$IIHDG,115,,,,*52
$IIMTW,+15.5,C*39
$IIMWV,303,R,07.1,N,A*15
$IIMWV,276,T,05.8,N,A*1B
$IIRMB,A,0.04,L,,OUC ,,,,,025.57,047,01.1,V,A*12
$IIRMC,113748,A,4612.907,N,00610.141,E,03.3,118,100708,,,A*4B
$IIVHW,,,115,M,03.2,N,,*60
$IIVWR,056,L,07.2,N,,,,*79
$IIDPT,006.8,-1.0,*4E
$IIGLL,4612.907,N,00610.141,E,113748,A,A*54
$IIHDG,115,,,,*52
$IIMTW,+15.5,C*39
$IIMWV,304,R,07.2,N,A*11
$IIMWV,277,T,05.9,N,A*1B
$IIRMB,A,0.04,L,,OUC ,,,,,025.57,047,01.1,V,A*12
$IIRMC,113748,A,4612.907,N,00610.141,E,03.3,118,100708,,,A*4B
$IIVHW,,,115,M,03.2,N,,*60
$IIVWR,055,L,07.1,N,,,,*79
$IIDPT,006.8,-1.0,*4E
$IIGLL,4612.907,N,00610.141,E,113748,A,A*54
$IIHDG,114,,,,*53
$IIMTW,+15.5,C*39
$IIMWV,304,R,07.0,N,A*13
$IIMWV,277,T,05.8,N,A*1A
$IIRMC,113750,A,4612.906,N,00610.144,E,03.2,118,100708,,,A*47
$IIVHW,,,114,M,03.2,N,,*61
$IIVWR,056,L,07.0,N,,,,*7B
$IIDPT,006.8,-1.0,*4E
$IIGLL,4612.906,N,00610.144,E,113750,A,A*59
$IIHDG,115,,,,*52
$IIMTW,+15.5,C*39
$IIMWV,304,R,07.1,N,A*12
$IIMWV,276,T,05.8,N,A*1B
$IIRMB,A,0.04,L,,OUC ,,,,,025.57,047,01.0,V,A*13
$IIRMC,113750,A,4612.906,N,00610.144,E,03.2,118,100708,,,A*47
$IIVHW,,,115,M,03.2,N,,*60
$IIVWR,056,L,06.9,N,,,,*73
$IIDPT,006.8,-1.0,*4E
$IIGLL,4612.906,N,00610.146,E,113752,A,A*59
$IIHDG,115,,,,*52
$IIMTW,+15.5,C*39
$IIMWV,304,R,06.9,N,A*1B
$IIMWV,277,T,05.8,N,A*1A
$IIRMB,A,0.05,L,,OUC ,,,,,025.57,047,01.1,V,A*13
$IIRMC,113754,A,4612.905,N,00610.148,E,03.2,117,100708,,,A*43
$IIVHW,,,116,M,03.2,N,,*63
$IIVWR,057,L,07.0,N,,,,*7A
$IIDPT,006.8,-1.0,*4E
$IIGLL,4612.905,N,00610.148,E,113754,A,A*52
$IIHDG,116,,,,*51
$IIMTW,+15.5,C*39
$IIMWV,303,R,07.0,N,A*14
$IIMWV,275,T,05.8,N,A*18
$IIRMB,A,0.05,L,,OUC ,,,,,025.57,047,01.0,V,A*12
$IIRMC,113754,A,4612.905,N,00610.148,E,03.2,117,100708,,,A*43
$IIVHW,,,116,M,03.2,N,,*63
$IIVWR,055,L,07.0,N,,,,*78
$IIDPT,006.8,-1.0,*4E
$IIGLL,4612.905,N,00610.148,E,113754,A,A*52
$IIHDG,116,,,,*51
$IIMTW,+16.0,C*3F
$IIMWV,303,R,07.1,N,A*15
$IIMWV,277,T,05.7,N,A*15
$IIRMC,113756,A,4612.904,N,00610.150,E,03.2,118,100708,,,A*46
$IIVHW,,,116,M,03.2,N,,*63
$IIVWR,057,L,07.1,N,,,,*7B
$IIDPT,006.8,-1.0,*4E
$IIGLL,4612.904,N,00610.150,E,113756,A,A*58
$IIHDG,118,,,,*5F
$IIMTW,+16.0,C*3F
$IIMWV,303,R,07.0,N,A*14
$IIMWV,276,T,05.9,N,A*1A
$IIRMB,A,0.05,L,,OUC ,,,,,025.57,047,01.0,V,A*12
$IIRMC,113756,A,4612.904,N,00610.150,E,03.2,118,100708,,,A*46
$IIVHW,,,118,M,03.2,N,,*6D
$IIVWR,056,L,06.9,N,,,,*73
$IIDPT,006.8,-1.0,*4E
$IIGLL,4612.903,N,00610.153,E,113758,A,A*52
$IIHDG,119,,,,*5E
$IIMTW,+15.5,C*39
$IIMWV,304,R,06.9,N,A*1B
$IIMWV,275,T,05.8,N,A*18
$IIRMC,113758,A,4612.903,N,00610.153,E,03.2,120,100708,,,A*47
$IIVHW,,,121,M,03.2,N,,*67
$IIVWR,057,L,06.8,N,,,,*73
$IIDPT,006.8,-1.0,*4E
$IIGLL,4612.903,N,00610.153,E,113758,A,A*52
$IIHDG,121,,,,*55
$IIMTW,+15.5,C*39
$IIMWV,303,R,06.8,N,A*1D
$IIMWV,276,T,05.7,N,A*14
$IIRMB,A,0.05,L,,OUC ,,,,,025.57,047,01.0,V,A*12
$IIRMC,113800,A,4612.902,N,00610.155,E,03.3,125,100708,,,A*46
$IIVHW,,,121,M,03.2,N,,*67
$IIVWR,058,L,06.8,N,,,,*7C
$IIDPT,006.7,-1.0,*41
$IIGLL,4612.902,N,00610.155,E,113800,A,A*57
$IIHDG,121,,,,*55
$IIMTW,+15.5,C*39
$IIMWV,302,R,06.8,N,A*1C
$IIMWV,274,T,05.7,N,A*16
$IIRMB,A,0.05,L,,OUC ,,,,,025.57,047,00.8,V,A*1B
$IIRMC,113800,A,4612.902,N,00610.155,E,03.3,125,100708,,,A*46
$IIVHW,,,123,M,03.2,N,,*65
$IIVWR,059,L,06.8,N,,,,*7D
$IIDPT,006.7,-1.0,*41
$IIGLL,4612.902,N,00610.155,E,113800,A,A*57
$IIHDG,125,,,,*51
$IIMTW,+15.5,C*39
$IIMWV,300,R,06.8,N,A*1E
$IIMWV,273,T,05.8,N,A*1E
$IIRMC,113802,A,4612.901,N,00610.157,E,03.3,128,100708,,,A*48
$IIVHW,,,125,M,03.2,N,,*63
$IIVWR,060,L,06.8,N,,,,*77
$IIDPT,006.7,-1.0,*41
$IIGLL,4612.901,N,00610.157,E,113802,A,A*54
$IIHDG,127,,,,*53
$IIMTW,+15.5,C*39
$IIMWV,299,R,06.7,N,A*10
$IIMWV,272,T,05.9,N,A*1E
$IIRMB,A,0.05,L,,OUC ,,,,,025.57,047,00.6,V,A*15
$IIRMC,113802,A,4612.901,N,00610.157,E,03.3,128,100708,,,A*48
$IIVHW,,,127,M,03.2,N,,*61
$IIVWR,062,L,06.7,N,,,,*7A
$IIDPT,006.7,-1.0,*41
$IIGLL,4612.900,N,00610.159,E,113804,A,A*5D
$IIHDG,127,,,,*53
$IIMTW,+15.5,C*39
$IIMWV,298,R,06.7,N,A*11
$IIMWV,270,T,05.8,N,A*1D
$IIRMC,113804,A,4612.900,N,00610.159,E,03.3,131,100708,,,A*49
$IIVHW,,,129,M,03.2,N,,*6F
$IIVWR,063,L,06.6,N,,,,*7A
$IIDPT,006.6,-1.0,*40
$IIGLL,4612.900,N,00610.159,E,113804,A,A*5D
$IIHDG,129,,,,*5D
$IIMTW,+15.5,C*39
$IIMWV,297,R,06.6,N,A*1F
$IIMWV,269,T,05.8,N,A*15
$IIRMB,A,0.06,L,,OUC ,,,,,025.57,047,00.3,V,A*13
$IIRMC,113806,A,4612.898,N,00610.161,E,03.4,133,100708,,,A*45
$IIVHW,,,130,M,03.2,N,,*67
$IIVWR,063,L,06.6,N,,,,*7A
$IIDPT,006.6,-1.0,*40
$IIGLL,4612.898,N,00610.161,E,113806,A,A*54
$IIHDG,130,,,,*55
$IIMTW,+15.5,C*39
$IIMWV,297,R,06.6,N,A*1F
$IIMWV,267,T,05.8,N,A*1B
$IIRMB,A,0.06,L,,OUC ,,,,,025.57,047,00.3,V,A*13
$IIRMC,113806,A,4612.898,N,00610.161,E,03.4,133,100708,,,A*45
$IIVHW,,,132,M,03.2,N,,*65
$IIVWR,065,L,06.4,N,,,,*7E
$IIDPT,006.6,-1.0,*40
$IIGLL,4612.898,N,00610.161,E,113806,A,A*54
$IIHDG,134,,,,*51
$IIMTW,+15.5,C*39
$IIMWV,294,R,06.4,N,A*1E
$IIMWV,263,T,05.8,N,A*1F
$IIRMC,113808,A,4612.897,N,00610.163,E,03.5,136,100708,,,A*42
$IIVHW,,,134,M,03.2,N,,*63
$IIVWR,066,L,06.4,N,,,,*7D
$IIDPT,006.6,-1.0,*40
$IIGLL,4612.897,N,00610.163,E,113808,A,A*57
$IIHDG,135,,,,*50
$IIMTW,+15.5,C*39
$IIMWV,294,R,06.3,N,A*19
$IIMWV,263,T,05.8,N,A*1F
$IIRMB,A,0.06,L,,OUC ,,,,,025.57,047,00.0,V,A*10
$IIRMC,113808,A,4612.897,N,00610.163,E,03.5,136,100708,,,A*42
$IIVHW,,,135,M,03.2,N,,*62
$IIVWR,067,L,06.3,N,,,,*7B
$IIDPT,006.6,-1.0,*40
$IIGLL,4612.896,N,00610.164,E,113810,A,A*58
$IIHDG,135,,,,*50
$IIMTW,+15.5,C*39
$IIMWV,293,R,06.3,N,A*1E
$IIMWV,262,T,05.7,N,A*11
$IIRMC,113810,A,4612.896,N,00610.164,E,03.4,139,100708,,,A*43
$IIVHW,,,138,M,03.2,N,,*6F
$IIVWR,067,L,06.2,N,,,,*7A
$IIDPT,006.6,-1.0,*40
$IIGLL,4612.896,N,00610.164,E,113810,A,A*58
$IIHDG,138,,,,*5D
$IIMTW,+15.5,C*39
$IIMWV,293,R,06.2,N,A*1F
$IIMWV,261,T,05.7,N,A*12
$IIRMB,A,0.06,L,,OUC ,,,,,025.57,047,00.0,V,A*10
$IIRMC,113812,A,4612.894,N,00610.166,E,03.4,141,100708,,,A*4E
$IIVHW,,,141,M,03.2,N,,*61
$IIVWR,069,L,06.0,N,,,,*76
$IIDPT,006.6,-1.0,*40
$IIGLL,4612.894,N,00610.166,E,113812,A,A*5A
$IIHDG,141,,,,*53
$IIMTW,+15.5,C*39
$IIMWV,291,R,06.0,N,A*1F
$IIMWV,258,T,05.6,N,A*19
$IIRMB,A,0.06,L,,OUC ,,,,,025.57,047,-00.3,V,A*3E
$IIRMC,113812,A,4612.894,N,00610.166,E,03.4,141,100708,,,A*4E
$IIVHW,,,143,M,03.3,N,,*62
$IIVWR,070,L,06.1,N,,,,*7F
$IIDPT,006.5,-1.0,*43
$IIGLL,4612.894,N,00610.166,E,113812,A,A*5A
$IIHDG,145,,,,*57
$IIMTW,+15.0,C*3C
$IIMWV,288,R,06.0,N,A*17
$IIMWV,257,T,05.8,N,A*18
$IIRMC,113814,A,4612.892,N,00610.168,E,03.7,150,100708,,,A*43
$IIVHW,,,145,M,03.3,N,,*64
$IIVWR,072,L,06.0,N,,,,*7C
$IIDPT,006.4,-1.0,*42
$IIGLL,4612.892,N,00610.168,E,113814,A,A*54
$IIHDG,148,,,,*5A
$IIMTW,+15.0,C*3C
$IIMWV,287,R,06.0,N,A*18
$IIMWV,255,T,05.8,N,A*1A
$IIRMB,A,0.07,L,,OUC ,,,,,025.57,047,-00.6,V,A*3A
$IIRMC,113814,A,4612.892,N,00610.168,E,03.7,150,100708,,,A*43
$IIVHW,,,148,M,03.3,N,,*69
$IIVWR,074,L,06.3,N,,,,*79
$IIDPT,006.4,-1.0,*42
$IIGLL,4612.890,N,00610.169,E,113816,A,A*55
$IIHDG,150,,,,*53
$IIMTW,+15.5,C*39
$IIMWV,286,R,06.3,N,A*1A
$IIMWV,254,T,05.9,N,A*1A
$IIRMC,113816,A,4612.890,N,00610.169,E,03.5,154,100708,,,A*44
$IIVHW,,,151,M,03.3,N,,*61
$IIVWR,076,L,06.2,N,,,,*7A
$IIDPT,006.4,-1.0,*42
$IIGLL,4612.890,N,00610.169,E,113816,A,A*55
$IIHDG,151,,,,*52
$IIMTW,+15.0,C*3C
$IIMWV,284,R,06.2,N,A*19
$IIMWV,255,T,06.2,N,A*13
$IIRMB,A,0.07,L,,OUC ,,,,,025.57,047,-00.8,V,A*34
$IIRMC,113818,A,4612.889,N,00610.170,E,03.7,157,100708,,,A*4B
$IIVHW,,,153,M,03.3,N,,*63
$IIVWR,077,L,05.8,N,,,,*72
$IIDPT,006.4,-1.0,*42
$IIGLL,4612.889,N,00610.170,E,113818,A,A*5B
$IIHDG,153,,,,*50
$IIMTW,+15.0,C*3C
$IIMWV,283,R,05.8,N,A*17
$IIMWV,249,T,06.0,N,A*1C
$IIRMB,A,0.07,L,,OUC ,,,,,025.57,047,-01.0,V,A*3D
$IIRMC,113818,A,4612.889,N,00610.170,E,03.7,157,100708,,,A*4B
$IIVHW,,,155,M,03.3,N,,*65
$IIVWR,077,L,05.5,N,,,,*7F
$IIDPT,006.4,-1.0,*42
$IIGLL,4612.889,N,00610.170,E,113818,A,A*5B
$IIHDG,157,,,,*54
$IIMTW,+15.5,C*39
$IIMWV,281,R,05.5,N,A*18
$IIMWV,247,T,05.7,N,A*16
$IIRMC,113820,A,4612.887,N,00610.171,E,03.6,160,100708,,,A*4A
$IIVHW,,,157,M,03.4,N,,*60
$IIVWR,079,L,05.5,N,,,,*71
$IIDPT,006.4,-1.0,*42
$IIGLL,4612.887,N,00610.171,E,113820,A,A*5F
$IIHDG,158,,,,*5B
$IIMTW,+15.5,C*39
$IIMWV,281,R,05.3,N,A*1E
$IIMWV,245,T,05.8,N,A*1B
$IIRMB,A,0.07,L,,OUC ,,,,,025.57,047,-01.3,V,A*3E
$IIRMC,113820,A,4612.887,N,00610.171,E,03.6,160,100708,,,A*4A
$IIVHW,,,158,M,03.4,N,,*6F
$IIVWR,083,L,05.1,N,,,,*70
$IIDPT,006.4,-1.0,*42
$IIGLL,4612.885,N,00610.172,E,113822,A,A*5C
$IIHDG,160,,,,*50
$IIMTW,+15.5,C*39
$IIMWV,277,R,05.1,N,A*15
$IIMWV,245,T,05.6,N,A*15
$IIRMC,113822,A,4612.885,N,00610.172,E,03.7,162,100708,,,A*4A
$IIVHW,,,162,M,03.4,N,,*66
$IIVWR,081,L,05.0,N,,,,*73
$IIDPT,006.4,-1.0,*42
$IIGLL,4612.885,N,00610.172,E,113822,A,A*5C
$IIHDG,162,,,,*52
$IIMTW,+15.5,C*39
$IIMWV,279,R,05.0,N,A*1A
$IIMWV,241,T,05.7,N,A*10
$IIRMB,A,0.07,L,,OUC ,,,,,025.57,047,-01.5,V,A*38
$IIRMC,113824,A,4612.883,N,00610.173,E,03.6,166,100708,,,A*4E
$IIVHW,,,165,M,03.4,N,,*61
$IIVWR,086,L,04.9,N,,,,*7C
$IIDPT,006.4,-1.0,*42
$IIGLL,4612.883,N,00610.173,E,113824,A,A*5D
$IIHDG,165,,,,*55
$IIMTW,+15.5,C*39
$IIMWV,274,R,04.9,N,A*1F
$IIMWV,238,T,05.7,N,A*1E
$IIRMB,A,0.08,L,,OUC ,,,,,025.57,047,-01.7,V,A*35
$IIRMC,113824,A,4612.883,N,00610.173,E,03.6,166,100708,,,A*4E
$IIVHW,,,167,M,03.4,N,,*63
$IIVWR,085,L,04.5,N,,,,*73
$IIDPT,006.4,-1.0,*42
$IIGLL,4612.883,N,00610.173,E,113824,A,A*5D
$IIHDG,169,,,,*59
$IIMTW,+15.0,C*3C
$IIMWV,271,R,04.5,N,A*16
$IIMWV,236,T,05.4,N,A*13
$IIRMC,113826,A,4612.881,N,00610.173,E,03.8,172,100708,,,A*45
$IIVHW,,,169,M,03.4,N,,*6D
$IIVWR,089,L,04.5,N,,,,*7F
$IIDPT,006.3,-1.0,*45
$IIGLL,4612.881,N,00610.173,E,113826,A,A*5D
$IIHDG,171,,,,*50
$IIMTW,+15.0,C*3C
$IIMWV,274,R,04.3,N,A*15
$IIMWV,232,T,05.7,N,A*14
$IIRMB,A,0.08,L,,OUC ,,,,,025.58,047,-02.1,V,A*3F
$IIRMC,113826,A,4612.881,N,00610.173,E,03.8,172,100708,,,A*45
$IIVHW,,,171,M,03.4,N,,*64
$IIVWR,091,L,04.3,N,,,,*70
$IIDPT,009.2,-1.0,*4B
$IIGLL,4612.881,N,00610.173,E,113826,A,A*5D
$IIHDG,173,,,,*52
$IIMTW,+16.0,C*3F
$IIMWV,269,R,04.3,N,A*19
$IIMWV,233,T,05.3,N,A*11
$IIRMC,113826,A,4612.881,N,00610.173,E,03.8,172,100708,,,A*45
$IIVHW,,,175,M,03.4,N,,*60
$IIVWR,092,L,04.1,N,,,,*71
$IIDPT,009.1,-1.0,*48
$IIGLL,4612.879,N,00610.174,E,113828,A,A*53
$IIHDG,175,,,,*54
$IIMTW,+16.0,C*3F
$IIMWV,268,R,04.1,N,A*1A
$IIMWV,231,T,05.5,N,A*15
$IIRMB,A,0.08,L,,OUC ,,,,,025.58,047,-02.3,V,A*3D
$IIRMC,113828,A,4612.879,N,00610.174,E,03.8,174,100708,,,A*4D
$IIVHW,,,177,M,03.4,N,,*62
$IIVWR,094,L,04.0,N,,,,*76
$IIDPT,008.3,-1.0,*4B
$IIGLL,4612.879,N,00610.174,E,113828,A,A*53
$IIHDG,177,,,,*56
$IIMTW,+16.0,C*3F
$IIMWV,266,R,04.0,N,A*15
$IIMWV,227,T,05.4,N,A*13
$IIRMB,A,0.08,L,,OUC ,,,,,025.58,047,-02.4,V,A*3A
$IIRMC,113830,A,4612.877,N,00610.174,E,03.8,179,100708,,,A*47
$IIVHW,,,179,M,03.4,N,,*6C
$IIVWR,096,L,04.1,N,,,,*75
$IIDPT,007.8,-1.0,*4F
$IIGLL,4612.877,N,00610.174,E,113830,A,A*54
$IIHDG,181,,,,*5F
$IIMTW,+15.5,C*39
$IIMWV,265,R,03.9,N,A*18
$IIMWV,226,T,05.5,N,A*13
$IIRMC,113830,A,4612.877,N,00610.174,E,03.8,179,100708,,,A*47
$IIVHW,,,181,M,03.4,N,,*6B
$IIVWR,095,L,03.9,N,,,,*79
$IIDPT,007.8,-1.0,*4F
$IIGLL,4612.875,N,00610.174,E,113832,A,A*54
$IIHDG,183,,,,*5D
$IIMTW,+15.5,C*39
$IIMWV,258,R,03.9,N,A*16
$IIMWV,226,T,05.4,N,A*12
$IIRMC,113832,A,4612.875,N,00610.174,E,03.7,182,100708,,,A*4C
$IIVHW,,,183,M,03.4,N,,*69
$IIVWR,102,L,03.9,N,,,,*76
$IIDPT,006.3,-1.0,*45
$IIGLL,4612.875,N,00610.174,E,113832,A,A*54
$IIHDG,185,,,,*5B
$IIMTW,+15.5,C*39
$IIMWV,258,R,03.8,N,A*17
$IIMWV,221,T,05.7,N,A*16
$IIRMC,113832,A,4612.875,N,00610.174,E,03.7,182,100708,,,A*4C
$IIVHW,,,185,M,03.4,N,,*6F
$IIVWR,107,L,03.6,N,,,,*7C
$IIDPT,006.3,-1.0,*45
$IIGLL,4612.873,N,00610.173,E,113834,A,A*53
$IIHDG,186,,,,*58
$IIMTW,+15.5,C*39
$IIMWV,253,R,03.6,N,A*12
$IIMWV,222,T,05.5,N,A*17
$IIRMB,A,0.08,L,,OUC ,,,,,025.58,047,-02.8,V,A*36
$IIRMC,113836,A,4612.871,N,00610.173,E,03.7,191,100708,,,A*49
$IIVHW,,,189,M,03.4,N,,*63
$IIVWR,109,L,03.5,N,,,,*71
$IIDPT,006.3,-1.0,*45
$IIGLL,4612.871,N,00610.173,E,113836,A,A*53
$IIHDG,189,,,,*57
$IIMTW,+15.5,C*39
$IIMWV,251,R,03.5,N,A*13
$IIMWV,216,T,05.5,N,A*10
$IIRMB,A,0.08,L,,OUC ,,,,,025.58,047,-03.0,V,A*3F
$IIRMC,113836,A,4612.871,N,00610.173,E,03.7,191,100708,,,A*49
$IIVHW,,,189,M,03.4,N,,*63
$IIVWR,113,L,03.2,N,,,,*7D
$IIDPT,006.3,-1.0,*45
$IIGLL,4612.871,N,00610.173,E,113836,A,A*53
$IIHDG,193,,,,*5C
$IIMTW,+15.5,C*39
$IIMWV,246,R,03.0,N,A*10
$IIMWV,212,T,05.4,N,A*15
$IIRMC,113836,A,4612.871,N,00610.173,E,03.7,191,100708,,,A*49
$IIVHW,,,193,M,03.3,N,,*6F
$IIVWR,114,L,03.0,N,,,,*78
$IIDPT,006.3,-1.0,*45
$IIGLL,4612.869,N,00610.172,E,113838,A,A*55
$IIHDG,195,,,,*5A
$IIMTW,+15.5,C*39
$IIMWV,238,R,03.0,N,A*19
$IIMWV,211,T,05.3,N,A*11
$IIRMB,A,0.09,L,,OUC ,,,,,025.58,047,-03.0,V,A*3E
$IIRMC,113838,A,4612.869,N,00610.172,E,03.6,195,100708,,,A*4A
$IIVHW,,,195,M,03.3,N,,*69
$IIVWR,126,L,02.7,N,,,,*7F
$IIDPT,006.1,-1.0,*47
$IIGLL,4612.869,N,00610.172,E,113838,A,A*55
$IIHDG,197,,,,*58
$IIMTW,+15.5,C*39
$IIMWV,234,R,02.7,N,A*13
$IIMWV,207,T,05.5,N,A*10
$IIRMC,113838,A,4612.869,N,00610.172,E,03.6,195,100708,,,A*4A
$IIVHW,,,199,M,03.3,N,,*65
$IIVWR,132,L,02.6,N,,,,*7B
$IIDPT,005.9,-1.0,*4C
$IIGLL,4612.867,N,00610.171,E,113840,A,A*57
$IIHDG,199,,,,*56
$IIMTW,+15.5,C*39
$IIMWV,228,R,02.6,N,A*1F
$IIMWV,204,T,05.2,N,A*14
$IIRMB,A,0.09,L,,OUC ,,,,,025.59,047,-03.1,V,A*3E
$IIRMC,113840,A,4612.867,N,00610.171,E,03.5,199,100708,,,A*47
$IIVHW,,,205,M,03.3,N,,*63
$IIVWR,131,L,02.4,N,,,,*7A
$IIDPT,005.9,-1.0,*4C
$IIGLL,4612.867,N,00610.171,E,113840,A,A*57
$IIHDG,205,,,,*50
$IIMTW,+15.5,C*39
$IIMWV,229,R,02.4,N,A*1C
$IIMWV,201,T,05.1,N,A*12
$IIRMB,A,0.09,L,,OUC ,,,,,025.59,047,-03.2,V,A*3D
$IIRMC,113842,A,4612.865,N,00610.170,E,03.5,203,100708,,,A*46
$IIVHW,,,210,M,03.2,N,,*66
$IIVWR,136,L,02.4,N,,,,*7D
$IIDPT,005.9,-1.0,*4C
$IIGLL,4612.865,N,00610.170,E,113842,A,A*56
$IIHDG,216,,,,*52
$IIMTW,+15.5,C*39
$IIMWV,209,R,02.4,N,A*1E
$IIMWV,198,T,05.2,N,A*12
$IIRMC,113842,A,4612.865,N,00610.170,E,03.5,203,100708,,,A*46
$IIVHW,,,216,M,03.2,N,,*60
$IIVWR,151,L,02.4,N,,,,*7C
$IIDPT,005.9,-1.0,*4C
$IIGLL,4612.863,N,00610.169,E,113844,A,A*5E
$IIHDG,222,,,,*55
$IIMTW,+15.5,C*39
$IIMWV,201,R,02.0,N,A*12
$IIMWV,192,T,05.4,N,A*1E
$IIRMB,A,0.09,L,,OUC ,,,,,025.59,047,-03.2,V,A*3D
$IIRMC,113844,A,4612.863,N,00610.169,E,03.7,223,100708,,,A*4E
$IIVHW,,,222,M,03.2,N,,*67
$IIVWR,165,L,01.9,N,,,,*75
$IIDPT,005.9,-1.0,*4C
$IIGLL,4612.862,N,00610.167,E,113846,A,A*53
$IIHDG,230,,,,*56
$IIMTW,+15.5,C*39
$IIMWV,195,R,01.9,N,A*16
$IIMWV,188,T,05.0,N,A*11
$IIRMC,113846,A,4612.862,N,00610.167,E,03.6,224,100708,,,A*45
$IIVHW,,,237,M,03.1,N,,*60
$IIVWR,179,L,01.7,N,,,,*76
$IIDPT,005.9,-1.0,*4C
$IIGLL,4612.862,N,00610.167,E,113846,A,A*53
$IIHDG,237,,,,*51
$IIMTW,+15.5,C*39
$IIMWV,181,R,01.7,N,A*1D
$IIMWV,185,T,05.0,N,A*1C
$IIRMB,A,0.09,L,,OUC ,,,,,025.59,047,-03.6,V,A*39
$IIRMC,113848,A,4612.860,N,00610.165,E,03.6,224,100708,,,A*4B
$IIVHW,,,241,M,03.0,N,,*60
$IIVWR,164,R,01.8,N,,,,*6B
$IIDPT,007.0,-1.0,*47
$IIGLL,4612.860,N,00610.165,E,113848,A,A*5D
$IIHDG,241,,,,*50
$IIMTW,+15.0,C*3C
$IIMWV,164,R,01.8,N,A*19
$IIMWV,174,T,04.7,N,A*14
$IIRMB,A,0.09,L,,OUC ,,,,,025.59,047,-03.6,V,A*39
$IIRMC,113848,A,4612.860,N,00610.165,E,03.6,224,100708,,,A*4B
$IIVHW,,,249,M,02.9,N,,*60
$IIVWR,151,R,02.3,N,,,,*65
$IIDPT,007.0,-1.0,*47
$IIGLL,4612.860,N,00610.165,E,113848,A,A*5D
$IIHDG,254,,,,*54
$IIMTW,+15.0,C*3C
$IIMWV,137,R,02.5,N,A*11
$IIMWV,168,T,05.1,N,A*1E
$IIRMC,113850,A,4612.859,N,00610.163,E,03.4,230,100708,,,A*49
$IIVHW,,,254,M,02.9,N,,*6C
$IIVWR,137,R,02.5,N,,,,*63
$IIDPT,007.0,-1.0,*47
$IIGLL,4612.859,N,00610.163,E,113850,A,A*58
$IIHDG,258,,,,*58
$IIMTW,+15.0,C*3C
$IIMWV,124,R,02.7,N,A*11
$IIMWV,160,T,05.0,N,A*17
$IIRMB,A,0.09,L,,OUC ,,,,,025.60,047,-03.6,V,A*33
$IIRMC,113850,A,4612.859,N,00610.163,E,03.4,230,100708,,,A*49
$IIVHW,,,258,M,02.9,N,,*60
$IIVWR,115,R,02.9,N,,,,*6F
$IIDPT,006.0,-1.0,*46
$IIGLL,4612.859,N,00610.160,E,113852,A,A*59
$IIHDG,263,,,,*50
$IIMTW,+15.0,C*3C
$IIMWV,115,R,02.9,N,A*1D
$IIMWV,153,T,04.9,N,A*1F
$IIRMC,113852,A,4612.859,N,00610.160,E,03.1,269,100708,,,A*41
$IIVHW,,,269,M,02.9,N,,*62
$IIVWR,105,R,03.3,N,,,,*65
$IIDPT,006.0,-1.0,*46
$IIGLL,4612.859,N,00610.160,E,113852,A,A*59
$IIHDG,269,,,,*5A
$IIMTW,+15.0,C*3C
$IIMWV,105,R,03.3,N,A*17
$IIMWV,147,T,04.8,N,A*1B
$IIRMB,A,0.09,L,,OUC ,,,,,025.60,047,-02.5,V,A*31
$IIRMC,113854,A,4612.859,N,00610.158,E,03.2,281,100708,,,A*49
$IIVHW,,,275,M,02.8,N,,*6E
$IIVWR,098,R,03.6,N,,,,*65
$IIDPT,005.9,-1.0,*4C
$IIGLL,4612.859,N,00610.158,E,113854,A,A*54
$IIHDG,275,,,,*57
$IIMTW,+15.0,C*3C
$IIMWV,098,R,03.6,N,A*17
$IIMWV,134,T,04.8,N,A*1F
$IIRMB,A,0.09,L,,OUC ,,,,,025.60,047,-02.1,V,A*35
$IIRMC,113854,A,4612.859,N,00610.158,E,03.2,281,100708,,,A*49
$IIVHW,,,280,M,02.8,N,,*64
$IIVWR,091,R,03.8,N,,,,*62
$IIDPT,005.9,-1.0,*4C
$IIGLL,4612.859,N,00610.158,E,113854,A,A*54
$IIHDG,286,,,,*5B
$IIMTW,+15.0,C*3C
$IIMWV,086,R,04.2,N,A*1B
$IIMWV,127,T,04.7,N,A*12
$IIRMC,113856,A,4612.860,N,00610.155,E,03.8,287,100708,,,A*40
$IIVHW,,,286,M,02.7,N,,*6D
$IIVWR,086,R,04.2,N,,,,*69
$IIDPT,005.9,-1.0,*4C
$IIGLL,4612.860,N,00610.155,E,113856,A,A*51
$IIHDG,291,,,,*5D
$IIMTW,+15.0,C*3C
$IIMWV,080,R,04.5,N,A*1A
$IIMWV,122,T,04.9,N,A*19
$IIRMB,A,0.08,L,,OUC ,,,,,025.60,047,-01.8,V,A*3E
$IIRMC,113856,A,4612.860,N,00610.155,E,03.8,287,100708,,,A*40
$IIVHW,,,291,M,02.7,N,,*6B
$IIVWR,074,R,04.8,N,,,,*6E
$IIDPT,005.9,-1.0,*4C
$IIGLL,4612.860,N,00610.152,E,113858,A,A*58
$IIHDG,295,,,,*59
$IIMTW,+15.0,C*3C
$IIMWV,074,R,04.8,N,A*1C
$IIMWV,115,T,04.8,N,A*1C
$IIRMC,113858,A,4612.860,N,00610.152,E,03.7,290,100708,,,A*40
$IIVHW,,,302,M,02.7,N,,*60
$IIVWR,070,R,04.8,N,,,,*6A
$IIDPT,005.9,-1.0,*4C
$IIGLL,4612.860,N,00610.152,E,113858,A,A*58
$IIHDG,302,,,,*56
$IIMTW,+15.0,C*3C
$IIMWV,070,R,04.8,N,A*18
$IIMWV,107,T,04.8,N,A*1F
$IIRMB,A,0.08,L,,OUC ,,,,,025.60,047,-01.9,V,A*3F
$IIRMC,113900,A,4612.861,N,00610.150,E,03.0,303,100708,,,A*43
$IIVHW,,,305,M,02.7,N,,*67
$IIVWR,066,R,05.0,N,,,,*64
$IIDPT,005.9,-1.0,*4C
$IIGLL,4612.861,N,00610.150,E,113900,A,A*57
$IIHDG,305,,,,*51
$IIMTW,+15.0,C*3C
$IIMWV,066,R,05.0,N,A*16
$IIMWV,099,T,04.5,N,A*14
$IIRMB,A,0.08,L,,OUC ,,,,,025.60,047,-01.5,V,A*33
$IIRMC,113900,A,4612.861,N,00610.150,E,03.0,303,100708,,,A*43
$IIVHW,,,310,M,02.7,N,,*63
$IIVWR,063,R,05.3,N,,,,*62
$IIDPT,005.9,-1.0,*4C
$IIGLL,4612.861,N,00610.150,E,113900,A,A*57
$IIHDG,310,,,,*55
$IIMTW,+15.5,C*39
$IIMWV,061,R,05.4,N,A*15
$IIMWV,095,T,04.7,N,A*1A
$IIRMC,113902,A,4612.862,N,00610.148,E,02.9,308,100708,,,A*48
$IIVHW,,,310,M,02.7,N,,*63
$IIVWR,061,R,05.4,N,,,,*67
$IIDPT,005.9,-1.0,*4C
$IIGLL,4612.863,N,00610.146,E,113904,A,A*56
$IIHDG,314,,,,*51
$IIMTW,+15.5,C*39
$IIMWV,057,R,05.7,N,A*13
$IIMWV,086,T,04.8,N,A*17
$IIRMB,A,0.08,L,,OUC ,,,,,025.60,047,-00.6,V,A*31
$IIRMC,113904,A,4612.863,N,00610.146,E,03.0,310,100708,,,A*40
$IIVHW,,,314,M,02.7,N,,*67
$IIVWR,054,R,05.9,N,,,,*6C
$IIDPT,005.9,-1.0,*4C
$IIGLL,4612.863,N,00610.146,E,113904,A,A*56
$IIHDG,315,,,,*50
$IIMTW,+15.5,C*39
$IIMWV,054,R,05.9,N,A*1E
$IIMWV,086,T,04.7,N,A*18
$IIRMB,A,0.08,L,,OUC ,,,,,025.60,047,-00.3,V,A*34
$IIRMC,113906,A,4612.865,N,00610.144,E,03.2,313,100708,,,A*47
$IIVHW,,,316,M,02.7,N,,*65
$IIVWR,053,R,06.1,N,,,,*60
$IIDPT,005.9,-1.0,*4C
$IIGLL,4612.865,N,00610.144,E,113906,A,A*50
$IIHDG,316,,,,*53
$IIMTW,+15.5,C*39
$IIMWV,053,R,06.1,N,A*12
$IIMWV,081,T,04.8,N,A*10
$IIRMB,A,0.08,L,,OUC ,,,,,025.60,047,-00.4,V,A*33
$IIRMC,113906,A,4612.865,N,00610.144,E,03.2,313,100708,,,A*47
$IIVHW,,,318,M,02.8,N,,*64
$IIVWR,051,R,06.0,N,,,,*63
$IIDPT,005.9,-1.0,*4C
$IIGLL,4612.865,N,00610.144,E,113906,A,A*50
$IIHDG,318,,,,*5D
$IIMTW,+15.0,C*3C
$IIMWV,050,R,06.2,N,A*12
$IIMWV,079,T,04.6,N,A*19
$IIRMC,113908,A,4612.866,N,00610.142,E,03.2,312,100708,,,A*4D
$IIVHW,,,318,M,02.8,N,,*64
$IIVWR,050,R,06.2,N,,,,*60
$IIDPT,005.9,-1.0,*4C
$IIGLL,4612.866,N,00610.142,E,113908,A,A*5B
$IIHDG,320,,,,*56
$IIMTW,+15.0,C*3C
$IIMWV,050,R,06.3,N,A*13
$IIMWV,077,T,04.8,N,A*19
$IIRMB,A,0.07,L,,OUC ,,,,,025.60,047,-00.2,V,A*3A
$IIRMC,113908,A,4612.866,N,00610.142,E,03.2,312,100708,,,A*4D
$IIVHW,,,320,M,02.8,N,,*6F
$IIVWR,050,R,06.3,N,,,,*61
$IIDPT,005.9,-1.0,*4C
$IIGLL,4612.867,N,00610.140,E,113910,A,A*51
$IIHDG,322,,,,*54
$IIMTW,+15.0,C*3C
$IIMWV,050,R,06.3,N,A*13
$IIMWV,076,T,04.9,N,A*19
$IIRMC,113910,A,4612.867,N,00610.140,E,03.3,313,100708,,,A*47
$IIVHW,,,320,M,02.8,N,,*6F
$IIVWR,049,R,06.6,N,,,,*6C
$IIDPT,005.9,-1.0,*4C
$IIGLL,4612.867,N,00610.140,E,113910,A,A*51
$IIHDG,320,,,,*56
$IIMTW,+15.5,C*39
$IIMWV,049,R,06.6,N,A*1E
$IIMWV,077,T,04.9,N,A*18
$IIRMB,A,0.07,L,,OUC ,,,,,025.60,047,-00.2,V,A*3A
$IIRMC,113912,A,4612.868,N,00610.138,E,03.2,315,100708,,,A*42
$IIVHW,,,320,M,02.9,N,,*6E
$IIVWR,047,R,06.4,N,,,,*60
$IIDPT,006.0,-1.0,*46
$IIGLL,4612.868,N,00610.138,E,113912,A,A*53
$IIHDG,320,,,,*56
$IIMTW,+15.0,C*3C
$IIMWV,047,R,06.4,N,A*12
$IIMWV,073,T,04.8,N,A*1D
$IIRMB,A,0.07,L,,OUC ,,,,,025.60,047,-00.1,V,A*39
$IIRMC,113912,A,4612.868,N,00610.138,E,03.2,315,100708,,,A*42
$IIVHW,,,319,M,02.9,N,,*64
$IIVWR,047,R,06.5,N,,,,*61
$IIDPT,006.0,-1.0,*46
$IIGLL,4612.868,N,00610.138,E,113912,A,A*53
$IIHDG,318,,,,*5D
$IIMTW,+15.0,C*3C
$IIMWV,047,R,06.5,N,A*13
$IIMWV,072,T,04.9,N,A*1D
$IIRMC,113914,A,4612.870,N,00610.136,E,03.1,314,100708,,,A*41
$IIVHW,,,318,M,02.9,N,,*65
$IIVWR,047,R,06.5,N,,,,*61
$IIDPT,006.0,-1.0,*46
$IIGLL,4612.870,N,00610.136,E,113914,A,A*52
$IIHDG,317,,,,*52
$IIMTW,+15.0,C*3C
$IIMWV,048,R,06.5,N,A*1C
$IIMWV,073,T,04.9,N,A*1C
$IIRMB,A,0.07,L,,OUC ,,,,,025.60,047,-00.1,V,A*39
$IIRMC,113914,A,4612.870,N,00610.136,E,03.1,314,100708,,,A*41
$IIVHW,,,317,M,02.9,N,,*6A
$IIVWR,049,R,06.5,N,,,,*6F
$IIDPT,006.1,-1.0,*47
$IIGLL,4612.871,N,00610.135,E,113916,A,A*52
$IIHDG,317,,,,*52
$IIMTW,+15.0,C*3C
$IIMWV,049,R,06.5,N,A*1D
$IIMWV,075,T,04.9,N,A*1A
$IIRMC,113916,A,4612.871,N,00610.135,E,03.3,313,100708,,,A*44
$IIVHW,,,316,M,03.0,N,,*63
$IIVWR,048,R,06.5,N,,,,*6E
$IIDPT,006.1,-1.0,*47
$IIGLL,4612.871,N,00610.135,E,113916,A,A*52
$IIHDG,316,,,,*53
$IIMTW,+15.0,C*3C
$IIMWV,048,R,06.5,N,A*1C
$IIMWV,076,T,04.9,N,A*19
$IIRMB,A,0.07,L,,OUC ,,,,,025.60,047,-00.2,V,A*3A
$IIRMC,113918,A,4612.872,N,00610.133,E,03.3,313,100708,,,A*4F
$IIVHW,,,316,M,03.0,N,,*63
$IIVWR,047,R,06.3,N,,,,*67
$IIDPT,006.2,-1.0,*44
$IIGLL,4612.872,N,00610.133,E,113918,A,A*59
$IIHDG,316,,,,*53
$IIMTW,+15.0,C*3C
$IIMWV,047,R,06.3,N,A*15
$IIMWV,075,T,04.6,N,A*15
$IIRMB,A,0.06,L,,OUC ,,,,,025.60,047,-00.2,V,A*3B
$IIRMC,113918,A,4612.872,N,00610.133,E,03.3,313,100708,,,A*4F
$IIVHW,,,317,M,03.0,N,,*62
$IIVWR,046,R,06.4,N,,,,*61
$IIDPT,006.2,-1.0,*44
$IIGLL,4612.872,N,00610.133,E,113918,A,A*59
$IIHDG,318,,,,*5D
$IIMTW,+15.0,C*3C
$IIMWV,045,R,06.5,N,A*11
$IIMWV,073,T,04.8,N,A*1D
$IIRMC,113920,A,4612.874,N,00610.130,E,03.3,314,100708,,,A*46
$IIVHW,,,318,M,03.0,N,,*6D
$IIVWR,045,R,06.5,N,,,,*63
$IIDPT,006.2,-1.0,*44
$IIGLL,4612.874,N,00610.130,E,113920,A,A*57
$IIHDG,322,,,,*54
$IIMTW,+15.5,C*39
$IIMWV,044,R,06.5,N,A*10
$IIMWV,071,T,04.8,N,A*1F
$IIRMB,A,0.06,L,,OUC ,,,,,025.60,047,-00.2,V,A*3B
$IIRMC,113920,A,4612.874,N,00610.130,E,03.3,314,100708,,,A*46
$IIVHW,,,322,M,03.0,N,,*64
$IIVWR,043,R,06.5,N,,,,*65
$IIDPT,006.2,-1.0,*44
$IIGLL,4612.875,N,00610.129,E,113922,A,A*5C
$IIHDG,327,,,,*51
$IIMTW,+15.5,C*39
$IIMWV,043,R,06.5,N,A*17
$IIMWV,070,T,04.6,N,A*10
$IIRMC,113922,A,4612.875,N,00610.129,E,03.2,331,100708,,,A*4B
$IIVHW,,,334,M,03.0,N,,*63
$IIVWR,040,R,06.5,N,,,,*66
$IIDPT,006.2,-1.0,*44
$IIGLL,4612.875,N,00610.129,E,113922,A,A*5C
$IIHDG,334,,,,*53
$IIMTW,+15.5,C*39
$IIMWV,040,R,06.5,N,A*14
$IIMWV,069,T,04.7,N,A*19
$IIRMB,A,0.06,L,,OUC ,,,,,025.60,047,00.4,V,A*10
$IIRMC,113924,A,4612.877,N,00610.128,E,03.0,349,100708,,,A*43
$IIVHW,,,345,M,02.9,N,,*6D
$IIVWR,034,R,06.7,N,,,,*67
$IIDPT,006.2,-1.0,*44
$IIGLL,4612.877,N,00610.128,E,113924,A,A*59
$IIHDG,345,,,,*55
$IIMTW,+15.5,C*39
$IIMWV,034,R,06.7,N,A*15
$IIMWV,056,T,04.4,N,A*16
$IIRMB,A,0.06,L,,OUC ,,,,,025.60,047,00.8,V,A*1C
$IIRMC,113926,A,4612.878,N,00610.128,E,02.7,344,100708,,,A*45
$IIVHW,,,348,M,02.9,N,,*60
$IIVWR,032,R,06.8,N,,,,*6E
$IIDPT,006.2,-1.0,*44
$IIGLL,4612.878,N,00610.128,E,113926,A,A*54
$IIHDG,348,,,,*58
$IIMTW,+15.5,C*39
$IIMWV,029,R,06.9,N,A*17
$IIMWV,052,T,04.5,N,A*13
$IIRMB,A,0.06,L,,OUC ,,,,,025.60,047,01.3,V,A*16
$IIRMC,113926,A,4612.878,N,00610.128,E,02.7,344,100708,,,A*45
$IIVHW,,,348,M,02.7,N,,*6E
$IIVWR,029,R,06.9,N,,,,*65
$IIDPT,006.2,-1.0,*44
$IIGLL,4612.880,N,00610.127,E,113928,A,A*52
$IIHDG,350,,,,*51
$IIMTW,+15.5,C*39
$IIMWV,027,R,06.8,N,A*18
$IIMWV,046,T,04.5,N,A*16
$IIRMC,113928,A,4612.880,N,00610.127,E,02.6,348,100708,,,A*4E
$IIVHW,,,350,M,02.7,N,,*67
$IIVWR,026,R,06.8,N,,,,*6B
$IIDPT,006.7,-1.0,*41
$IIGLL,4612.880,N,00610.127,E,113928,A,A*52
$IIHDG,348,,,,*58
$IIMTW,+15.5,C*39
$IIMWV,026,R,06.8,N,A*19
$IIMWV,043,T,04.3,N,A*15
$IIRMB,A,0.06,L,,OUC ,,,,,025.60,047,01.2,V,A*17
$IIRMC,113930,A,4612.881,N,00610.127,E,02.6,343,100708,,,A*4D
$IIVHW,,,349,M,02.6,N,,*6E
$IIVWR,025,R,06.8,N,,,,*68
$IIDPT,006.4,-1.0,*42
$IIGLL,4612.881,N,00610.127,E,113930,A,A*5A
$IIHDG,349,,,,*59
$IIMTW,+15.5,C*39
$IIMWV,025,R,06.8,N,A*1A
$IIMWV,039,T,04.4,N,A*1F
$IIRMB,A,0.05,L,,OUC ,,,,,025.60,047,01.2,V,A*14
$IIRMC,113930,A,4612.881,N,00610.127,E,02.6,343,100708,,,A*4D
$IIVHW,,,348,M,02.5,N,,*6C
$IIVWR,025,R,06.7,N,,,,*67
$IIDPT,006.4,-1.0,*42
$IIGLL,4612.881,N,00610.127,E,113930,A,A*5A
$IIHDG,348,,,,*58
$IIMTW,+15.0,C*3C
$IIMWV,025,R,06.7,N,A*15
$IIMWV,040,T,04.4,N,A*11
$IIRMC,113932,A,4612.883,N,00610.126,E,02.5,343,100708,,,A*4F
$IIVHW,,,348,M,02.5,N,,*6C
$IIVWR,025,R,06.7,N,,,,*67
$IIDPT,006.4,-1.0,*42
$IIGLL,4612.883,N,00610.126,E,113932,A,A*5B
$IIHDG,347,,,,*57
$IIMTW,+15.0,C*3C
$IIMWV,026,R,06.8,N,A*19
$IIMWV,039,T,04.4,N,A*1F
$IIRMB,A,0.05,L,,OUC ,,,,,025.60,047,01.1,V,A*17
$IIRMC,113932,A,4612.883,N,00610.126,E,02.5,343,100708,,,A*4F
$IIVHW,,,347,M,02.5,N,,*63
$IIVWR,026,R,06.8,N,,,,*6B
$IIDPT,006.4,-1.0,*42
$IIGLL,4612.884,N,00610.125,E,113934,A,A*59
$IIHDG,346,,,,*56
$IIMTW,+15.0,C*3C
$IIMWV,026,R,06.8,N,A*19
$IIMWV,039,T,04.6,N,A*1D
$IIRMC,113934,A,4612.884,N,00610.125,E,02.5,341,100708,,,A*4F
$IIVHW,,,345,M,02.4,N,,*60
$IIVWR,027,R,07.0,N,,,,*63
$IIDPT,007.4,-1.0,*43
$IIGLL,4612.884,N,00610.125,E,113934,A,A*59
$IIHDG,345,,,,*55
$IIMTW,+15.0,C*3C
$IIMWV,027,R,07.0,N,A*11
$IIMWV,039,T,04.6,N,A*1D
$IIRMB,A,0.05,L,,OUC ,,,,,025.60,047,01.0,V,A*16
$IIRMC,113936,A,4612.885,N,00610.125,E,02.4,338,100708,,,A*43
$IIVHW,,,345,M,02.4,N,,*60
$IIVWR,027,R,06.9,N,,,,*6B
$IIDPT,006.5,-1.0,*43
$IIGLL,4612.885,N,00610.125,E,113936,A,A*5A
$IIHDG,345,,,,*55
$IIMTW,+15.0,C*3C
$IIMWV,027,R,06.9,N,A*19
$IIMWV,040,T,04.8,N,A*1D
$IIRMB,A,0.05,L,,OUC ,,,,,025.60,047,00.9,V,A*1E
$IIRMC,113936,A,4612.885,N,00610.125,E,02.4,338,100708,,,A*43
$IIVHW,,,345,M,02.4,N,,*60
$IIVWR,028,R,06.9,N,,,,*64
$IIDPT,006.5,-1.0,*43
$IIGLL,4612.885,N,00610.125,E,113936,A,A*5A
$IIHDG,344,,,,*54
$IIMTW,+15.5,C*39
$IIMWV,028,R,06.8,N,A*17
$IIMWV,042,T,04.8,N,A*1F
$IIRMC,113938,A,4612.886,N,00610.124,E,02.3,338,100708,,,A*48
$IIVHW,,,344,M,02.3,N,,*66
$IIVWR,028,R,06.8,N,,,,*65
$IIDPT,006.5,-1.0,*43
$IIGLL,4612.886,N,00610.124,E,113938,A,A*56
$IIHDG,342,,,,*52
$IIMTW,+15.5,C*39
$IIMWV,030,R,06.8,N,A*1E
$IIMWV,041,T,04.6,N,A*12
$IIRMB,A,0.05,L,,OUC ,,,,,025.60,047,00.9,V,A*1E
$IIRMC,113938,A,4612.886,N,00610.124,E,02.3,338,100708,,,A*48
$IIVHW,,,342,M,02.3,N,,*60
$IIVWR,031,R,06.9,N,,,,*6C
$IIDPT,006.5,-1.0,*43
$IIGLL,4612.888,N,00610.123,E,113940,A,A*50
$IIHDG,340,,,,*50
$IIMTW,+15.5,C*39
$IIMWV,031,R,06.9,N,A*1E
$IIMWV,044,T,04.8,N,A*19
$IIRMC,113940,A,4612.888,N,00610.123,E,02.2,334,100708,,,A*43
$IIVHW,,,340,M,02.3,N,,*62
$IIVWR,033,R,06.5,N,,,,*62
$IIDPT,006.5,-1.0,*43
$IIGLL,4612.888,N,00610.123,E,113940,A,A*50
$IIHDG,340,,,,*50
$IIMTW,+15.5,C*39
$IIMWV,033,R,06.5,N,A*10
$IIMWV,045,T,04.9,N,A*19
$IIRMB,A,0.05,L,,OUC ,,,,,025.60,047,00.8,V,A*1F
$IIRMC,113940,A,4612.888,N,00610.123,E,02.2,334,100708,,,A*43
$IIVHW,,,338,M,02.3,N,,*6D
$IIVWR,032,R,06.2,N,,,,*64
$IIDPT,006.5,-1.0,*43
$IIGLL,4612.888,N,00610.123,E,113940,A,A*50
$IIHDG,338,,,,*5F
$IIMTW,+15.5,C*39
$IIMWV,032,R,06.2,N,A*16
$IIMWV,048,T,04.3,N,A*1E
$IIRMB,A,0.05,L,,OUC ,,,,,025.60,047,00.7,V,A*10
$IIRMC,113942,A,4612.889,N,00610.123,E,02.2,334,100708,,,A*40
$IIVHW,,,337,M,02.3,N,,*62
$IIVWR,033,R,06.1,N,,,,*66
$IIDPT,006.5,-1.0,*43
$IIGLL,4612.889,N,00610.123,E,113942,A,A*53
$IIHDG,331,,,,*56
$IIMTW,+15.5,C*39
$IIMWV,036,R,05.7,N,A*14
$IIMWV,049,T,04.2,N,A*1E
$IIRMC,113942,A,4612.889,N,00610.123,E,02.2,334,100708,,,A*40
$IIVHW,,,331,M,02.2,N,,*65
$IIVWR,036,R,05.7,N,,,,*66
$IIDPT,006.5,-1.0,*43
$IIGLL,4612.890,N,00610.122,E,113944,A,A*5C
$IIHDG,331,,,,*56
$IIMTW,+15.5,C*39
$IIMWV,037,R,05.8,N,A*1A
$IIMWV,055,T,04.0,N,A*11
$IIRMB,A,0.05,L,,OUC ,,,,,025.60,047,00.7,V,A*10
$IIRMC,113944,A,4612.890,N,00610.122,E,02.2,333,100708,,,A*48
$IIVHW,,,331,M,02.2,N,,*65
$IIVWR,039,R,05.9,N,,,,*67
$IIDPT,006.5,-1.0,*43
$IIGLL,4612.891,N,00610.121,E,113946,A,A*5C
$IIHDG,327,,,,*51
$IIMTW,+15.5,C*39
$IIMWV,039,R,05.9,N,A*15
$IIMWV,056,T,04.1,N,A*13
$IIRMC,113946,A,4612.891,N,00610.121,E,02.2,329,100708,,,A*43
$IIVHW,,,324,M,02.1,N,,*62
$IIVWR,042,R,06.0,N,,,,*61
$IIDPT,006.5,-1.0,*43
$IIGLL,4612.891,N,00610.121,E,113946,A,A*5C
$IIHDG,324,,,,*52
$IIMTW,+15.5,C*39
$IIMWV,042,R,06.0,N,A*13
$IIMWV,057,T,04.4,N,A*17
$IIRMB,A,0.04,L,,OUC ,,,,,025.60,047,00.6,V,A*10
$IIRMC,113948,A,4612.892,N,00610.120,E,02.2,313,100708,,,A*46
$IIVHW,,,322,M,02.1,N,,*64
$IIVWR,044,R,06.0,N,,,,*67
$IIDPT,006.5,-1.0,*43
$IIGLL,4612.892,N,00610.120,E,113948,A,A*50
$IIHDG,322,,,,*54
$IIMTW,+15.5,C*39
$IIMWV,044,R,06.0,N,A*15
$IIMWV,063,T,04.6,N,A*12
$IIRMB,A,0.04,L,,OUC ,,,,,025.59,047,00.4,V,A*18
$IIRMC,113948,A,4612.892,N,00610.120,E,02.2,313,100708,,,A*46
$IIVHW,,,320,M,02.1,N,,*66
$IIVWR,046,R,06.1,N,,,,*64
$IIDPT,006.5,-1.0,*43
$IIGLL,4612.892,N,00610.120,E,113948,A,A*50
$IIHDG,321,,,,*57
$IIMTW,+15.5,C*39
$IIMWV,046,R,06.0,N,A*17
$IIMWV,065,T,04.7,N,A*15
$IIRMC,113950,A,4612.893,N,00610.119,E,02.2,318,100708,,,A*4F
$IIVHW,,,321,M,02.1,N,,*67
$IIVWR,046,R,06.0,N,,,,*65
$IIDPT,006.5,-1.0,*43
$IIGLL,4612.893,N,00610.119,E,113950,A,A*52
$IIHDG,322,,,,*54
$IIMTW,+15.0,C*3C
$IIMWV,049,R,06.2,N,A*1A
$IIMWV,066,T,04.7,N,A*16
$IIRMB,A,0.04,L,,OUC ,,,,,025.59,047,00.0,V,A*1C
$IIRMC,113950,A,4612.893,N,00610.119,E,02.2,318,100708,,,A*4F
$IIVHW,,,322,M,02.1,N,,*64
$IIVWR,048,R,06.2,N,,,,*69
$IIDPT,006.5,-1.0,*43
$IIGLL,4612.893,N,00610.119,E,113950,A,A*52
$IIHDG,323,,,,*55
$IIMTW,+15.0,C*3C
$IIMWV,048,R,06.2,N,A*1B
$IIMWV,068,T,04.9,N,A*16
$IIRMC,113950,A,4612.893,N,00610.119,E,02.2,318,100708,,,A*4F
$IIVHW,,,324,M,02.1,N,,*62
$IIVWR,049,R,06.7,N,,,,*6D
$IIDPT,006.5,-1.0,*43
$IIGLL,4612.894,N,00610.118,E,113952,A,A*56
$IIHDG,324,,,,*52
$IIMTW,+15.0,C*3C
$IIMWV,049,R,06.7,N,A*1F
$IIMWV,066,T,04.9,N,A*18
$IIRMB,A,0.04,L,,OUC ,,,,,025.59,047,00.1,V,A*1D
$IIRMC,113952,A,4612.894,N,00610.118,E,02.1,316,100708,,,A*46
$IIVHW,,,322,M,02.1,N,,*64
$IIVWR,048,R,06.4,N,,,,*6F
$IIDPT,006.5,-1.0,*43
$IIGLL,4612.894,N,00610.118,E,113952,A,A*56
$IIHDG,322,,,,*54
$IIMTW,+15.0,C*3C
$IIMWV,048,R,06.4,N,A*1D
$IIMWV,066,T,05.1,N,A*11
$IIRMB,A,0.04,L,,OUC ,,,,,025.59,047,-00.1,V,A*30
$IIRMC,113954,A,4612.895,N,00610.117,E,02.2,315,100708,,,A*4E
$IIVHW,,,323,M,02.1,N,,*65
$IIVWR,049,R,06.4,N,,,,*6E
$IIDPT,006.5,-1.0,*43
$IIGLL,4612.895,N,00610.117,E,113954,A,A*5E
$IIHDG,324,,,,*52
$IIMTW,+15.0,C*3C
$IIMWV,049,R,06.2,N,A*1A
$IIMWV,066,T,05.2,N,A*12
$IIRMC,113954,A,4612.895,N,00610.117,E,02.2,315,100708,,,A*4E
$IIVHW,,,324,M,02.0,N,,*63
$IIVWR,049,R,06.2,N,,,,*68
$IIDPT,006.5,-1.0,*43
$IIGLL,4612.895,N,00610.116,E,113956,A,A*5D
$IIHDG,323,,,,*55
$IIMTW,+15.0,C*3C
$IIMWV,048,R,06.2,N,A*1B
$IIMWV,068,T,04.9,N,A*16
$IIRMB,A,0.04,L,,OUC ,,,,,025.59,047,-00.1,V,A*30
$IIRMC,113956,A,4612.895,N,00610.116,E,02.1,316,100708,,,A*4D
$IIVHW,,,323,M,02.0,N,,*64
$IIVWR,049,R,06.1,N,,,,*6B
$IIDPT,006.5,-1.0,*43
$IIGLL,4612.895,N,00610.116,E,113956,A,A*5D
$IIHDG,323,,,,*55
$IIMTW,+15.0,C*3C
$IIMWV,049,R,06.1,N,A*19
$IIMWV,066,T,04.9,N,A*18
$IIRMC,113956,A,4612.895,N,00610.116,E,02.1,316,100708,,,A*4D
$IIVHW,,,322,M,02.1,N,,*64
$IIVWR,050,R,06.2,N,,,,*60
$IIDPT,006.5,-1.0,*43
$IIGLL,4612.896,N,00610.114,E,113958,A,A*52
$IIHDG,322,,,,*54
$IIMTW,+15.0,C*3C
$IIMWV,050,R,06.2,N,A*12
$IIMWV,067,T,04.8,N,A*18
$IIRMB,A,0.04,L,,OUC ,,,,,025.59,047,00.0,V,A*1C
$IIRMC,113958,A,4612.896,N,00610.114,E,02.2,317,100708,,,A*40
$IIVHW,,,320,M,02.1,N,,*66
$IIVWR,050,R,06.1,N,,,,*63
$IIDPT,006.6,-1.0,*40
$IIGLL,4612.896,N,00610.114,E,113958,A,A*52
$IIHDG,320,,,,*56
$IIMTW,+15.0,C*3C
$IIMWV,050,R,06.1,N,A*11
$IIMWV,069,T,04.9,N,A*17
$IIRMB,A,0.04,L,,OUC ,,,,,025.59,047,00.0,V,A*1C
$IIRMC,114000,A,4612.897,N,00610.113,E,02.1,316,100708,,,A*47
$IIVHW,,,319,M,02.1,N,,*6C
$IIVWR,051,R,06.2,N,,,,*61
$IIDPT,006.6,-1.0,*40
$IIGLL,4612.897,N,00610.113,E,114000,A,A*57
$IIHDG,316,,,,*53
$IIMTW,+15.0,C*3C
$IIMWV,052,R,06.1,N,A*13
$IIMWV,069,T,05.1,N,A*1E
$IIRMC,114002,A,4612.898,N,00610.112,E,02.1,315,100708,,,A*48
$IIVHW,,,316,M,02.1,N,,*63
$IIVWR,052,R,06.1,N,,,,*61
$IIDPT,006.6,-1.0,*40
$IIGLL,4612.898,N,00610.112,E,114002,A,A*5B
$IIHDG,314,,,,*51
$IIMTW,+15.0,C*3C
$IIMWV,054,R,06.6,N,A*12
$IIMWV,073,T,05.0,N,A*14
$IIRMB,A,0.04,L,,OUC ,,,,,025.59,047,00.0,V,A*1C
$IIRMC,114002,A,4612.898,N,00610.112,E,02.1,315,100708,,,A*48
$IIVHW,,,314,M,02.2,N,,*62
$IIVWR,055,R,06.4,N,,,,*63
$IIDPT,006.6,-1.0,*40
$IIGLL,4612.899,N,00610.110,E,114004,A,A*5E
$IIHDG,312,,,,*57
$IIMTW,+15.0,C*3C
$IIMWV,055,R,06.4,N,A*11
$IIMWV,073,T,05.5,N,A*11
$IIRMC,114004,A,4612.899,N,00610.110,E,02.6,303,100708,,,A*4D
$IIVHW,,,312,M,02.2,N,,*64
$IIVWR,055,R,06.4,N,,,,*63
$IIDPT,006.6,-1.0,*40
$IIGLL,4612.899,N,00610.110,E,114004,A,A*5E
$IIHDG,312,,,,*57
$IIMTW,+15.0,C*3C
$IIMWV,055,R,06.4,N,A*11
$IIMWV,076,T,05.3,N,A*12
$IIRMB,A,0.03,L,,OUC ,,,,,025.59,047,-00.3,V,A*35
$IIRMC,114006,A,4612.900,N,00610.109,E,02.7,309,100708,,,A*4D
$IIVHW,,,313,M,02.3,N,,*64
$IIVWR,055,R,06.4,N,,,,*63
$IIDPT,006.7,-1.0,*41
$IIGLL,4612.900,N,00610.109,E,114006,A,A*55
$IIHDG,313,,,,*56
$IIMTW,+15.0,C*3C
$IIMWV,055,R,06.4,N,A*11
$IIMWV,076,T,05.3,N,A*12
$IIRMB,A,0.03,L,,OUC ,,,,,025.60,047,-00.4,V,A*38
$IIRMC,114006,A,4612.900,N,00610.109,E,02.7,309,100708,,,A*4D
$IIVHW,,,316,M,02.3,N,,*61
$IIVWR,054,R,06.2,N,,,,*64
$IIDPT,006.7,-1.0,*41
$IIGLL,4612.900,N,00610.109,E,114006,A,A*55
$IIHDG,319,,,,*5C
$IIMTW,+15.0,C*3C
$IIMWV,053,R,06.3,N,A*10
$IIMWV,075,T,05.1,N,A*13
$IIRMC,114008,A,4612.901,N,00610.107,E,02.7,310,100708,,,A*44
$IIVHW,,,319,M,02.3,N,,*6E
$IIVWR,053,R,06.3,N,,,,*62
$IIDPT,006.7,-1.0,*41
$IIGLL,4612.901,N,00610.107,E,114008,A,A*54
$IIHDG,322,,,,*54
$IIMTW,+15.0,C*3C
$IIMWV,051,R,06.4,N,A*15
$IIMWV,075,T,05.1,N,A*13
$IIRMB,A,0.03,L,,OUC ,,,,,025.60,047,-00.3,V,A*3F
$IIRMC,114008,A,4612.901,N,00610.107,E,02.7,310,100708,,,A*44
$IIVHW,,,322,M,02.4,N,,*61
$IIVWR,048,R,06.4,N,,,,*6F
$IIDPT,006.7,-1.0,*41
$IIGLL,4612.903,N,00610.106,E,114010,A,A*5E
$IIHDG,326,,,,*50
$IIMTW,+15.5,C*39
$IIMWV,048,R,06.4,N,A*1D
$IIMWV,072,T,05.1,N,A*14
$IIRMC,114010,A,4612.903,N,00610.106,E,02.9,318,100708,,,A*48
$IIVHW,,,328,M,02.4,N,,*6B
$IIVWR,047,R,06.5,N,,,,*61
$IIDPT,006.7,-1.0,*41
$IIGLL,4612.903,N,00610.106,E,114010,A,A*5E
$IIHDG,328,,,,*5E
$IIMTW,+15.5,C*39
$IIMWV,047,R,06.5,N,A*13
$IIMWV,070,T,04.9,N,A*1F
$IIRMB,A,0.03,L,,OUC ,,,,,025.60,047,00.1,V,A*10
$IIRMC,114012,A,4612.904,N,00610.104,E,02.9,319,100708,,,A*4E
$IIVHW,,,331,M,02.4,N,,*63
$IIVWR,046,R,06.6,N,,,,*63
$IIDPT,006.7,-1.0,*41
$IIGLL,4612.904,N,00610.104,E,114012,A,A*59
$IIHDG,331,,,,*56
$IIMTW,+15.0,C*3C
$IIMWV,046,R,06.6,N,A*11
$IIMWV,067,T,05.1,N,A*10
$IIRMB,A,0.03,L,,OUC ,,,,,025.60,047,00.1,V,A*10
$IIRMC,114012,A,4612.904,N,00610.104,E,02.9,319,100708,,,A*4E
$IIVHW,,,333,M,02.5,N,,*60
$IIVWR,045,R,06.9,N,,,,*6F
$IIDPT,006.7,-1.0,*41
$IIGLL,4612.904,N,00610.104,E,114012,A,A*59
$IIHDG,333,,,,*54
$IIMTW,+15.0,C*3C
$IIMWV,043,R,06.8,N,A*1A
$IIMWV,064,T,05.3,N,A*11
$IIRMC,114012,A,4612.904,N,00610.104,E,02.9,319,100708,,,A*4E
$IIVHW,,,333,M,02.5,N,,*60
$IIVWR,043,R,06.8,N,,,,*68
$IIDPT,006.8,-1.0,*4E
$IIGLL,4612.905,N,00610.103,E,114014,A,A*59
$IIHDG,332,,,,*55
$IIMTW,+15.0,C*3C
$IIMWV,042,R,06.8,N,A*1B
$IIMWV,063,T,05.1,N,A*14
$IIRMB,A,0.03,L,,OUC ,,,,,025.60,047,00.1,V,A*10
$IIRMC,114014,A,4612.905,N,00610.103,E,02.9,320,100708,,,A*44
$IIVHW,,,332,M,02.6,N,,*62
$IIVWR,041,R,06.9,N,,,,*6B
$IIDPT,006.8,-1.0,*4E
$IIGLL,4612.906,N,00610.101,E,114016,A,A*5A
$IIHDG,333,,,,*54
$IIMTW,+15.0,C*3C
$IIMWV,041,R,06.9,N,A*19
$IIMWV,062,T,05.1,N,A*15
$IIRMC,114016,A,4612.906,N,00610.101,E,02.9,322,100708,,,A*45
$IIVHW,,,333,M,02.6,N,,*63
$IIVWR,040,R,06.9,N,,,,*6A
$IIDPT,006.8,-1.0,*4E
$IIGLL,4612.906,N,00610.101,E,114016,A,A*5A
$IIHDG,333,,,,*54
$IIMTW,+15.0,C*3C
$IIMWV,040,R,06.9,N,A*18
$IIMWV,061,T,05.1,N,A*16
$IIRMB,A,0.02,L,,OUC ,,,,,025.59,047,00.1,V,A*1B
$IIRMC,114018,A,4612.908,N,00610.100,E,02.8,329,100708,,,A*4E
$IIVHW,,,334,M,02.5,N,,*67
$IIVWR,039,R,07.1,N,,,,*6D
$IIDPT,006.8,-1.0,*4E
$IIGLL,4612.908,N,00610.100,E,114018,A,A*5B
$IIHDG,334,,,,*53
$IIMTW,+15.0,C*3C
$IIMWV,039,R,07.1,N,A*1F
$IIMWV,057,T,05.2,N,A*10
$IIRMB,A,0.02,L,,OUC ,,,,,025.59,047,00.6,V,A*1C
$IIRMC,114018,A,4612.908,N,00610.100,E,02.8,329,100708,,,A*4E
$IIVHW,,,335,M,02.6,N,,*65
$IIVWR,038,R,06.9,N,,,,*65
$IIDPT,006.8,-1.0,*4E
$IIGLL,4612.908,N,00610.100,E,114018,A,A*5B
$IIHDG,337,,,,*50
$IIMTW,+15.0,C*3C
$IIMWV,039,R,07.2,N,A*1C
$IIMWV,056,T,05.0,N,A*13
$IIRMC,114020,A,4612.909,N,00610.099,E,02.9,332,100708,,,A*4E
$IIVHW,,,337,M,02.6,N,,*67
$IIVWR,039,R,07.2,N,,,,*6E
$IIDPT,006.8,-1.0,*4E
$IIGLL,4612.909,N,00610.099,E,114020,A,A*50
$IIHDG,338,,,,*5F
$IIMTW,+15.0,C*3C
$IIMWV,039,R,07.3,N,A*1D
$IIMWV,057,T,05.3,N,A*11
$IIRMB,A,0.02,L,,OUC ,,,,,025.59,047,00.7,V,A*1D
$IIRMC,114020,A,4612.909,N,00610.099,E,02.9,332,100708,,,A*4E
$IIVHW,,,338,M,02.6,N,,*68
$IIVWR,038,R,07.4,N,,,,*69
$IIDPT,006.8,-1.0,*4E
$IIGLL,4612.911,N,00610.098,E,114022,A,A*5A
$IIHDG,339,,,,*5E
$IIMTW,+15.0,C*3C
$IIMWV,038,R,07.4,N,A*1B
$IIMWV,057,T,05.3,N,A*11
$IIRMC,114022,A,4612.911,N,00610.098,E,02.9,335,100708,,,A*43
$IIVHW,,,340,M,02.7,N,,*66
$IIVWR,037,R,07.4,N,,,,*66
$IIDPT,006.8,-1.0,*4E
$IIGLL,4612.911,N,00610.098,E,114022,A,A*5A
$IIHDG,340,,,,*50
$IIMTW,+15.5,C*39
$IIMWV,037,R,07.4,N,A*14
$IIMWV,056,T,05.4,N,A*17
$IIRMB,A,0.02,L,,OUC ,,,,,025.59,047,00.8,V,A*12
$IIRMC,114024,A,4612.912,N,00610.097,E,02.8,334,100708,,,A*49
$IIVHW,,,342,M,02.7,N,,*64
$IIVWR,036,R,07.5,N,,,,*66
$IIDPT,006.8,-1.0,*4E
$IIGLL,4612.912,N,00610.097,E,114024,A,A*50
$IIHDG,342,,,,*52
$IIMTW,+15.5,C*39
$IIMWV,036,R,07.5,N,A*14
$IIMWV,053,T,05.5,N,A*13
$IIRMB,A,0.02,L,,OUC ,,,,,025.59,047,00.9,V,A*13
$IIRMC,114026,A,4612.913,N,00610.096,E,02.9,336,100708,,,A*48
$IIVHW,,,343,M,02.7,N,,*65
$IIVWR,037,R,07.8,N,,,,*6A
$IIDPT,006.9,-1.0,*4F
$IIGLL,4612.913,N,00610.096,E,114026,A,A*52
$IIHDG,343,,,,*53
$IIMTW,+15.0,C*3C
$IIMWV,037,R,07.8,N,A*18
$IIMWV,053,T,05.7,N,A*11
$IIRMC,114028,A,4612.915,N,00610.095,E,02.9,335,100708,,,A*40
$IIVHW,,,343,M,02.6,N,,*64
$IIVWR,037,R,07.8,N,,,,*6A
$IIDPT,007.0,-1.0,*47
$IIGLL,4612.915,N,00610.095,E,114028,A,A*59
$IIHDG,342,,,,*52
$IIMTW,+15.0,C*3C
$IIMWV,036,R,07.8,N,A*19
$IIMWV,052,T,05.8,N,A*1F
$IIRMB,A,0.01,L,,OUC ,,,,,025.59,047,00.9,V,A*10
$IIRMC,114028,A,4612.915,N,00610.095,E,02.9,335,100708,,,A*40
$IIVHW,,,342,M,02.6,N,,*65
$IIVWR,036,R,07.7,N,,,,*64
$IIDPT,007.0,-1.0,*47
$IIGLL,4612.916,N,00610.094,E,114030,A,A*52
$IIHDG,340,,,,*50
$IIMTW,+15.0,C*3C
$IIMWV,036,R,07.7,N,A*16
