$IIHDG,138,,,01,E*19
$IIMTW,+20.5,C*3F
$IIMWV,280,R,03.4,N,A*1E
$IIMWV,240,T,03.8,N,A*18
$IIRMC,114711,A,4613.091,N,00609.850,E,02.5,144,280614,01,E,A*0B
$IIVHW,,,138,M,02.4,N,,*68
$IIVLW,01565,N,001.7,N*52
$IIVWR,080,L,03.4,N,,,,*70
$IIDPT,008.1,-1.0,*49
$IIGLL,4613.090,N,00609.850,E,114712,A,A*5B
$IIHDG,139,,,01,E*18
$IIMTW,+20.5,C*3F
$IIMWV,280,R,03.3,N,A*19
$IIMWV,240,T,03.8,N,A*18
$IIRMC,114712,A,4613.090,N,00609.850,E,02.5,144,280614,01,E,A*09
$IIVHW,,,139,M,02.4,N,,*69
$IIVLW,01565,N,001.7,N*52
$IIVWR,080,L,03.3,N,,,,*77
$IIDPT,008.1,-1.0,*49
$IIGLL,4613.089,N,00609.851,E,114713,A,A*53
$IIHDG,139,,,01,E*18
$IIMTW,+20.5,C*3F
$IIMWV,278,R,03.2,N,A*1F
$IIMWV,239,T,03.7,N,A*19
$IIRMC,114713,A,4613.089,N,00609.851,E,02.7,146,280614,01,E,A*01
$IIVHW,,,139,M,02.3,N,,*6E
$IIVLW,01565,N,001.7,N*52
$IIVWR,079,L,03.3,N,,,,*71
$IIDPT,008.1,-1.0,*49
$IIGLL,4613.088,N,00609.852,E,114714,A,A*56
$IIHDG,140,,,01,E*16
$IIMTW,+20.5,C*3F
$IIMWV,281,R,03.3,N,A*18
$IIMWV,237,T,03.6,N,A*16
$IIRMC,114714,A,4613.088,N,00609.852,E,02.5,145,280614,01,E,A*05
$IIVHW,,,140,M,02.3,N,,*60
$IIVLW,01565,N,001.7,N*52
$IIVWR,082,L,03.2,N,,,,*74
$IIDPT,008.1,-1.0,*49
$IIGLL,4613.088,N,00609.852,E,114715,A,A*57
$IIHDG,140,,,01,E*16
$IIMTW,+20.5,C*3F
$IIMWV,278,R,03.2,N,A*1F
$IIMWV,241,T,03.6,N,A*17
$IIRMC,114715,A,4613.088,N,00609.852,E,02.5,145,280614,01,E,A*04
$IIVHW,,,141,M,02.3,N,,*61
$IIVLW,01565,N,001.7,N*52
$IIVWR,084,L,03.3,N,,,,*73
$IIDPT,008.1,-1.0,*49
$IIGLL,4613.087,N,00609.853,E,114716,A,A*5A
$IIHDG,141,,,01,E*17
$IIMTW,+20.5,C*3F
$IIMWV,276,R,03.3,N,A*10
$IIMWV,238,T,03.6,N,A*19
$IIRMC,114717,A,4613.087,N,00609.853,E,02.3,148,280614,01,E,A*03
$IIVHW,,,141,M,02.3,N,,*61
$IIVLW,01565,N,001.7,N*52
$IIVWR,087,L,03.3,N,,,,*70
$IIDPT,008.1,-1.0,*49
$IIGLL,4613.087,N,00609.853,E,114717,A,A*5B
$IIHDG,141,,,01,E*17
$IIMTW,+20.5,C*3F
$IIMWV,273,R,03.3,N,A*15
$IIMWV,235,T,04.0,N,A*15
$IIRMC,114718,A,4613.086,N,00609.854,E,02.5,151,280614,01,E,A*04
$IIVHW,,,142,M,02.3,N,,*62
$IIVLW,01565,N,001.7,N*52
$IIVWR,086,L,03.3,N,,,,*71
$IIDPT,008.1,-1.0,*49
$IIGLL,4613.086,N,00609.854,E,114718,A,A*52
$IIHDG,142,,,01,E*14
$IIMTW,+20.5,C*3F
$IIMWV,275,R,03.4,N,A*14
$IIMWV,237,T,03.9,N,A*19
$IIRMC,114719,A,4613.086,N,00609.854,E,02.6,150,280614,01,E,A*07
$IIVHW,,,142,M,02.3,N,,*62
$IIVLW,01565,N,001.7,N*52
$IIVWR,085,L,03.4,N,,,,*75
$IIDPT,008.1,-1.0,*49
$IIGLL,4613.086,N,00609.854,E,114719,A,A*53
$IIHDG,142,,,01,E*14
$IIMTW,+20.5,C*3F
$IIMWV,276,R,03.4,N,A*17
$IIMWV,239,T,03.9,N,A*17
$IIRMC,114720,A,4613.085,N,00609.855,E,02.3,150,280614,01,E,A*0A
$IIVHW,,,142,M,02.3,N,,*62
$IIVLW,01565,N,001.7,N*52
$IIVWR,084,L,03.4,N,,,,*74
$IIDPT,008.1,-1.0,*49
$IIGLL,4613.085,N,00609.855,E,114720,A,A*5B
$IIHDG,143,,,01,E*15
$IIMTW,+20.5,C*3F
$IIMWV,273,R,03.4,N,A*12
$IIMWV,239,T,03.8,N,A*16
$IIRMC,114721,A,4613.084,N,00609.855,E,02.7,154,280614,01,E,A*0A
$IIVHW,,,143,M,02.3,N,,*63
$IIVLW,01565,N,001.7,N*52
$IIVWR,087,L,03.4,N,,,,*77
$IIDPT,008.1,-1.0,*49
$IIGLL,4613.083,N,00609.856,E,114723,A,A*5D
$IIHDG,143,,,01,E*15
$IIMTW,+20.5,C*3F
$IIMWV,273,R,03.2,N,A*14
$IIMWV,239,T,03.7,N,A*19
$IIRMC,114723,A,4613.083,N,00609.856,E,02.5,146,280614,01,E,A*0D
$IIVHW,,,143,M,01.9,N,,*6A
$IIVLW,01565,N,001.7,N*52
$IIVWR,087,L,03.2,N,,,,*71
$IIDPT,008.1,-1.0,*49
$IIGLL,4613.083,N,00609.856,E,114724,A,A*5A
$IIHDG,143,,,01,E*15
$IIMTW,+20.5,C*3F
$IIMWV,273,R,03.3,N,A*15
$IIMWV,241,T,03.6,N,A*17
$IIRMC,114724,A,4613.083,N,00609.856,E,02.5,147,280614,01,E,A*0B
$IIVHW,,,143,M,02.0,N,,*60
$IIVLW,01565,N,001.7,N*52
$IIVWR,086,L,03.3,N,,,,*71
$IIDPT,008.1,-1.0,*49
$IIGLL,4613.083,N,00609.856,E,114724,A,A*5A
$IIHDG,143,,,01,E*15
$IIMTW,+18.0,C*31
$IIMWV,274,R,03.3,N,A*12
$IIMWV,240,T,03.8,N,A*18
$IIRMC,114724,A,4613.083,N,00609.856,E,02.5,147,280614,01,E,A*0B
$IIVHW,,,143,M,02.0,N,,*60
$IIVLW,01565,N,001.7,N*52
$IIVWR,089,L,03.3,N,,,,*7E
$IIDPT,008.1,-1.0,*49
$IIGLL,4613.081,N,00609.858,E,114726,A,A*54
$IIHDG,143,,,01,E*15
$IIMTW,+20.0,C*3A
$IIMWV,271,R,03.3,N,A*17
$IIMWV,240,T,03.8,N,A*18
$IIRMC,114726,A,4613.081,N,00609.858,E,02.8,151,280614,01,E,A*0F
$IIVHW,,,144,M,02.1,N,,*66
$IIVLW,01565,N,001.7,N*52
$IIVWR,088,L,03.3,N,,,,*7F
$IIDPT,008.1,-1.0,*49
$IIGLL,4613.080,N,00609.859,E,114727,A,A*55
$IIHDG,144,,,01,E*12
$IIMTW,+20.0,C*3A
$IIMWV,272,R,03.3,N,A*14
$IIMWV,237,T,03.9,N,A*19
$IIRMC,114728,A,4613.080,N,00609.859,E,02.3,152,280614,01,E,A*09
$IIVHW,,,145,M,02.1,N,,*67
$IIVLW,01565,N,001.7,N*52
$IIVWR,092,L,03.4,N,,,,*73
$IIDPT,008.1,-1.0,*49
$IIGLL,4613.080,N,00609.859,E,114728,A,A*5A
$IIHDG,145,,,01,E*13
$IIMTW,+20.5,C*3F
$IIMWV,268,R,03.4,N,A*18
$IIMWV,236,T,04.1,N,A*17
$IIRMC,114728,A,4613.080,N,00609.859,E,02.3,152,280614,01,E,A*09
$IIVHW,,,146,M,02.1,N,,*64
$IIVLW,01565,N,001.7,N*52
$IIVWR,092,L,03.4,N,,,,*73
$IIDPT,008.1,-1.0,*49
$IIGLL,4613.080,N,00609.859,E,114728,A,A*5A
$IIHDG,146,,,01,E*10
$IIMTW,+20.5,C*3F
$IIMWV,271,R,03.4,N,A*10
$IIMWV,236,T,04.1,N,A*17
$IIRMC,114728,A,4613.080,N,00609.859,E,02.3,152,280614,01,E,A*09
$IIVHW,,,146,M,02.1,N,,*64
$IIVLW,01565,N,001.7,N*52
$IIVWR,089,L,03.4,N,,,,*79
$IIDPT,008.1,-1.0,*49
$IIGLL,4613.080,N,00609.859,E,114728,A,A*5A
$IIHDG,146,,,01,E*10
$IIMTW,+20.5,C*3F
$IIMWV,265,R,03.4,N,A*15
$IIMWV,237,T,04.0,N,A*17
$IIRMC,114731,A,4613.078,N,00609.861,E,02.4,153,280614,01,E,A*0B
$IIVHW,,,147,M,02.2,N,,*66
$IIVLW,01565,N,001.7,N*52
$IIVWR,095,L,03.4,N,,,,*74
$IIDPT,008.1,-1.0,*49
$IIGLL,4613.078,N,00609.861,E,114731,A,A*5E
$IIHDG,147,,,01,E*11
$IIMTW,+20.5,C*3F
$IIMWV,268,R,03.4,N,A*18
$IIMWV,234,T,04.2,N,A*16
$IIRMC,114732,A,4613.078,N,00609.861,E,02.4,154,280614,01,E,A*0F
$IIVHW,,,147,M,02.2,N,,*66
$IIVLW,01565,N,001.7,N*52
$IIVWR,092,L,03.4,N,,,,*73
$IIDPT,008.1,-1.0,*49
$IIGLL,4613.077,N,00609.861,E,114733,A,A*53
$IIHDG,147,,,01,E*11
$IIMTW,+20.5,C*3F
$IIMWV,265,R,03.4,N,A*15
$IIMWV,236,T,04.1,N,A*17
$IIRMC,114733,A,4613.077,N,00609.861,E,02.1,149,280614,01,E,A*08
$IIVHW,,,147,M,02.2,N,,*66
$IIVLW,01565,N,001.7,N*52
$IIVWR,095,L,03.4,N,,,,*74
$IIDPT,008.1,-1.0,*49
$IIGLL,4613.077,N,00609.862,E,114734,A,A*57
$IIHDG,148,,,01,E*1E
$IIMTW,+20.5,C*3F
$IIMWV,278,R,03.4,N,A*19
$IIMWV,234,T,04.2,N,A*16
$IIRMC,114734,A,4613.077,N,00609.862,E,02.3,153,280614,01,E,A*05
$IIVHW,,,148,M,02.2,N,,*69
$IIVLW,01565,N,001.7,N*52
$IIVWR,081,L,03.2,N,,,,*77
$IIDPT,008.1,-1.0,*49
$IIGLL,4613.076,N,00609.862,E,114735,A,A*57
$IIHDG,148,,,01,E*1E
$IIMTW,+20.5,C*3F
$IIMWV,279,R,03.2,N,A*1E
$IIMWV,241,T,03.7,N,A*16
$IIRMC,114735,A,4613.076,N,00609.862,E,02.3,157,280614,01,E,A*01
$IIVHW,,,148,M,02.2,N,,*69
$IIVLW,01565,N,001.7,N*52
$IIVWR,081,L,03.2,N,,,,*77
$IIDPT,008.1,-1.0,*49
$IIGLL,4613.075,N,00609.862,E,114736,A,A*57
$IIHDG,147,,,01,E*11
$IIMTW,+20.5,C*3F
$IIMWV,279,R,03.2,N,A*1E
$IIMWV,241,T,03.5,N,A*14
$IIRMC,114736,A,4613.075,N,00609.862,E,02.3,159,280614,01,E,A*0F
$IIVHW,,,148,M,02.2,N,,*69
$IIVLW,01565,N,001.7,N*52
$IIVWR,083,L,03.5,N,,,,*72
$IIDPT,008.1,-1.0,*49
$IIGLL,4613.075,N,00609.863,E,114737,A,A*57
$IIHDG,148,,,01,E*1E
$IIMTW,+20.5,C*3F
$IIMWV,277,R,03.5,N,A*17
$IIMWV,241,T,03.5,N,A*14
$IIRMC,114738,A,4613.074,N,00609.863,E,02.1,150,280614,01,E,A*0A
$IIVHW,,,148,M,02.2,N,,*69
$IIVLW,01565,N,001.7,N*52
$IIVWR,096,L,03.3,N,,,,*70
$IIDPT,008.1,-1.0,*49
$IIGLL,4613.074,N,00609.863,E,114738,A,A*59
$IIHDG,148,,,01,E*1E
$IIMTW,+20.5,C*3F
$IIMWV,264,R,03.3,N,A*13
$IIMWV,232,T,04.0,N,A*12
$IIRMC,114739,A,4613.074,N,00609.863,E,02.1,162,280614,01,E,A*0A
$IIVHW,,,147,M,02.2,N,,*66
$IIVLW,01565,N,001.7,N*52
$IIVWR,098,L,03.5,N,,,,*78
$IIDPT,008.1,-1.0,*49
$IIGLL,4613.074,N,00609.863,E,114739,A,A*58
$IIHDG,147,,,01,E*11
$IIMTW,+20.5,C*3F
$IIMWV,268,R,04.0,N,A*1B
$IIMWV,232,T,04.3,N,A*11
$IIRMC,114740,A,4613.073,N,00609.864,E,02.1,157,280614,01,E,A*02
$IIVHW,,,147,M,02.2,N,,*66
$IIVLW,01565,N,001.7,N*52
$IIVWR,092,L,04.0,N,,,,*70
$IIDPT,008.1,-1.0,*49
$IIGLL,4613.073,N,00609.864,E,114740,A,A*56
$IIHDG,147,,,01,E*11
$IIMTW,+20.5,C*3F
$IIMWV,261,R,04.1,N,A*13
$IIMWV,239,T,04.6,N,A*1F
$IIRMC,114741,A,4613.073,N,00609.864,E,02.3,146,280614,01,E,A*01
$IIVHW,,,147,M,02.2,N,,*66
$IIVLW,01565,N,001.7,N*52
$IIVWR,099,L,04.1,N,,,,*7A
$IIDPT,008.1,-1.0,*49
$IIGLL,4613.073,N,00609.864,E,114741,A,A*57
$IIHDG,147,,,01,E*11
$IIMTW,+20.5,C*3F
$IIMWV,260,R,04.0,N,A*13
$IIMWV,234,T,04.9,N,A*1D
$IIRMC,114742,A,4613.072,N,00609.865,E,02.3,161,280614,01,E,A*07
$IIVHW,,,147,M,02.2,N,,*66
$IIVLW,01565,N,001.7,N*52
$IIVWR,100,L,04.0,N,,,,*7A
$IIDPT,008.1,-1.0,*49
$IIGLL,4613.071,N,00609.865,E,114743,A,A*56
$IIHDG,147,,,01,E*11
$IIMTW,+20.5,C*3F
$IIMWV,264,R,04.5,N,A*12
$IIMWV,233,T,04.8,N,A*1B
$IIRMC,114743,A,4613.071,N,00609.865,E,02.4,150,280614,01,E,A*00
$IIVHW,,,147,M,02.2,N,,*66
$IIVLW,01565,N,001.7,N*52
$IIVWR,096,L,04.5,N,,,,*71
$IIDPT,008.1,-1.0,*49
$IIGLL,4613.071,N,00609.865,E,114744,A,A*51
$IIHDG,147,,,01,E*11
$IIMTW,+20.5,C*3F
$IIMWV,259,R,04.7,N,A*1E
$IIMWV,238,T,05.1,N,A*18
$IIRMC,114744,A,4613.071,N,00609.865,E,02.4,145,280614,01,E,A*03
$IIVHW,,,147,M,02.3,N,,*67
$IIVLW,01565,N,001.7,N*52
$IIVWR,103,L,04.7,N,,,,*7E
$IIDPT,008.1,-1.0,*49
$IIGLL,4613.070,N,00609.866,E,114745,A,A*52
$IIHDG,147,,,01,E*11
$IIMTW,+20.5,C*3F
$IIMWV,257,R,04.7,N,A*10
$IIMWV,236,T,05.5,N,A*12
$IIRMC,114745,A,4613.070,N,00609.866,E,02.3,156,280614,01,E,A*05
$IIVHW,,,147,M,02.3,N,,*67
$IIVLW,01565,N,001.8,N*5D
$IIVWR,097,L,04.9,N,,,,*7C
$IIDPT,008.1,-1.0,*49
$IIGLL,4613.069,N,00609.866,E,114746,A,A*59
$IIHDG,146,,,01,E*10
$IIMTW,+20.5,C*3F
$IIMWV,263,R,04.9,N,A*19
$IIMWV,234,T,05.5,N,A*10
$IIRMC,114746,A,4613.069,N,00609.866,E,02.3,149,280614,01,E,A*00
$IIVHW,,,146,M,02.3,N,,*66
$IIVLW,01565,N,001.8,N*5D
$IIVWR,100,L,04.9,N,,,,*73
$IIDPT,008.1,-1.0,*49
$IIGLL,4613.069,N,00609.866,E,114747,A,A*58
$IIHDG,146,,,01,E*10
$IIMTW,+20.5,C*3F
$IIMWV,260,R,04.9,N,A*1A
$IIMWV,240,T,05.5,N,A*13
$IIRMC,114748,A,4613.068,N,00609.867,E,02.5,154,280614,01,E,A*04
$IIVHW,,,146,M,02.3,N,,*66
$IIVLW,01565,N,001.8,N*5D
$IIVWR,100,L,04.9,N,,,,*73
$IIDPT,008.1,-1.0,*49
$IIGLL,4613.068,N,00609.867,E,114748,A,A*57
$IIHDG,146,,,01,E*10
$IIMTW,+20.5,C*3F
$IIMWV,260,R,04.9,N,A*1A
$IIMWV,237,T,05.7,N,A*11
$IIRMC,114749,A,4613.068,N,00609.867,E,02.1,147,280614,01,E,A*03
$IIVHW,,,146,M,02.3,N,,*66
$IIVLW,01565,N,001.8,N*5D
$IIVWR,093,L,04.6,N,,,,*77
$IIDPT,008.1,-1.0,*49
$IIGLL,4613.068,N,00609.867,E,114749,A,A*56
$IIHDG,146,,,01,E*10
$IIMTW,+20.5,C*3F
$IIMWV,273,R,04.6,N,A*17
$IIMWV,241,T,05.2,N,A*15
$IIRMC,114750,A,4613.067,N,00609.868,E,02.4,151,280614,01,E,A*09
$IIVHW,,,147,M,02.3,N,,*67
$IIVLW,01565,N,001.8,N*5D
$IIVWR,087,L,04.6,N,,,,*72
$IIDPT,008.1,-1.0,*49
$IIGLL,4613.067,N,00609.868,E,114750,A,A*5E
$IIHDG,147,,,01,E*11
$IIMTW,+20.5,C*3F
$IIMWV,276,R,04.3,N,A*17
$IIMWV,245,T,05.0,N,A*13
$IIRMC,114751,A,4613.067,N,00609.868,E,02.0,159,280614,01,E,A*04
$IIVHW,,,146,M,02.3,N,,*66
$IIVLW,01565,N,001.8,N*5D
$IIVWR,084,L,04.3,N,,,,*74
$IIDPT,008.1,-1.0,*49
$IIGLL,4613.067,N,00609.868,E,114751,A,A*5F
$IIHDG,146,,,01,E*10
$IIMTW,+20.5,C*3F
$IIMWV,271,R,04.2,N,A*11
$IIMWV,246,T,04.6,N,A*17
$IIRMC,114752,A,4613.066,N,00609.869,E,02.4,175,280614,01,E,A*0D
$IIVHW,,,146,M,02.3,N,,*66
$IIVLW,01565,N,001.8,N*5D
$IIVWR,089,L,04.2,N,,,,*78
$IIDPT,008.1,-1.0,*49
$IIGLL,4613.066,N,00609.869,E,114753,A,A*5D
$IIHDG,146,,,01,E*10
$IIMTW,+20.5,C*3F
$IIMWV,272,R,04.0,N,A*10
$IIMWV,241,T,04.7,N,A*11
$IIRMC,114753,A,4613.066,N,00609.869,E,01.4,119,280614,01,E,A*05
$IIVHW,,,146,M,02.3,N,,*66
$IIVLW,01565,N,001.8,N*5D
$IIVWR,088,L,04.0,N,,,,*7B
$IIDPT,008.1,-1.0,*49
$IIGLL,4613.065,N,00609.870,E,114754,A,A*51
$IIHDG,146,,,01,E*10
$IIMTW,+20.5,C*3F
$IIMWV,273,R,04.0,N,A*11
$IIMWV,241,T,04.5,N,A*13
$IIRMC,114754,A,4613.065,N,00609.870,E,02.3,146,280614,01,E,A*07
$IIVHW,,,146,M,02.3,N,,*66
$IIVLW,01565,N,001.8,N*5D
$IIVWR,078,L,03.9,N,,,,*7A
$IIDPT,008.1,-1.0,*49
$IIGLL,4613.065,N,00609.871,E,114755,A,A*51
$IIHDG,146,,,01,E*10
$IIMTW,+20.5,C*3F
$IIMWV,282,R,03.9,N,A*11
$IIMWV,242,T,04.5,N,A*10
$IIRMC,114755,A,4613.065,N,00609.871,E,02.3,145,280614,01,E,A*04
$IIVHW,,,146,M,02.3,N,,*66
$IIVLW,01565,N,001.8,N*5D
$IIVWR,079,L,03.9,N,,,,*7B
$IIDPT,008.1,-1.0,*49
$IIGLL,4613.064,N,00609.871,E,114756,A,A*53
$IIHDG,145,,,01,E*13
$IIMTW,+20.5,C*3F
$IIMWV,281,R,03.9,N,A*12
$IIMWV,249,T,04.0,N,A*1E
$IIRMC,114756,A,4613.064,N,00609.871,E,02.3,153,280614,01,E,A*01
$IIVHW,,,145,M,02.3,N,,*65
$IIVLW,01565,N,001.8,N*5D
$IIVWR,078,L,04.0,N,,,,*74
$IIDPT,008.1,-1.0,*49
$IIGLL,4613.064,N,00609.872,E,114757,A,A*51
$IIHDG,145,,,01,E*13
$IIMTW,+20.5,C*3F
$IIMWV,282,R,04.0,N,A*1F
$IIMWV,247,T,04.1,N,A*11
$IIRMC,114758,A,4613.063,N,00609.872,E,02.3,155,280614,01,E,A*0D
$IIVHW,,,145,M,02.3,N,,*65
$IIVLW,01565,N,001.8,N*5D
$IIVWR,087,L,03.9,N,,,,*7A
$IIDPT,008.1,-1.0,*49
$IIGLL,4613.063,N,00609.872,E,114758,A,A*59
$IIHDG,145,,,01,E*13
$IIMTW,+20.5,C*3F
$IIMWV,273,R,03.9,N,A*1F
$IIMWV,240,T,04.4,N,A*13
$IIRMC,114759,A,4613.062,N,00609.873,E,02.3,147,280614,01,E,A*0F
$IIVHW,,,145,M,02.3,N,,*65
$IIVLW,01565,N,001.8,N*5D
$IIVWR,083,L,03.8,N,,,,*7F
$IIDPT,008.1,-1.0,*49
$IIGLL,4613.062,N,00609.873,E,114759,A,A*58
$IIHDG,145,,,01,E*13
$IIMTW,+20.5,C*3F
$IIMWV,274,R,03.8,N,A*19
$IIMWV,243,T,04.1,N,A*15
$IIRMC,114800,A,4613.061,N,00609.873,E,02.5,152,280614,01,E,A*0D
$IIVHW,,,145,M,02.3,N,,*65
$IIVLW,01565,N,001.8,N*5D
$IIVWR,086,L,03.8,N,,,,*7A
$IIDPT,008.1,-1.0,*49
$IIGLL,4613.061,N,00609.873,E,114800,A,A*58
$IIHDG,145,,,01,E*13
$IIMTW,+20.5,C*3F
$IIMWV,279,R,03.8,N,A*14
$IIMWV,241,T,04.3,N,A*15
$IIRMC,114800,A,4613.061,N,00609.873,E,02.5,152,280614,01,E,A*0D
$IIVHW,,,145,M,02.3,N,,*65
$IIVLW,01565,N,001.8,N*5D
$IIVWR,081,L,03.8,N,,,,*7D
$IIDPT,008.1,-1.0,*49
$IIGLL,4613.061,N,00609.873,E,114800,A,A*58
$IIHDG,145,,,01,E*13
$IIMTW,+20.5,C*3F
$IIMWV,269,R,03.6,N,A*1B
$IIMWV,245,T,04.0,N,A*12
$IIRMC,114802,A,4613.060,N,00609.875,E,02.4,142,280614,01,E,A*08
$IIVHW,,,145,M,02.3,N,,*65
$IIVLW,01565,N,001.8,N*5D
$IIVWR,091,L,03.6,N,,,,*72
$IIDPT,008.1,-1.0,*49
$IIGLL,4613.060,N,00609.875,E,114803,A,A*5C
$IIHDG,145,,,01,E*13
$IIMTW,+20.5,C*3F
$IIMWV,266,R,03.7,N,A*15
$IIMWV,237,T,04.2,N,A*15
$IIRMC,114803,A,4613.060,N,00609.875,E,02.6,152,280614,01,E,A*0A
$IIVHW,,,145,M,02.3,N,,*65
$IIVLW,01565,N,001.8,N*5D
$IIVWR,094,L,03.7,N,,,,*76
$IIDPT,008.1,-1.0,*49
$IIGLL,4613.059,N,00609.876,E,114804,A,A*52
$IIHDG,144,,,01,E*12
$IIMTW,+20.5,C*3F
$IIMWV,272,R,03.9,N,A*1E
$IIMWV,236,T,04.4,N,A*12
$IIRMC,114804,A,4613.059,N,00609.876,E,02.5,145,280614,01,E,A*01
$IIVHW,,,144,M,02.3,N,,*64
$IIVLW,01565,N,001.8,N*5D
$IIVWR,071,L,04.0,N,,,,*7D
$IIDPT,008.1,-1.0,*49
$IIGLL,4613.058,N,00609.876,E,114805,A,A*52
$IIHDG,144,,,01,E*12
$IIMTW,+20.5,C*3F
$IIMWV,289,R,04.0,N,A*14
$IIMWV,240,T,04.4,N,A*13
$IIRMC,114805,A,4613.058,N,00609.876,E,02.3,153,280614,01,E,A*00
$IIVHW,,,144,M,02.3,N,,*64
$IIVLW,01565,N,001.8,N*5D
$IIVWR,075,L,03.9,N,,,,*77
$IIDPT,008.1,-1.0,*49
$IIGLL,4613.058,N,00609.877,E,114806,A,A*50
$IIHDG,144,,,01,E*12
$IIMTW,+21.0,C*3B
$IIMWV,285,R,03.9,N,A*16
$IIMWV,255,T,03.9,N,A*1D
$IIRMC,114806,A,4613.058,N,00609.877,E,02.4,145,280614,01,E,A*02
$IIVHW,,,144,M,02.2,N,,*65
$IIVLW,01565,N,001.8,N*5D
$IIVWR,059,L,03.9,N,,,,*79
$IIDPT,008.1,-1.0,*49
$IIGLL,4613.057,N,00609.878,E,114807,A,A*51
$IIHDG,144,,,01,E*12
$IIMTW,+21.0,C*3B
$IIMWV,301,R,03.9,N,A*1B
$IIMWV,250,T,03.9,N,A*18
$IIRMC,114808,A,4613.056,N,00609.878,E,02.4,146,280614,01,E,A*0E
$IIVHW,,,144,M,02.3,N,,*64
$IIVLW,01565,N,001.8,N*5D
$IIVWR,059,L,03.9,N,,,,*79
$IIDPT,008.1,-1.0,*49
$IIGLL,4613.056,N,00609.878,E,114808,A,A*5F
$IIHDG,144,,,01,E*12
$IIMTW,+21.0,C*3B
$IIMWV,301,R,03.9,N,A*1B
$IIMWV,265,T,03.3,N,A*14
$IIRMC,114809,A,4613.056,N,00609.879,E,02.4,153,280614,01,E,A*0A
$IIVHW,,,145,M,02.3,N,,*65
$IIVLW,01565,N,001.8,N*5D
$IIVWR,058,L,03.7,N,,,,*76
$IIDPT,008.1,-1.0,*49
$IIGLL,4613.056,N,00609.879,E,114809,A,A*5F
$IIHDG,145,,,01,E*13
$IIMTW,+21.0,C*3B
$IIMWV,301,R,03.7,N,A*15
$IIMWV,263,T,03.1,N,A*10
$IIRMC,114810,A,4613.055,N,00609.879,E,02.4,155,280614,01,E,A*07
$IIVHW,,,146,M,02.3,N,,*66
$IIVLW,01565,N,001.8,N*5D
$IIVWR,059,L,03.7,N,,,,*77
$IIDPT,008.1,-1.0,*49
$IIGLL,4613.055,N,00609.879,E,114810,A,A*54
$IIHDG,146,,,01,E*10
$IIMTW,+21.0,C*3B
$IIMWV,301,R,03.5,N,A*17
$IIMWV,263,T,03.1,N,A*10
$IIRMC,114811,A,4613.054,N,00609.880,E,02.4,156,280614,01,E,A*02
$IIVHW,,,148,M,02.3,N,,*68
$IIVLW,01565,N,001.8,N*5D
$IIVWR,059,L,03.5,N,,,,*75
$IIDPT,008.1,-1.0,*49
$IIGLL,4613.054,N,00609.880,E,114811,A,A*52
$IIHDG,149,,,01,E*1F
$IIMTW,+21.0,C*3B
$IIMWV,298,R,03.2,N,A*11
$IIMWV,261,T,03.0,N,A*13
$IIRMC,114812,A,4613.054,N,00609.880,E,01.8,172,280614,01,E,A*08
$IIVHW,,,149,M,02.3,N,,*69
$IIVLW,01565,N,001.8,N*5D
$IIVWR,062,L,03.2,N,,,,*7A
$IIDPT,008.1,-1.0,*49
$IIGLL,4613.054,N,00609.881,E,114813,A,A*51
$IIHDG,151,,,01,E*16
$IIMTW,+21.0,C*3B
$IIMWV,294,R,03.0,N,A*1F
$IIMWV,254,T,02.9,N,A*1D
$IIRMC,114813,A,4613.054,N,00609.881,E,02.4,161,280614,01,E,A*05
$IIVHW,,,151,M,02.3,N,,*60
$IIVLW,01565,N,001.8,N*5D
$IIVWR,066,L,03.0,N,,,,*7C
$IIDPT,008.1,-1.0,*49
$IIGLL,4613.053,N,00609.881,E,114814,A,A*51
$IIHDG,153,,,01,E*14
$IIMTW,+21.0,C*3B
$IIMWV,292,R,02.9,N,A*11
$IIMWV,248,T,02.9,N,A*10
$IIRMC,114814,A,4613.053,N,00609.881,E,02.4,162,280614,01,E,A*06
$IIVHW,,,153,M,02.3,N,,*62
$IIVLW,01565,N,001.8,N*5D
$IIVWR,071,L,03.3,N,,,,*79
$IIDPT,008.1,-1.0,*49
$IIGLL,4613.053,N,00609.882,E,114815,A,A*53
$IIHDG,154,,,01,E*13
$IIMTW,+21.0,C*3B
$IIMWV,289,R,03.3,N,A*10
$IIMWV,243,T,02.9,N,A*1B
$IIRMC,114815,A,4613.053,N,00609.882,E,02.4,161,280614,01,E,A*07
$IIVHW,,,154,M,02.3,N,,*65
$IIVLW,01565,N,001.8,N*5D
$IIVWR,071,L,02.9,N,,,,*72
$IIDPT,008.1,-1.0,*49
$IIGLL,4613.052,N,00609.882,E,114816,A,A*51
$IIHDG,155,,,01,E*12
$IIMTW,+21.0,C*3B
$IIMWV,289,R,02.9,N,A*1B
$IIMWV,247,T,03.3,N,A*14
$IIRMC,114816,A,4613.052,N,00609.882,E,02.4,157,280614,01,E,A*00
$IIVHW,,,155,M,02.2,N,,*65
$IIVLW,01565,N,001.8,N*5D
$IIVWR,075,L,02.7,N,,,,*78
$IIDPT,008.1,-1.0,*49
$IIGLL,4613.052,N,00609.882,E,114817,A,A*50
$IIHDG,155,,,01,E*12
$IIMTW,+21.0,C*3B
$IIMWV,285,R,02.7,N,A*19
$IIMWV,243,T,03.0,N,A*13
$IIRMC,114818,A,4613.052,N,00609.883,E,02.4,160,280614,01,E,A*0B
$IIVHW,,,155,M,02.2,N,,*65
$IIVLW,01565,N,001.8,N*5D
$IIVWR,076,L,02.8,N,,,,*74
$IIDPT,008.1,-1.0,*49
$IIGLL,4613.052,N,00609.883,E,114818,A,A*5E
$IIHDG,155,,,01,E*12
$IIMTW,+21.0,C*3B
$IIMWV,284,R,02.8,N,A*17
$IIMWV,238,T,03.1,N,A*1E
$IIRMC,114819,A,4613.051,N,00609.883,E,02.6,157,280614,01,E,A*0F
$IIVHW,,,155,M,02.1,N,,*66
$IIVLW,01565,N,001.8,N*5D
$IIVWR,082,L,02.9,N,,,,*7E
$IIDPT,008.1,-1.0,*49
$IIGLL,4613.051,N,00609.883,E,114819,A,A*5C
$IIHDG,155,,,01,E*12
$IIMTW,+21.0,C*3B
$IIMWV,279,R,02.8,N,A*15
$IIMWV,237,T,03.3,N,A*13
$IIRMC,114820,A,4613.050,N,00609.883,E,02.2,152,280614,01,E,A*05
$IIVHW,,,155,M,01.8,N,,*6C
$IIVLW,01565,N,001.8,N*5D
$IIVWR,081,L,02.8,N,,,,*7C
$IIDPT,008.1,-1.0,*49
$IIGLL,4613.050,N,00609.883,E,114820,A,A*57
$IIHDG,155,,,01,E*12
$IIMTW,+21.0,C*3B
$IIMWV,279,R,02.8,N,A*15
$IIMWV,241,T,03.0,N,A*11
$IIRMC,114821,A,4613.050,N,00609.884,E,02.2,160,280614,01,E,A*02
$IIVHW,,,155,M,01.9,N,,*6D
$IIVLW,01565,N,001.8,N*5D
$IIVWR,081,L,02.8,N,,,,*7C
$IIDPT,008.1,-1.0,*49
$IIGLL,4613.050,N,00609.884,E,114821,A,A*51
$IIHDG,155,,,01,E*12
$IIMTW,+21.0,C*3B
$IIMWV,274,R,02.8,N,A*18
$IIMWV,241,T,03.0,N,A*11
$IIRMC,114822,A,4613.049,N,00609.884,E,02.5,165,280614,01,E,A*0B
$IIVHW,,,155,M,01.9,N,,*6D
$IIVLW,01565,N,001.8,N*5D
$IIVWR,086,L,02.8,N,,,,*7B
$IIDPT,008.1,-1.0,*49
$IIGLL,4613.048,N,00609.884,E,114824,A,A*5D
$IIHDG,157,,,01,E*10
$IIMTW,+20.5,C*3F
$IIMWV,261,R,03.1,N,A*14
$IIMWV,236,T,03.6,N,A*17
$IIRMC,114824,A,4613.048,N,00609.884,E,02.0,172,280614,01,E,A*0F
$IIVHW,,,157,M,02.0,N,,*65
$IIVLW,01565,N,001.8,N*5D
$IIVWR,099,L,03.1,N,,,,*7D
$IIDPT,008.1,-1.0,*49
$IIGLL,4613.047,N,00609.884,E,114825,A,A*53
$IIHDG,157,,,01,E*10
$IIMTW,+20.5,C*3F
$IIMWV,263,R,03.1,N,A*16
$IIMWV,231,T,03.8,N,A*1E
$IIRMC,114825,A,4613.047,N,00609.884,E,02.0,145,280614,01,E,A*05
$IIVHW,,,157,M,02.0,N,,*65
$IIVLW,01565,N,001.8,N*5D
$IIVWR,100,L,03.0,N,,,,*7D
$IIDPT,008.1,-1.0,*49
$IIGLL,4613.047,N,00609.885,E,114826,A,A*51
$IIHDG,157,,,01,E*10
$IIMTW,+20.5,C*3F
$IIMWV,260,R,03.0,N,A*14
$IIMWV,233,T,03.7,N,A*13
$IIRMC,114826,A,4613.047,N,00609.885,E,02.1,161,280614,01,E,A*00
$IIVHW,,,157,M,01.9,N,,*6F
$IIVLW,01565,N,001.8,N*5D
$IIVWR,093,L,03.3,N,,,,*75
$IIDPT,008.1,-1.0,*49
$IIGLL,4613.046,N,00609.885,E,114827,A,A*51
$IIHDG,157,,,01,E*10
$IIMTW,+20.5,C*3F
$IIMWV,267,R,03.3,N,A*10
$IIMWV,230,T,03.7,N,A*10
$IIRMC,114827,A,4613.046,N,00609.885,E,02.1,147,280614,01,E,A*04
$IIVHW,,,157,M,01.7,N,,*61
$IIVLW,01565,N,001.8,N*5D
$IIVWR,086,L,03.3,N,,,,*71
$IIDPT,008.1,-1.0,*49
$IIGLL,4613.046,N,00609.886,E,114828,A,A*5D
$IIHDG,157,,,01,E*10
$IIMTW,+20.5,C*3F
$IIMWV,274,R,03.3,N,A*12
$IIMWV,241,T,03.7,N,A*16
$IIRMC,114829,A,4613.045,N,00609.886,E,02.1,163,280614,01,E,A*0C
$IIVHW,,,157,M,01.7,N,,*61
$IIVLW,01565,N,001.8,N*5D
$IIVWR,078,L,03.3,N,,,,*70
$IIDPT,008.1,-1.0,*49
$IIGLL,4613.045,N,00609.886,E,114829,A,A*5F
$IIHDG,157,,,01,E*10
$IIMTW,+18.0,C*31
$IIMWV,282,R,03.3,N,A*1B
$IIMWV,249,T,03.4,N,A*1D
$IIRMC,114830,A,4613.044,N,00609.886,E,02.1,160,280614,01,E,A*06
$IIVHW,,,157,M,01.8,N,,*6E
$IIVLW,01565,N,001.8,N*5D
$IIVWR,079,L,03.2,N,,,,*70
$IIDPT,008.1,-1.0,*49
$IIGLL,4613.044,N,00609.886,E,114830,A,A*56
$IIHDG,157,,,01,E*10
$IIMTW,+20.5,C*3F
$IIMWV,288,R,03.1,N,A*13
$IIMWV,249,T,03.3,N,A*1A
$IIRMC,114831,A,4613.044,N,00609.887,E,01.9,167,280614,01,E,A*0A
$IIVHW,,,157,M,01.7,N,,*61
$IIVLW,01565,N,001.8,N*5D
$IIVWR,072,L,03.1,N,,,,*78
$IIDPT,008.1,-1.0,*49
$IIGLL,4613.044,N,00609.887,E,114831,A,A*56
$IIHDG,157,,,01,E*10
$IIMTW,+20.5,C*3F
$IIMWV,300,R,03.2,N,A*11
$IIMWV,253,T,03.0,N,A*12
$IIRMC,114831,A,4613.044,N,00609.887,E,01.9,167,280614,01,E,A*0A
$IIVHW,,,155,M,01.5,N,,*61
$IIVLW,01565,N,001.8,N*5D
$IIVWR,060,L,03.2,N,,,,*78
$IIDPT,008.0,-1.0,*48
$IIGLL,4613.044,N,00609.887,E,114831,A,A*56
$IIHDG,155,,,01,E*12
$IIMTW,+20.5,C*3F
$IIMWV,285,R,03.1,N,A*1E
$IIMWV,272,T,02.7,N,A*17
$IIRMC,114833,A,4613.043,N,00609.888,E,01.5,145,280614,01,E,A*0C
$IIVHW,,,155,M,01.6,N,,*62
$IIVLW,01565,N,001.8,N*5D
$IIVWR,075,L,03.1,N,,,,*7F
$IIDPT,007.9,-1.0,*4E
$IIGLL,4613.042,N,00609.888,E,114834,A,A*5A
$IIHDG,155,,,01,E*12
$IIMTW,+20.5,C*3F
$IIMWV,284,R,02.9,N,A*16
$IIMWV,255,T,03.1,N,A*15
$IIRMC,114834,A,4613.042,N,00609.888,E,02.2,159,280614,01,E,A*03
$IIVHW,,,155,M,01.6,N,,*62
$IIVLW,01565,N,001.8,N*5D
$IIVWR,076,L,02.9,N,,,,*75
$IIDPT,007.9,-1.0,*4E
$IIGLL,4613.042,N,00609.888,E,114835,A,A*5B
$IIHDG,155,,,01,E*12
$IIMTW,+20.5,C*3F
$IIMWV,284,R,03.4,N,A*1A
$IIMWV,249,T,03.0,N,A*19
$IIRMC,114835,A,4613.042,N,00609.888,E,02.1,153,280614,01,E,A*0B
$IIVHW,,,155,M,01.6,N,,*62
$IIVLW,01565,N,001.8,N*5D
$IIVWR,080,L,03.3,N,,,,*77
$IIDPT,007.9,-1.0,*4E
$IIGLL,4613.041,N,00609.889,E,114836,A,A*5A
$IIHDG,154,,,01,E*13
$IIMTW,+20.5,C*3F
$IIMWV,280,R,03.3,N,A*19
$IIMWV,254,T,03.3,N,A*16
$IIRMC,114836,A,4613.041,N,00609.889,E,02.1,155,280614,01,E,A*0C
$IIVHW,,,154,M,01.7,N,,*62
$IIVLW,01565,N,001.8,N*5D
$IIVWR,079,L,03.2,N,,,,*70
$IIDPT,007.9,-1.0,*4E
$IIGLL,4613.041,N,00609.889,E,114837,A,A*5B
$IIHDG,154,,,01,E*13
$IIMTW,+20.5,C*3F
$IIMWV,281,R,03.2,N,A*19
$IIMWV,249,T,03.4,N,A*1D
$IIRMC,114837,A,4613.041,N,00609.889,E,02.1,154,280614,01,E,A*0C
$IIVHW,,,154,M,01.7,N,,*62
$IIVLW,01565,N,001.8,N*5D
$IIVWR,083,L,03.0,N,,,,*77
$IIDPT,007.9,-1.0,*4E
$IIGLL,4613.040,N,00609.889,E,114838,A,A*55
$IIHDG,154,,,01,E*13
$IIMTW,+20.5,C*3F
$IIMWV,277,R,03.0,N,A*12
$IIMWV,250,T,03.2,N,A*13
$IIRMC,114839,A,4613.039,N,00609.889,E,02.1,156,280614,01,E,A*0F
$IIVHW,,,153,M,01.7,N,,*65
$IIVLW,01565,N,001.8,N*5D
$IIVWR,079,L,03.0,N,,,,*72
$IIDPT,007.9,-1.0,*4E
$IIGLL,4613.039,N,00609.889,E,114839,A,A*5A
$IIHDG,153,,,01,E*14
$IIMTW,+20.5,C*3F
$IIMWV,281,R,03.0,N,A*1B
$IIMWV,246,T,03.1,N,A*17
$IIRMC,114840,A,4613.039,N,00609.889,E,02.0,168,280614,01,E,A*0D
$IIVHW,,,153,M,01.7,N,,*65
$IIVLW,01565,N,001.8,N*5D
$IIVWR,080,L,03.1,N,,,,*75
$IIDPT,007.9,-1.0,*4E
$IIGLL,4613.039,N,00609.889,E,114840,A,A*54
$IIHDG,153,,,01,E*14
$IIMTW,+20.5,C*3F
$IIMWV,278,R,02.9,N,A*15
$IIMWV,247,T,03.2,N,A*15
$IIRMC,114841,A,4613.038,N,00609.889,E,01.9,163,280614,01,E,A*0C
$IIVHW,,,153,M,01.8,N,,*6A
$IIVLW,01565,N,001.8,N*5D
$IIVWR,082,L,02.9,N,,,,*7E
$IIDPT,007.9,-1.0,*4E
$IIGLL,4613.038,N,00609.889,E,114841,A,A*54
$IIHDG,153,,,01,E*14
$IIMTW,+20.5,C*3F
$IIMWV,278,R,02.9,N,A*15
$IIMWV,243,T,03.1,N,A*12
$IIRMC,114842,A,4613.038,N,00609.890,E,02.2,153,280614,01,E,A*0C
$IIVHW,,,153,M,01.7,N,,*65
$IIVLW,01565,N,001.8,N*5D
$IIVWR,082,L,02.9,N,,,,*7E
$IIDPT,007.9,-1.0,*4E
$IIGLL,4613.038,N,00609.890,E,114842,A,A*5F
$IIHDG,153,,,01,E*14
$IIMTW,+20.5,C*3F
$IIMWV,278,R,02.9,N,A*15
$IIMWV,243,T,03.1,N,A*12
$IIRMC,114843,A,4613.037,N,00609.890,E,02.0,163,280614,01,E,A*03
$IIVHW,,,153,M,01.7,N,,*65
$IIVLW,01565,N,001.8,N*5D
$IIVWR,082,L,02.9,N,,,,*7E
$IIDPT,007.9,-1.0,*4E
$IIGLL,4613.036,N,00609.890,E,114844,A,A*57
$IIHDG,153,,,01,E*14
$IIMTW,+20.5,C*3F
$IIMWV,275,R,03.0,N,A*10
$IIMWV,245,T,03.0,N,A*15
$IIRMC,114844,A,4613.036,N,00609.890,E,02.0,151,280614,01,E,A*04
$IIVHW,,,153,M,01.6,N,,*64
$IIVLW,01565,N,001.8,N*5D
$IIVWR,085,L,03.0,N,,,,*71
$IIDPT,007.8,-1.0,*4F
$IIGLL,4613.036,N,00609.890,E,114845,A,A*56
$IIHDG,153,,,01,E*14
$IIMTW,+17.5,C*3B
$IIMWV,272,R,03.0,N,A*17
$IIMWV,243,T,03.3,N,A*10
$IIRMC,114845,A,4613.036,N,00609.890,E,02.2,153,280614,01,E,A*05
$IIVHW,,,153,M,01.4,N,,*66
$IIVLW,01565,N,001.8,N*5D
$IIVWR,086,L,03.0,N,,,,*72
$IIDPT,007.8,-1.0,*4F
$IIGLL,4613.036,N,00609.890,E,114845,A,A*56
$IIHDG,153,,,01,E*14
$IIMTW,+20.0,C*3A
$IIMWV,274,R,03.0,N,A*11
$IIMWV,243,T,03.3,N,A*10
$IIRMC,114845,A,4613.036,N,00609.890,E,02.2,153,280614,01,E,A*05
$IIVHW,,,153,M,01.5,N,,*67
$IIVLW,01565,N,001.8,N*5D
$IIVWR,087,L,03.1,N,,,,*72
$IIDPT,007.8,-1.0,*4F
$IIGLL,4613.035,N,00609.890,E,114847,A,A*57
$IIHDG,153,,,01,E*14
$IIMTW,+20.5,C*3F
$IIMWV,273,R,03.1,N,A*17
$IIMWV,247,T,03.2,N,A*15
$IIRMC,114847,A,4613.035,N,00609.890,E,01.8,176,280614,01,E,A*0A
$IIVHW,,,153,M,01.5,N,,*67
$IIVLW,01565,N,001.8,N*5D
$IIVWR,082,L,03.0,N,,,,*76
$IIDPT,007.8,-1.0,*4F
$IIGLL,4613.034,N,00609.890,E,114848,A,A*59
$IIHDG,153,,,01,E*14
$IIMTW,+20.5,C*3F
$IIMWV,278,R,03.0,N,A*1D
$IIMWV,246,T,03.4,N,A*12
$IIRMC,114849,A,4613.034,N,00609.891,E,02.0,153,280614,01,E,A*08
$IIVHW,,,153,M,01.5,N,,*67
$IIVLW,01565,N,001.8,N*5D
$IIVWR,078,L,03.0,N,,,,*73
$IIDPT,007.8,-1.0,*4F
$IIGLL,4613.034,N,00609.891,E,114849,A,A*59
$IIHDG,153,,,01,E*14
$IIMTW,+20.5,C*3F
$IIMWV,282,R,03.0,N,A*18
$IIMWV,251,T,03.0,N,A*10
$IIRMC,114850,A,4613.033,N,00609.891,E,01.9,163,280614,01,E,A*0E
$IIVHW,,,153,M,01.3,N,,*61
$IIVLW,01565,N,001.8,N*5D
$IIVWR,083,L,03.1,N,,,,*76
$IIDPT,007.9,-1.0,*4E
$IIGLL,4613.033,N,00609.891,E,114850,A,A*56
$IIHDG,153,,,01,E*14
$IIMTW,+20.5,C*3F
$IIMWV,279,R,03.3,N,A*1F
$IIMWV,250,T,03.1,N,A*10
$IIRMC,114851,A,4613.033,N,00609.891,E,01.4,162,280614,01,E,A*03
$IIVHW,,,154,M,01.4,N,,*61
$IIVLW,01565,N,001.8,N*5D
$IIVWR,081,L,03.3,N,,,,*76
$IIDPT,007.9,-1.0,*4E
$IIGLL,4613.033,N,00609.891,E,114851,A,A*57
$IIHDG,154,,,01,E*13
$IIMTW,+20.5,C*3F
$IIMWV,277,R,03.2,N,A*10
$IIMWV,254,T,03.3,N,A*16
$IIRMC,114852,A,4613.032,N,00609.891,E,02.0,168,280614,01,E,A*0C
$IIVHW,,,154,M,01.4,N,,*61
$IIVLW,01565,N,001.8,N*5D
$IIVWR,083,L,03.2,N,,,,*75
$IIDPT,007.9,-1.0,*4E
$IIGLL,4613.032,N,00609.891,E,114852,A,A*55
$IIHDG,154,,,01,E*13
$IIMTW,+20.5,C*3F
$IIMWV,276,R,03.2,N,A*11
$IIMWV,249,T,03.3,N,A*1A
$IIRMC,114853,A,4613.032,N,00609.892,E,02.0,158,280614,01,E,A*0D
$IIVHW,,,154,M,01.2,N,,*67
$IIVLW,01565,N,001.8,N*5D
$IIVWR,084,L,03.2,N,,,,*72
$IIDPT,007.9,-1.0,*4E
$IIGLL,4613.032,N,00609.893,E,114854,A,A*51
$IIHDG,154,,,01,E*13
$IIMTW,+18.0,C*31
$IIMWV,274,R,03.0,N,A*11
$IIMWV,252,T,03.2,N,A*11
$IIRMC,114854,A,4613.032,N,00609.893,E,01.9,162,280614,01,E,A*08
$IIVHW,,,154,M,01.3,N,,*66
$IIVLW,01565,N,001.8,N*5D
$IIVWR,086,L,03.0,N,,,,*72
$IIDPT,007.8,-1.0,*4F
$IIGLL,4613.031,N,00609.893,E,114855,A,A*53
$IIHDG,153,,,01,E*14
$IIMTW,+20.0,C*3A
$IIMWV,276,R,03.1,N,A*12
$IIMWV,248,T,03.2,N,A*1A
$IIRMC,114855,A,4613.031,N,00609.893,E,02.0,155,280614,01,E,A*04
$IIVHW,,,153,M,01.4,N,,*66
$IIVLW,01565,N,001.8,N*5D
$IIVWR,084,L,03.0,N,,,,*70
$IIDPT,007.8,-1.0,*4F
$IIGLL,4613.031,N,00609.893,E,114856,A,A*50
$IIHDG,153,,,01,E*14
$IIMTW,+20.0,C*3A
$IIMWV,276,R,03.0,N,A*13
$IIMWV,248,T,03.2,N,A*1A
$IIRMC,114856,A,4613.031,N,00609.893,E,02.0,156,280614,01,E,A*04
$IIVHW,,,153,M,01.5,N,,*67
$IIVLW,01565,N,001.8,N*5D
$IIVWR,078,L,03.0,N,,,,*73
$IIDPT,007.8,-1.0,*4F
$IIGLL,4613.030,N,00609.893,E,114857,A,A*50
$IIHDG,153,,,01,E*14
$IIMTW,+20.5,C*3F
$IIMWV,282,R,03.0,N,A*18
$IIMWV,246,T,03.1,N,A*17
$IIRMC,114857,A,4613.030,N,00609.893,E,02.2,155,280614,01,E,A*05
$IIVHW,,,154,M,01.7,N,,*62
$IIVLW,01565,N,001.8,N*5D
$IIVWR,086,L,03.1,N,,,,*73
$IIDPT,007.8,-1.0,*4F
$IIGLL,4613.030,N,00609.894,E,114858,A,A*58
$IIHDG,154,,,01,E*13
$IIMTW,+20.5,C*3F
$IIMWV,274,R,03.1,N,A*10
$IIMWV,251,T,03.0,N,A*10
$IIRMC,114859,A,4613.029,N,00609.894,E,02.1,159,280614,01,E,A*0B
$IIVHW,,,154,M,01.7,N,,*62
$IIVLW,01565,N,001.8,N*5D
$IIVWR,088,L,03.0,N,,,,*7C
$IIDPT,007.8,-1.0,*4F
$IIGLL,4613.029,N,00609.894,E,114859,A,A*51
$IIHDG,154,,,01,E*13
$IIMTW,+20.5,C*3F
$IIMWV,272,R,03.0,N,A*17
$IIMWV,239,T,03.4,N,A*1A
$IIRMC,114900,A,4613.029,N,00609.894,E,02.0,150,280614,01,E,A*0E
$IIVHW,,,153,M,01.8,N,,*6A
$IIVLW,01565,N,001.8,N*5D
$IIVWR,090,L,03.1,N,,,,*74
$IIDPT,007.8,-1.0,*4F
$IIGLL,4613.029,N,00609.894,E,114900,A,A*5C
$IIHDG,153,,,01,E*14
$IIMTW,+20.5,C*3F
$IIMWV,273,R,03.1,N,A*17
$IIMWV,240,T,03.5,N,A*15
$IIRMC,114901,A,4613.028,N,00609.895,E,02.2,150,280614,01,E,A*0D
$IIVHW,,,153,M,01.8,N,,*6A
$IIVLW,01565,N,001.8,N*5D
$IIVWR,087,L,03.1,N,,,,*72
$IIDPT,007.8,-1.0,*4F
$IIGLL,4613.028,N,00609.895,E,114901,A,A*5D
$IIHDG,153,,,01,E*14
$IIMTW,+20.5,C*3F
$IIMWV,268,R,03.1,N,A*1D
$IIMWV,240,T,03.5,N,A*15
$IIRMC,114902,A,4613.028,N,00609.895,E,02.3,156,280614,01,E,A*09
$IIVHW,,,153,M,01.8,N,,*6A
$IIVLW,01565,N,001.8,N*5D
$IIVWR,092,L,03.1,N,,,,*76
$IIDPT,007.8,-1.0,*4F
$IIGLL,4613.028,N,00609.895,E,114902,A,A*5E
$IIHDG,153,,,01,E*14
$IIMTW,+20.5,C*3F
$IIMWV,277,R,03.1,N,A*13
$IIMWV,238,T,03.6,N,A*19
$IIRMC,114903,A,4613.027,N,00609.896,E,03.0,146,280614,01,E,A*07
$IIVHW,,,153,M,01.8,N,,*6A
$IIVLW,01565,N,001.8,N*5D
$IIVWR,083,L,03.1,N,,,,*76
$IIDPT,007.8,-1.0,*4F
$IIGLL,4613.027,N,00609.896,E,114904,A,A*54
$IIHDG,154,,,01,E*13
$IIMTW,+20.5,C*3F
$IIMWV,268,R,03.0,N,A*1C
$IIMWV,243,T,03.3,N,A*10
$IIRMC,114904,A,4613.027,N,00609.896,E,02.4,163,280614,01,E,A*02
$IIVHW,,,154,M,01.5,N,,*60
$IIVLW,01565,N,001.8,N*5D
$IIVWR,092,L,03.0,N,,,,*77
$IIDPT,007.8,-1.0,*4F
$IIGLL,4613.026,N,00609.897,E,114905,A,A*55
$IIHDG,154,,,01,E*13
$IIMTW,+20.5,C*3F
$IIMWV,266,R,02.9,N,A*1A
$IIMWV,242,T,03.4,N,A*16
$IIRMC,114905,A,4613.026,N,00609.897,E,02.3,157,280614,01,E,A*03
$IIVHW,,,154,M,01.6,N,,*63
$IIVLW,01565,N,001.8,N*5D
$IIVWR,092,L,02.9,N,,,,*7F
$IIDPT,007.8,-1.0,*4F
$IIGLL,4613.025,N,00609.897,E,114906,A,A*55
$IIHDG,155,,,01,E*12
$IIMTW,+20.5,C*3F
$IIMWV,268,R,02.9,N,A*14
$IIMWV,237,T,03.4,N,A*14
$IIRMC,114906,A,4613.025,N,00609.897,E,02.3,163,280614,01,E,A*04
$IIVHW,,,155,M,01.7,N,,*63
$IIVLW,01565,N,001.8,N*5D
$IIVWR,099,L,03.0,N,,,,*7C
$IIDPT,007.8,-1.0,*4F
$IIGLL,4613.025,N,00609.897,E,114907,A,A*54
$IIHDG,155,,,01,E*12
$IIMTW,+20.5,C*3F
$IIMWV,261,R,03.0,N,A*15
$IIMWV,240,T,03.3,N,A*13
$IIRMC,114907,A,4613.025,N,00609.897,E,02.0,150,280614,01,E,A*06
$IIVHW,,,155,M,01.8,N,,*6C
$IIVLW,01565,N,001.8,N*5D
$IIVWR,094,L,02.9,N,,,,*79
$IIDPT,007.8,-1.0,*4F
$IIGLL,4613.024,N,00609.898,E,114908,A,A*55
$IIHDG,155,,,01,E*12
$IIMTW,+20.5,C*3F
$IIMWV,266,R,02.9,N,A*1A
$IIMWV,233,T,03.6,N,A*12
$IIRMC,114909,A,4613.024,N,00609.897,E,02.6,157,280614,01,E,A*08
$IIVHW,,,157,M,01.9,N,,*6F
$IIVLW,01565,N,001.8,N*5D
$IIVWR,099,L,02.8,N,,,,*75
$IIDPT,007.8,-1.0,*4F
$IIGLL,4613.024,N,00609.897,E,114909,A,A*5B
$IIHDG,157,,,01,E*10
$IIMTW,+20.5,C*3F
$IIMWV,261,R,02.8,N,A*1C
$IIMWV,230,T,03.5,N,A*12
$IIRMC,114910,A,4613.023,N,00609.897,E,02.2,160,280614,01,E,A*07
$IIVHW,,,158,M,01.8,N,,*61
$IIVLW,01565,N,001.8,N*5D
$IIVWR,096,L,03.0,N,,,,*73
$IIDPT,007.8,-1.0,*4F
$IIGLL,4613.023,N,00609.897,E,114910,A,A*54
$IIHDG,158,,,01,E*1F
$IIMTW,+20.5,C*3F
$IIMWV,272,R,02.9,N,A*1F
$IIMWV,233,T,03.6,N,A*12
$IIRMC,114911,A,4613.023,N,00609.897,E,02.2,165,280614,01,E,A*03
$IIVHW,,,158,M,01.6,N,,*6F
$IIVLW,01565,N,001.8,N*5D
$IIVWR,088,L,02.9,N,,,,*74
$IIDPT,007.8,-1.0,*4F
$IIGLL,4613.023,N,00609.897,E,114911,A,A*55
$IIHDG,158,,,01,E*1F
$IIMTW,+20.5,C*3F
$IIMWV,260,R,02.9,N,A*1C
$IIMWV,241,T,03.3,N,A*12
$IIRMC,114912,A,4613.022,N,00609.898,E,02.2,159,280614,01,E,A*01
$IIVHW,,,159,M,01.7,N,,*6F
$IIVLW,01565,N,001.8,N*5D
$IIVWR,100,L,02.9,N,,,,*75
$IIDPT,007.8,-1.0,*4F
$IIGLL,4613.022,N,00609.898,E,114912,A,A*58
$IIHDG,159,,,01,E*1E
$IIMTW,+17.5,C*3B
$IIMWV,264,R,02.7,N,A*16
$IIMWV,233,T,03.5,N,A*11
$IIRMC,114913,A,4613.021,N,00609.898,E,02.3,167,280614,01,E,A*0F
$IIVHW,,,159,M,01.8,N,,*60
$IIVLW,01565,N,001.8,N*5D
$IIVWR,096,L,02.7,N,,,,*75
$IIDPT,007.8,-1.0,*4F
$IIGLL,4613.021,N,00609.898,E,114914,A,A*5D
$IIHDG,159,,,01,E*1E
$IIMTW,+20.0,C*3A
$IIMWV,264,R,02.6,N,A*17
$IIMWV,232,T,03.2,N,A*17
$IIRMC,114914,A,4613.021,N,00609.898,E,02.9,156,280614,01,E,A*00
$IIVHW,,,159,M,01.8,N,,*60
$IIVLW,01565,N,001.8,N*5D
$IIVWR,096,L,02.6,N,,,,*74
$IIDPT,007.8,-1.0,*4F
$IIGLL,4613.020,N,00609.898,E,114915,A,A*5D
$IIHDG,159,,,01,E*1E
$IIMTW,+20.0,C*3A
$IIMWV,257,R,02.7,N,A*16
$IIMWV,230,T,03.2,N,A*15
$IIRMC,114915,A,4613.020,N,00609.898,E,02.4,163,280614,01,E,A*0B
$IIVHW,,,159,M,01.9,N,,*61
$IIVLW,01565,N,001.8,N*5D
$IIVWR,098,L,02.8,N,,,,*74
$IIDPT,007.8,-1.0,*4F
$IIGLL,4613.019,N,00609.898,E,114916,A,A*54
$IIHDG,159,,,01,E*1E
$IIMTW,+20.0,C*3A
$IIMWV,262,R,02.8,N,A*1F
$IIMWV,227,T,03.5,N,A*14
$IIRMC,114916,A,4613.019,N,00609.898,E,02.4,164,280614,01,E,A*05
$IIVHW,,,159,M,01.9,N,,*61
$IIVLW,01565,N,001.8,N*5D
$IIVWR,097,L,02.7,N,,,,*74
$IIDPT,007.8,-1.0,*4F
$IIGLL,4613.019,N,00609.898,E,114916,A,A*54
$IIHDG,159,,,01,E*1E
$IIMTW,+20.0,C*3A
$IIMWV,263,R,02.7,N,A*11
$IIMWV,230,T,03.5,N,A*12
$IIRMC,114916,A,4613.019,N,00609.898,E,02.4,164,280614,01,E,A*05
$IIVHW,,,159,M,02.0,N,,*6B
$IIVLW,01565,N,001.8,N*5D
$IIVWR,097,L,02.7,N,,,,*74
$IIDPT,007.8,-1.0,*4F
$IIGLL,4613.018,N,00609.899,E,114918,A,A*5A
$IIHDG,159,,,01,E*1E
$IIMTW,+20.0,C*3A
$IIMWV,263,R,02.7,N,A*11
$IIMWV,229,T,03.4,N,A*1B
$IIRMC,114919,A,4613.017,N,00609.899,E,02.4,162,280614,01,E,A*03
$IIVHW,,,159,M,02.0,N,,*6B
$IIVLW,01565,N,001.8,N*5D
$IIVWR,097,L,03.0,N,,,,*72
$IIDPT,007.8,-1.0,*4F
$IIGLL,4613.017,N,00609.899,E,114919,A,A*54
$IIHDG,159,,,01,E*1E
$IIMTW,+18.0,C*31
$IIMWV,263,R,03.0,N,A*17
$IIMWV,230,T,03.7,N,A*10
$IIRMC,114920,A,4613.017,N,00609.899,E,02.4,159,280614,01,E,A*01
$IIVHW,,,159,M,02.1,N,,*6A
$IIVLW,01566,N,001.8,N*5E
$IIVWR,097,L,02.9,N,,,,*7A
$IIDPT,007.8,-1.0,*4F
$IIGLL,4613.017,N,00609.899,E,114920,A,A*5E
$IIHDG,159,,,01,E*1E
$IIMTW,+20.0,C*3A
$IIMWV,260,R,03.0,N,A*14
$IIMWV,229,T,03.6,N,A*19
$IIRMC,114921,A,4613.016,N,00609.899,E,02.4,166,280614,01,E,A*0D
$IIVHW,,,157,M,02.1,N,,*64
$IIVLW,01566,N,001.8,N*5E
$IIVWR,100,L,03.0,N,,,,*7D
$IIDPT,007.8,-1.0,*4F
$IIGLL,4613.016,N,00609.899,E,114921,A,A*5E
$IIHDG,157,,,01,E*10
$IIMTW,+20.5,C*3F
$IIMWV,260,R,03.1,N,A*15
$IIMWV,227,T,03.9,N,A*18
$IIRMC,114922,A,4613.016,N,00609.899,E,02.4,163,280614,01,E,A*0B
$IIVHW,,,157,M,02.1,N,,*64
$IIVLW,01566,N,001.8,N*5E
$IIVWR,100,L,03.1,N,,,,*7C
$IIDPT,007.8,-1.0,*4F
$IIGLL,4613.016,N,00609.899,E,114922,A,A*5D
$IIHDG,157,,,01,E*10
$IIMTW,+20.5,C*3F
$IIMWV,262,R,03.0,N,A*16
$IIMWV,229,T,03.9,N,A*16
$IIRMC,114923,A,4613.015,N,00609.900,E,02.4,162,280614,01,E,A*09
$IIVHW,,,157,M,02.1,N,,*64
$IIVLW,01566,N,001.8,N*5E
$IIVWR,098,L,03.0,N,,,,*7D
$IIDPT,007.8,-1.0,*4F
$IIGLL,4613.014,N,00609.900,E,114924,A,A*58
$IIHDG,158,,,01,E*1F
$IIMTW,+20.5,C*3F
$IIMWV,260,R,03.2,N,A*16
$IIMWV,228,T,03.8,N,A*16
$IIRMC,114924,A,4613.014,N,00609.900,E,02.4,163,280614,01,E,A*0E
$IIVHW,,,158,M,02.2,N,,*68
$IIVLW,01566,N,001.8,N*5E
$IIVWR,100,L,03.2,N,,,,*7F
$IIDPT,007.8,-1.0,*4F
$IIGLL,4613.014,N,00609.901,E,114925,A,A*58
$IIHDG,159,,,01,E*1E
$IIMTW,+20.5,C*3F
$IIMWV,263,R,03.1,N,A*16
$IIMWV,229,T,04.1,N,A*19
$IIRMC,114925,A,4613.014,N,00609.901,E,02.2,168,280614,01,E,A*03
$IIVHW,,,159,M,02.2,N,,*69
$IIVLW,01566,N,001.8,N*5E
$IIVWR,099,L,03.1,N,,,,*7D
$IIDPT,007.8,-1.0,*4F
$IIGLL,4613.013,N,00609.901,E,114926,A,A*5C
$IIHDG,159,,,01,E*1E
$IIMTW,+20.5,C*3F
$IIMWV,261,R,03.1,N,A*14
$IIMWV,230,T,03.9,N,A*1E
$IIRMC,114926,A,4613.013,N,00609.901,E,02.5,163,280614,01,E,A*0B
$IIVHW,,,159,M,02.2,N,,*69
$IIVLW,01566,N,001.8,N*5E
$IIVWR,099,L,03.2,N,,,,*7E
$IIDPT,007.8,-1.0,*4F
$IIGLL,4613.013,N,00609.901,E,114927,A,A*5D
$IIHDG,159,,,01,E*1E
$IIMTW,+20.5,C*3F
$IIMWV,261,R,03.2,N,A*17
$IIMWV,229,T,03.9,N,A*16
$IIRMC,114927,A,4613.013,N,00609.901,E,02.3,164,280614,01,E,A*0B
$IIVHW,,,159,M,02.2,N,,*69
$IIVLW,01566,N,001.8,N*5E
$IIVWR,100,L,03.1,N,,,,*7C
$IIDPT,007.7,-1.0,*40
$IIGLL,4613.012,N,00609.901,E,114928,A,A*53
$IIHDG,159,,,01,E*1E
$IIMTW,+20.5,C*3F
$IIMWV,260,R,03.1,N,A*15
$IIMWV,229,T,04.1,N,A*19
$IIRMC,114929,A,4613.011,N,00609.901,E,02.5,165,280614,01,E,A*00
$IIVHW,,,160,M,02.2,N,,*63
$IIVLW,01566,N,001.8,N*5E
$IIVWR,098,L,02.9,N,,,,*75
$IIDPT,007.7,-1.0,*40
$IIGLL,4613.011,N,00609.901,E,114929,A,A*51
$IIHDG,160,,,01,E*14
$IIMTW,+20.5,C*3F
$IIMWV,262,R,02.9,N,A*1E
$IIMWV,226,T,03.8,N,A*18
$IIRMC,114930,A,4613.011,N,00609.901,E,02.5,166,280614,01,E,A*0B
$IIVHW,,,160,M,02.2,N,,*63
$IIVLW,01566,N,001.8,N*5E
$IIVWR,100,L,02.9,N,,,,*75
$IIDPT,007.7,-1.0,*40
$IIGLL,4613.011,N,00609.901,E,114930,A,A*59
$IIHDG,160,,,01,E*14
$IIMTW,+20.5,C*3F
$IIMWV,262,R,03.0,N,A*16
$IIMWV,226,T,03.8,N,A*18
$IIRMC,114931,A,4613.010,N,00609.902,E,02.5,163,280614,01,E,A*0D
$IIVHW,,,160,M,02.2,N,,*63
$IIVLW,01566,N,001.8,N*5E
$IIVWR,098,L,03.0,N,,,,*7D
$IIDPT,007.7,-1.0,*40
$IIGLL,4613.010,N,00609.902,E,114931,A,A*5A
$IIHDG,160,,,01,E*14
$IIMTW,+20.5,C*3F
$IIMWV,265,R,02.9,N,A*19
$IIMWV,227,T,03.9,N,A*18
$IIRMC,114932,A,4613.009,N,00609.902,E,02.5,165,280614,01,E,A*00
$IIVHW,,,160,M,02.2,N,,*63
$IIVLW,01566,N,001.8,N*5E
$IIVWR,095,L,02.9,N,,,,*78
$IIDPT,007.7,-1.0,*40
$IIGLL,4613.009,N,00609.902,E,114932,A,A*51
$IIHDG,160,,,01,E*14
$IIMTW,+20.5,C*3F
$IIMWV,263,R,02.8,N,A*1E
$IIMWV,229,T,03.8,N,A*17
$IIRMC,114933,A,4613.009,N,00609.902,E,02.5,164,280614,01,E,A*00
$IIVHW,,,160,M,02.3,N,,*62
$IIVLW,01566,N,001.8,N*5E
$IIVWR,097,L,02.8,N,,,,*7B
$IIDPT,007.7,-1.0,*40
$IIGLL,4613.008,N,00609.902,E,114934,A,A*56
$IIHDG,160,,,01,E*14
$IIMTW,+17.5,C*3B
$IIMWV,269,R,02.7,N,A*1B
$IIMWV,226,T,03.7,N,A*17
$IIRMC,114934,A,4613.008,N,00609.902,E,02.5,163,280614,01,E,A*01
$IIVHW,,,160,M,02.3,N,,*62
$IIVLW,01566,N,001.8,N*5E
$IIVWR,091,L,02.7,N,,,,*72
$IIDPT,007.7,-1.0,*40
$IIGLL,4613.007,N,00609.902,E,114935,A,A*58
$IIHDG,159,,,01,E*1E
$IIMTW,+20.5,C*3F
$IIMWV,265,R,02.6,N,A*16
$IIMWV,230,T,03.5,N,A*12
$IIRMC,114935,A,4613.007,N,00609.902,E,02.5,165,280614,01,E,A*09
$IIVHW,,,159,M,02.3,N,,*68
$IIVLW,01566,N,001.8,N*5E
$IIVWR,093,L,03.0,N,,,,*76
$IIDPT,007.7,-1.0,*40
$IIGLL,4613.007,N,00609.903,E,114936,A,A*5A
$IIHDG,159,,,01,E*1E
$IIMTW,+20.5,C*3F
$IIMWV,267,R,03.0,N,A*13
$IIMWV,226,T,03.6,N,A*16
$IIRMC,114936,A,4613.007,N,00609.903,E,02.5,164,280614,01,E,A*0A
$IIVHW,,,159,M,02.3,N,,*68
$IIVLW,01566,N,001.8,N*5E
$IIVWR,089,L,03.0,N,,,,*7D
$IIDPT,007.7,-1.0,*40
$IIGLL,4613.006,N,00609.904,E,114937,A,A*5D
$IIHDG,159,,,01,E*1E
$IIMTW,+20.5,C*3F
$IIMWV,271,R,03.0,N,A*14
$IIMWV,231,T,03.8,N,A*1E
$IIRMC,114937,A,4613.006,N,00609.904,E,01.9,165,280614,01,E,A*03
$IIVHW,,,160,M,02.3,N,,*62
$IIVLW,01566,N,001.8,N*5E
$IIVWR,092,L,02.8,N,,,,*7E
$IIDPT,007.7,-1.0,*40
$IIGLL,4613.005,N,00609.904,E,114938,A,A*51
$IIHDG,160,,,01,E*14
$IIMTW,+20.5,C*3F
$IIMWV,268,R,02.8,N,A*15
$IIMWV,233,T,03.7,N,A*13
$IIRMC,114939,A,4613.005,N,00609.904,E,02.8,161,280614,01,E,A*08
$IIVHW,,,160,M,02.3,N,,*62
$IIVLW,01566,N,001.8,N*5E
$IIVWR,091,L,02.8,N,,,,*7D
$IIDPT,007.7,-1.0,*40
$IIGLL,4613.005,N,00609.904,E,114939,A,A*50
$IIHDG,160,,,01,E*14
$IIMTW,+20.5,C*3F
$IIMWV,269,R,02.8,N,A*14
$IIMWV,229,T,03.6,N,A*19
$IIRMC,114940,A,4613.004,N,00609.905,E,02.7,163,280614,01,E,A*0B
$IIVHW,,,160,M,02.3,N,,*62
$IIVLW,01566,N,001.8,N*5E
$IIVWR,092,L,02.9,N,,,,*7F
$IIDPT,007.7,-1.0,*40
$IIGLL,4613.004,N,00609.905,E,114940,A,A*5E
$IIHDG,160,,,01,E*14
$IIMTW,+20.5,C*3F
$IIMWV,272,R,03.2,N,A*15
$IIMWV,230,T,03.7,N,A*10
$IIRMC,114941,A,4613.003,N,00609.906,E,02.5,164,280614,01,E,A*0B
$IIVHW,,,159,M,02.3,N,,*68
$IIVLW,01566,N,001.8,N*5E
$IIVWR,088,L,03.2,N,,,,*7E
$IIDPT,007.7,-1.0,*40
$IIGLL,4613.003,N,00609.906,E,114941,A,A*5B
$IIHDG,159,,,01,E*1E
$IIMTW,+20.5,C*3F
$IIMWV,268,R,03.1,N,A*1D
$IIMWV,233,T,04.0,N,A*13
$IIRMC,114942,A,4613.003,N,00609.906,E,02.5,161,280614,01,E,A*0D
$IIVHW,,,159,M,02.3,N,,*68
$IIVLW,01566,N,001.8,N*5E
$IIVWR,092,L,03.1,N,,,,*76
$IIDPT,007.7,-1.0,*40
$IIGLL,4613.003,N,00609.906,E,114942,A,A*58
$IIHDG,160,,,01,E*14
$IIMTW,+17.5,C*3B
$IIMWV,272,R,03.0,N,A*17
$IIMWV,232,T,03.9,N,A*1C
$IIRMC,114943,A,4613.002,N,00609.906,E,02.6,164,280614,01,E,A*0B
$IIVHW,,,160,M,02.4,N,,*65
$IIVLW,01566,N,001.8,N*5E
$IIVWR,088,L,03.0,N,,,,*7C
$IIDPT,007.7,-1.0,*40
$IIGLL,4613.000,N,00609.906,E,114945,A,A*5C
$IIHDG,160,,,01,E*14
$IIMTW,+20.0,C*3A
$IIMWV,269,R,02.9,N,A*15
$IIMWV,229,T,03.6,N,A*19
$IIRMC,114945,A,4613.000,N,00609.906,E,02.7,163,280614,01,E,A*09
$IIVHW,,,160,M,02.4,N,,*65
$IIVLW,01566,N,001.8,N*5E
$IIVWR,091,L,02.9,N,,,,*7C
$IIDPT,007.7,-1.0,*40
$IIGLL,4613.000,N,00609.907,E,114946,A,A*5E
$IIHDG,159,,,01,E*1E
$IIMTW,+20.0,C*3A
$IIMWV,271,R,03.0,N,A*14
$IIMWV,230,T,03.7,N,A*10
$IIRMC,114946,A,4613.000,N,00609.907,E,02.6,165,280614,01,E,A*0C
$IIVHW,,,159,M,02.4,N,,*6F
$IIVLW,01566,N,001.8,N*5E
$IIVWR,092,L,03.3,N,,,,*74
$IIDPT,007.7,-1.0,*40
$IIGLL,4612.999,N,00609.907,E,114947,A,A*57
$IIHDG,159,,,01,E*1E
$IIMTW,+20.0,C*3A
$IIMWV,268,R,03.3,N,A*1F
$IIMWV,231,T,03.8,N,A*1E
$IIRMC,114947,A,4612.999,N,00609.907,E,02.6,164,280614,01,E,A*04
$IIVHW,,,159,M,02.4,N,,*6F
$IIVLW,01566,N,001.8,N*5E
$IIVWR,091,L,03.2,N,,,,*76
$IIDPT,007.7,-1.0,*40
$IIGLL,4612.998,N,00609.907,E,114948,A,A*59
$IIHDG,159,,,01,E*1E
$IIMTW,+20.0,C*3A
$IIMWV,269,R,03.2,N,A*1F
$IIMWV,234,T,04.0,N,A*14
$IIRMC,114948,A,4612.998,N,00609.907,E,02.7,158,280614,01,E,A*04
$IIVHW,,,159,M,02.4,N,,*6F
$IIVLW,01566,N,001.8,N*5E
$IIVWR,092,L,03.0,N,,,,*77
$IIDPT,007.7,-1.0,*40
$IIGLL,4612.997,N,00609.908,E,114949,A,A*58
$IIHDG,159,,,01,E*1E
$IIMTW,+20.0,C*3A
$IIMWV,268,R,03.0,N,A*1C
$IIMWV,232,T,04.0,N,A*12
$IIRMC,114950,A,4612.997,N,00609.908,E,02.7,161,280614,01,E,A*07
$IIVHW,,,159,M,02.4,N,,*6F
$IIVLW,01566,N,001.8,N*5E
$IIVWR,092,L,03.0,N,,,,*77
$IIDPT,007.7,-1.0,*40
$IIGLL,4612.997,N,00609.908,E,114950,A,A*50
$IIHDG,159,,,01,E*1E
$IIMTW,+20.5,C*3F
$IIMWV,268,R,03.0,N,A*1C
$IIMWV,230,T,03.9,N,A*1E
$IIRMC,114951,A,4612.996,N,00609.908,E,02.6,163,280614,01,E,A*04
$IIVHW,,,159,M,02.4,N,,*6F
$IIVLW,01566,N,001.8,N*5E
$IIVWR,092,L,02.8,N,,,,*7E
$IIDPT,007.7,-1.0,*40
$IIGLL,4612.996,N,00609.908,E,114951,A,A*50
$IIHDG,159,,,01,E*1E
$IIMTW,+20.5,C*3F
$IIMWV,269,R,02.9,N,A*15
$IIMWV,228,T,03.7,N,A*19
$IIRMC,114952,A,4612.995,N,00609.908,E,02.6,164,280614,01,E,A*03
$IIVHW,,,159,M,02.4,N,,*6F
$IIVLW,01566,N,001.8,N*5E
$IIVWR,091,L,02.9,N,,,,*7C
$IIDPT,007.7,-1.0,*40
$IIGLL,4612.995,N,00609.908,E,114952,A,A*50
$IIHDG,159,,,01,E*1E
$IIMTW,+20.5,C*3F
$IIMWV,267,R,03.2,N,A*11
$IIMWV,229,T,03.8,N,A*17
$IIRMC,114953,A,4612.995,N,00609.908,E,02.6,164,280614,01,E,A*02
$IIVHW,,,159,M,02.4,N,,*6F
$IIVLW,01566,N,001.8,N*5E
$IIVWR,093,L,03.2,N,,,,*74
$IIDPT,007.6,-1.0,*41
$IIGLL,4612.995,N,00609.908,E,114953,A,A*51
$IIHDG,159,,,01,E*1E
$IIMTW,+20.5,C*3F
$IIMWV,269,R,03.5,N,A*18
$IIMWV,231,T,04.1,N,A*10
$IIRMC,114954,A,4612.994,N,00609.909,E,02.6,161,280614,01,E,A*00
$IIVHW,,,159,M,02.4,N,,*6F
$IIVLW,01566,N,001.8,N*5E
$IIVWR,091,L,03.5,N,,,,*71
$IIDPT,007.5,-1.0,*42
$IIGLL,4612.993,N,00609.909,E,114955,A,A*50
$IIHDG,159,,,01,E*1E
$IIMTW,+20.5,C*3F
$IIMWV,268,R,03.3,N,A*1F
$IIMWV,234,T,04.3,N,A*17
$IIRMC,114955,A,4612.993,N,00609.909,E,02.6,165,280614,01,E,A*02
$IIVHW,,,159,M,02.4,N,,*6F
$IIVLW,01566,N,001.8,N*5E
$IIVWR,092,L,03.3,N,,,,*74
$IIDPT,007.5,-1.0,*42
$IIGLL,4612.993,N,00609.910,E,114956,A,A*5B
$IIHDG,159,,,01,E*1E
$IIMTW,+20.5,C*3F
$IIMWV,266,R,03.1,N,A*13
$IIMWV,233,T,04.1,N,A*12
$IIRMC,114956,A,4612.993,N,00609.910,E,02.7,162,280614,01,E,A*0F
$IIVHW,,,159,M,02.4,N,,*6F
$IIVLW,01566,N,001.8,N*5E
$IIVWR,092,L,03.1,N,,,,*76
$IIDPT,007.5,-1.0,*42
$IIGLL,4612.992,N,00609.910,E,114957,A,A*5B
$IIHDG,159,,,01,E*1E
$IIMTW,+20.5,C*3F
$IIMWV,268,R,03.1,N,A*1D
$IIMWV,229,T,04.1,N,A*19
$IIRMC,114957,A,4612.992,N,00609.910,E,02.6,166,280614,01,E,A*0A
$IIVHW,,,159,M,02.4,N,,*6F
$IIVLW,01566,N,001.8,N*5E
$IIVWR,095,L,03.1,N,,,,*71
$IIDPT,007.5,-1.0,*42
$IIGLL,4612.991,N,00609.910,E,114958,A,A*57
$IIHDG,159,,,01,E*1E
$IIMTW,+20.5,C*3F
$IIMWV,265,R,03.1,N,A*10
$IIMWV,231,T,03.9,N,A*1F
$IIRMC,114958,A,4612.991,N,00609.910,E,02.8,163,280614,01,E,A*0D
$IIVHW,,,159,M,02.4,N,,*6F
$IIVLW,01566,N,001.8,N*5E
$IIVWR,096,L,03.4,N,,,,*77
$IIDPT,007.5,-1.0,*42
$IIGLL,4612.990,N,00609.911,E,114959,A,A*56
$IIHDG,159,,,01,E*1E
$IIMTW,+20.5,C*3F
$IIMWV,264,R,03.4,N,A*14
$IIMWV,229,T,04.1,N,A*19
$IIRMC,115000,A,4612.989,N,00609.911,E,02.8,162,280614,01,E,A*01
$IIVHW,,,159,M,02.4,N,,*6F
$IIVLW,01566,N,001.8,N*5E
$IIVWR,095,L,03.3,N,,,,*73
$IIDPT,007.5,-1.0,*42
$IIGLL,4612.989,N,00609.911,E,115000,A,A*5A
$IIHDG,159,,,01,E*1E
$IIMTW,+20.5,C*3F
$IIMWV,265,R,03.3,N,A*12
$IIMWV,231,T,04.2,N,A*13
$IIRMC,115001,A,4612.989,N,00609.911,E,02.7,164,280614,01,E,A*09
$IIVHW,,,159,M,02.4,N,,*6F
$IIVLW,01566,N,001.8,N*5E
$IIVWR,098,L,03.2,N,,,,*7F
$IIDPT,007.5,-1.0,*42
$IIGLL,4612.989,N,00609.911,E,115001,A,A*5B
$IIHDG,159,,,01,E*1E
$IIMTW,+20.5,C*3F
$IIMWV,262,R,03.2,N,A*14
$IIMWV,227,T,04.2,N,A*14
$IIRMC,115002,A,4612.988,N,00609.912,E,02.7,162,280614,01,E,A*0E
$IIVHW,,,159,M,02.4,N,,*6F
$IIVLW,01566,N,001.8,N*5E
$IIVWR,098,L,03.2,N,,,,*7F
$IIDPT,007.5,-1.0,*42
$IIGLL,4612.988,N,00609.912,E,115002,A,A*5A
$IIHDG,159,,,01,E*1E
$IIMTW,+20.5,C*3F
$IIMWV,260,R,03.5,N,A*11
$IIMWV,227,T,04.2,N,A*14
$IIRMC,115002,A,4612.988,N,00609.912,E,02.7,162,280614,01,E,A*0E
$IIVHW,,,160,M,02.5,N,,*64
$IIVLW,01566,N,001.8,N*5E
$IIVWR,100,L,03.5,N,,,,*78
$IIDPT,007.5,-1.0,*42
$IIGLL,4612.988,N,00609.912,E,115002,A,A*5A
$IIHDG,160,,,01,E*14
$IIMTW,+20.5,C*3F
$IIMWV,260,R,03.3,N,A*17
$IIMWV,229,T,04.5,N,A*1D
$IIRMC,115004,A,4612.986,N,00609.913,E,02.6,164,280614,01,E,A*00
$IIVHW,,,160,M,02.5,N,,*64
$IIVLW,01566,N,001.8,N*5E
$IIVWR,100,L,03.3,N,,,,*7E
$IIDPT,007.5,-1.0,*42
$IIGLL,4612.986,N,00609.913,E,115005,A,A*52
$IIHDG,159,,,01,E*1E
$IIMTW,+20.5,C*3F
$IIMWV,258,R,03.1,N,A*1E
$IIMWV,227,T,04.3,N,A*15
$IIRMC,115005,A,4612.986,N,00609.913,E,02.6,158,280614,01,E,A*0E
$IIVHW,,,159,M,02.5,N,,*6E
$IIVLW,01566,N,001.8,N*5E
$IIVWR,102,L,03.1,N,,,,*7E
$IIDPT,007.5,-1.0,*42
$IIGLL,4612.985,N,00609.914,E,115006,A,A*55
$IIHDG,159,,,01,E*1E
$IIMTW,+20.5,C*3F
$IIMWV,259,R,02.9,N,A*16
$IIMWV,224,T,04.3,N,A*16
$IIRMC,115006,A,4612.985,N,00609.914,E,02.6,161,280614,01,E,A*03
$IIVHW,,,159,M,02.5,N,,*6E
$IIVLW,01566,N,001.8,N*5E
$IIVWR,101,L,02.8,N,,,,*75
$IIDPT,007.5,-1.0,*42
$IIGLL,4612.984,N,00609.914,E,115007,A,A*55
$IIHDG,159,,,01,E*1E
$IIMTW,+20.5,C*3F
$IIMWV,259,R,02.8,N,A*17
$IIMWV,223,T,04.1,N,A*13
$IIRMC,115007,A,4612.984,N,00609.914,E,02.8,157,280614,01,E,A*08
$IIVHW,,,159,M,02.5,N,,*6E
$IIVLW,01566,N,001.8,N*5E
$IIVWR,102,L,02.7,N,,,,*79
$IIDPT,007.5,-1.0,*42
$IIGLL,4612.984,N,00609.915,E,115008,A,A*5B
$IIHDG,159,,,01,E*1E
$IIMTW,+20.5,C*3F
$IIMWV,258,R,02.7,N,A*19
$IIMWV,222,T,04.0,N,A*13
$IIRMC,115008,A,4612.984,N,00609.915,E,02.8,164,280614,01,E,A*06
$IIVHW,,,159,M,02.5,N,,*6E
$IIVLW,01566,N,001.8,N*5E
$IIVWR,102,L,03.2,N,,,,*7D
$IIDPT,007.5,-1.0,*42
$IIGLL,4612.983,N,00609.915,E,115009,A,A*5D
$IIHDG,159,,,01,E*1E
$IIMTW,+20.5,C*3F
$IIMWV,258,R,03.2,N,A*1D
$IIMWV,221,T,03.9,N,A*1E
$IIRMC,115010,A,4612.982,N,00609.915,E,02.6,169,280614,01,E,A*0A
$IIVHW,,,159,M,02.5,N,,*6E
$IIVLW,01566,N,001.8,N*5E
$IIVWR,104,L,03.0,N,,,,*79
$IIDPT,007.5,-1.0,*42
$IIGLL,4612.982,N,00609.915,E,115010,A,A*54
$IIHDG,159,,,01,E*1E
$IIMTW,+20.5,C*3F
$IIMWV,256,R,03.0,N,A*11
$IIMWV,222,T,04.3,N,A*10
$IIRMC,115011,A,4612.981,N,00609.915,E,02.8,160,280614,01,E,A*0F
$IIVHW,,,159,M,02.4,N,,*6F
$IIVLW,01566,N,001.8,N*5E
$IIVWR,100,L,03.0,N,,,,*7D
$IIDPT,007.5,-1.0,*42
$IIGLL,4612.981,N,00609.915,E,115011,A,A*56
$IIHDG,159,,,01,E*1E
$IIMTW,+20.5,C*3F
$IIMWV,257,R,03.3,N,A*13
$IIMWV,224,T,04.1,N,A*14
$IIRMC,115012,A,4612.980,N,00609.916,E,02.5,161,280614,01,E,A*02
$IIVHW,,,159,M,02.4,N,,*6F
$IIVLW,01566,N,001.8,N*5E
$IIVWR,103,L,03.3,N,,,,*7D
$IIDPT,007.5,-1.0,*42
$IIGLL,4612.980,N,00609.916,E,115012,A,A*57
$IIHDG,159,,,01,E*1E
$IIMTW,+20.5,C*3F
$IIMWV,259,R,03.1,N,A*1F
$IIMWV,225,T,04.5,N,A*11
$IIRMC,115013,A,4612.980,N,00609.916,E,02.7,163,280614,01,E,A*03
$IIVHW,,,159,M,02.5,N,,*6E
$IIVLW,01566,N,001.8,N*5E
$IIVWR,101,L,03.1,N,,,,*7D
$IIDPT,007.5,-1.0,*42
$IIGLL,4612.980,N,00609.916,E,115013,A,A*56
$IIHDG,158,,,01,E*1F
$IIMTW,+20.5,C*3F
$IIMWV,257,R,03.0,N,A*10
$IIMWV,225,T,04.2,N,A*16
$IIRMC,115014,A,4612.979,N,00609.916,E,01.6,160,280614,01,E,A*03
$IIVHW,,,158,M,02.5,N,,*6F
$IIVLW,01566,N,001.8,N*5E
$IIVWR,103,L,03.0,N,,,,*7E
$IIDPT,007.5,-1.0,*42
$IIGLL,4612.978,N,00609.917,E,115016,A,A*55
$IIHDG,157,,,01,E*10
$IIMTW,+20.5,C*3F
$IIMWV,257,R,02.9,N,A*18
$IIMWV,222,T,04.1,N,A*12
$IIRMC,115016,A,4612.978,N,00609.917,E,02.5,164,280614,01,E,A*05
$IIVHW,,,157,M,02.5,N,,*60
$IIVLW,01566,N,001.8,N*5E
$IIVWR,103,L,02.9,N,,,,*76
$IIDPT,007.4,-1.0,*43
$IIGLL,4612.977,N,00609.918,E,115017,A,A*54
$IIHDG,158,,,01,E*1F
$IIMTW,+20.5,C*3F
$IIMWV,256,R,03.0,N,A*11
$IIMWV,222,T,04.1,N,A*12
$IIRMC,115017,A,4612.977,N,00609.918,E,02.6,163,280614,01,E,A*00
$IIVHW,,,158,M,02.5,N,,*6F
$IIVLW,01566,N,001.8,N*5E
$IIVWR,109,L,02.9,N,,,,*7C
$IIDPT,007.4,-1.0,*43
$IIGLL,4612.976,N,00609.918,E,115018,A,A*5A
$IIHDG,158,,,01,E*1F
$IIMTW,+20.5,C*3F
$IIMWV,251,R,02.9,N,A*1E
$IIMWV,222,T,04.3,N,A*10
$IIRMC,115018,A,4612.976,N,00609.918,E,02.6,163,280614,01,E,A*0E
$IIVHW,,,158,M,02.5,N,,*6F
$IIVLW,01566,N,001.8,N*5E
$IIVWR,105,L,02.8,N,,,,*71
$IIDPT,007.4,-1.0,*43
$IIGLL,4612.975,N,00609.918,E,115019,A,A*58
$IIHDG,158,,,01,E*1F
$IIMTW,+20.5,C*3F
$IIMWV,255,R,02.8,N,A*1B
$IIMWV,218,T,04.3,N,A*19
$IIRMC,115019,A,4612.975,N,00609.918,E,02.4,163,280614,01,E,A*0E
$IIVHW,,,158,M,02.5,N,,*6F
$IIVLW,01566,N,001.8,N*5E
$IIVWR,103,L,02.7,N,,,,*78
$IIDPT,007.4,-1.0,*43
$IIGLL,4612.975,N,00609.918,E,115020,A,A*52
$IIHDG,158,,,01,E*1F
$IIMTW,+20.5,C*3F
$IIMWV,257,R,02.7,N,A*16
$IIMWV,220,T,04.1,N,A*10
$IIRMC,115021,A,4612.974,N,00609.919,E,02.7,163,280614,01,E,A*06
$IIVHW,,,157,M,02.5,N,,*60
$IIVLW,01566,N,001.8,N*5E
$IIVWR,100,L,02.6,N,,,,*7A
$IIDPT,007.4,-1.0,*43
$IIGLL,4612.974,N,00609.919,E,115021,A,A*53
$IIHDG,157,,,01,E*10
$IIMTW,+20.5,C*3F
$IIMWV,260,R,02.6,N,A*13
$IIMWV,221,T,03.8,N,A*1F
$IIRMC,115021,A,4612.974,N,00609.919,E,02.7,163,280614,01,E,A*06
$IIVHW,,,157,M,02.5,N,,*60
$IIVLW,01566,N,001.8,N*5E
$IIVWR,099,L,02.5,N,,,,*78
$IIDPT,007.4,-1.0,*43
$IIGLL,4612.974,N,00609.919,E,115021,A,A*53
$IIHDG,157,,,01,E*10
$IIMTW,+20.5,C*3F
$IIMWV,257,R,02.1,N,A*10
$IIMWV,220,T,03.7,N,A*11
$IIRMC,115023,A,4612.973,N,00609.919,E,02.7,162,280614,01,E,A*02
$IIVHW,,,157,M,02.5,N,,*60
$IIVLW,01566,N,001.8,N*5E
$IIVWR,103,L,02.1,N,,,,*7E
$IIDPT,007.4,-1.0,*43
$IIGLL,4612.973,N,00609.919,E,115023,A,A*56
$IIHDG,157,,,01,E*10
$IIMTW,+20.5,C*3F
$IIMWV,258,R,02.1,N,A*1F
$IIMWV,215,T,03.5,N,A*15
$IIRMC,115024,A,4612.972,N,00609.919,E,02.7,161,280614,01,E,A*07
$IIVHW,,,158,M,02.5,N,,*6F
$IIVLW,01566,N,001.8,N*5E
$IIVWR,102,L,02.1,N,,,,*7F
$IIDPT,007.4,-1.0,*43
$IIGLL,4612.972,N,00609.919,E,115024,A,A*50
$IIHDG,159,,,01,E*1E
$IIMTW,+20.5,C*3F
$IIMWV,262,R,02.1,N,A*16
$IIMWV,215,T,03.5,N,A*15
$IIRMC,115025,A,4612.972,N,00609.920,E,02.7,165,280614,01,E,A*08
$IIVHW,,,159,M,02.5,N,,*6E
$IIVLW,01566,N,001.8,N*5E
$IIVWR,098,L,02.1,N,,,,*7D
$IIDPT,007.4,-1.0,*43
$IIGLL,4612.971,N,00609.920,E,115026,A,A*5B
$IIHDG,159,,,01,E*1E
$IIMTW,+20.5,C*3F
$IIMWV,259,R,02.1,N,A*1E
$IIMWV,217,T,03.3,N,A*11
$IIRMC,115026,A,4612.971,N,00609.920,E,02.7,161,280614,01,E,A*0C
$IIVHW,,,159,M,02.5,N,,*6E
$IIVLW,01566,N,001.8,N*5E
$IIVWR,101,L,02.1,N,,,,*7C
$IIDPT,007.4,-1.0,*43
$IIGLL,4612.970,N,00609.920,E,115027,A,A*5B
$IIHDG,159,,,01,E*1E
$IIMTW,+20.5,C*3F
$IIMWV,260,R,01.8,N,A*1E
$IIMWV,216,T,03.4,N,A*17
$IIRMC,115027,A,4612.970,N,00609.920,E,02.7,170,280614,01,E,A*0C
$IIVHW,,,159,M,02.5,N,,*6E
$IIVLW,01566,N,001.8,N*5E
$IIVWR,097,L,01.9,N,,,,*79
$IIDPT,009.0,-1.0,*49
$IIGLL,4612.970,N,00609.920,E,115028,A,A*54
$IIHDG,160,,,01,E*14
$IIMTW,+20.5,C*3F
$IIMWV,263,R,01.9,N,A*1C
$IIMWV,211,T,03.2,N,A*16
$IIRMC,115028,A,4612.970,N,00609.920,E,02.6,166,280614,01,E,A*05
$IIVHW,,,160,M,02.4,N,,*65
$IIVLW,01566,N,001.8,N*5E
$IIVWR,097,L,01.9,N,,,,*79
$IIDPT,009.0,-1.0,*49
$IIGLL,4612.969,N,00609.920,E,115029,A,A*5D
$IIHDG,162,,,01,E*16
$IIMTW,+20.5,C*3F
$IIMWV,263,R,01.9,N,A*1C
$IIMWV,214,T,03.2,N,A*13
$IIRMC,115029,A,4612.969,N,00609.920,E,02.6,169,280614,01,E,A*03
$IIVHW,,,163,M,02.5,N,,*67
$IIVLW,01566,N,001.8,N*5E
$IIVWR,098,L,01.6,N,,,,*79
$IIDPT,007.4,-1.0,*43
$IIGLL,4612.968,N,00609.920,E,115030,A,A*54
$IIHDG,163,,,01,E*17
$IIMTW,+20.5,C*3F
$IIMWV,262,R,01.6,N,A*12
$IIMWV,214,T,03.2,N,A*13
$IIRMC,115031,A,4612.967,N,00609.921,E,03.4,176,280614,01,E,A*08
$IIVHW,,,165,M,02.4,N,,*60
$IIVLW,01566,N,001.8,N*5E
$IIVWR,105,L,01.7,N,,,,*7D
$IIDPT,007.4,-1.0,*43
$IIGLL,4612.967,N,00609.921,E,115031,A,A*5B
$IIHDG,165,,,01,E*11
$IIMTW,+20.5,C*3F
$IIMWV,255,R,01.7,N,A*17
$IIMWV,209,T,03.3,N,A*1E
$IIRMC,115032,A,4612.966,N,00609.921,E,02.4,166,280614,01,E,A*0A
$IIVHW,,,165,M,02.4,N,,*60
$IIVLW,01566,N,001.8,N*5E
$IIVWR,107,L,01.8,N,,,,*70
$IIDPT,007.4,-1.0,*43
$IIGLL,4612.966,N,00609.921,E,115032,A,A*59
$IIHDG,165,,,01,E*11
$IIMTW,+17.5,C*3B
$IIMWV,255,R,01.5,N,A*15
$IIMWV,210,T,03.4,N,A*11
$IIRMC,115033,A,4612.966,N,00609.921,E,03.0,172,280614,01,E,A*0B
$IIVHW,,,165,M,02.4,N,,*60
$IIVLW,01566,N,001.8,N*5E
$IIVWR,105,L,01.5,N,,,,*7F
$IIDPT,007.4,-1.0,*43
$IIGLL,4612.966,N,00609.921,E,115033,A,A*58
$IIHDG,165,,,01,E*11
$IIMTW,+20.0,C*3A
$IIMWV,252,R,01.6,N,A*11
$IIMWV,207,T,03.0,N,A*13
$IIRMC,115034,A,4612.965,N,00609.921,E,02.2,194,280614,01,E,A*04
$IIVHW,,,166,M,02.4,N,,*63
$IIVLW,01566,N,001.8,N*5E
$IIVWR,108,L,01.6,N,,,,*71
$IIDPT,007.4,-1.0,*43
$IIGLL,4612.965,N,00609.921,E,115034,A,A*5C
$IIHDG,167,,,01,E*13
$IIMTW,+20.0,C*3A
$IIMWV,246,R,01.3,N,A*11
$IIMWV,208,T,03.1,N,A*1D
$IIRMC,115035,A,4612.964,N,00609.921,E,02.6,166,280614,01,E,A*0D
$IIVHW,,,167,M,02.4,N,,*62
$IIVLW,01566,N,001.9,N*5F
$IIVWR,114,L,01.3,N,,,,*79
$IIDPT,007.4,-1.0,*43
$IIGLL,4612.963,N,00609.921,E,115036,A,A*58
$IIHDG,167,,,01,E*13
$IIMTW,+20.0,C*3A
$IIMWV,243,R,01.4,N,A*13
$IIMWV,201,T,03.1,N,A*14
$IIRMC,115036,A,4612.963,N,00609.921,E,02.6,170,280614,01,E,A*0E
$IIVHW,,,167,M,02.4,N,,*62
$IIVLW,01566,N,001.9,N*5F
$IIVWR,117,L,01.4,N,,,,*7D
$IIDPT,007.4,-1.0,*43
$IIGLL,4612.962,N,00609.921,E,115037,A,A*58
$IIHDG,167,,,01,E*13
$IIMTW,+20.0,C*3A
$IIMWV,240,R,01.2,N,A*16
$IIMWV,202,T,03.2,N,A*14
$IIRMC,115037,A,4612.962,N,00609.921,E,02.6,170,280614,01,E,A*0E
$IIVHW,,,167,M,02.4,N,,*62
$IIVLW,01566,N,001.9,N*5F
$IIVWR,124,L,01.4,N,,,,*7D
$IIDPT,007.4,-1.0,*43
$IIGLL,4612.962,N,00609.921,E,115038,A,A*57
$IIHDG,167,,,01,E*13
$IIMTW,+20.0,C*3A
$IIMWV,236,R,01.4,N,A*11
$IIMWV,198,T,03.1,N,A*17
$IIRMC,115038,A,4612.962,N,00609.921,E,02.3,169,280614,01,E,A*0C
$IIVHW,,,167,M,02.4,N,,*62
$IIVLW,01566,N,001.9,N*5F
$IIVWR,128,L,01.2,N,,,,*77
$IIDPT,007.4,-1.0,*43
$IIGLL,4612.961,N,00609.921,E,115039,A,A*55
$IIHDG,167,,,01,E*13
$IIMTW,+20.0,C*3A
$IIMWV,232,R,01.2,N,A*13
$IIMWV,200,T,03.2,N,A*16
$IIRMC,115039,A,4612.961,N,00609.921,E,02.7,178,280614,01,E,A*0A
$IIVHW,,,167,M,02.4,N,,*62
$IIVLW,01566,N,001.9,N*5F
$IIVWR,131,L,01.3,N,,,,*7E
$IIDPT,007.3,-1.0,*44
$IIGLL,4612.960,N,00609.921,E,115040,A,A*5A
$IIHDG,167,,,01,E*13
$IIMTW,+20.0,C*3A
$IIMWV,229,R,01.3,N,A*18
$IIMWV,196,T,03.2,N,A*1A
$IIRMC,115041,A,4612.960,N,00609.921,E,02.1,146,280614,01,E,A*0F
$IIVHW,,,167,M,02.4,N,,*62
$IIVLW,01566,N,001.9,N*5F
$IIVWR,132,L,01.2,N,,,,*7C
$IIDPT,007.2,-1.0,*45
$IIGLL,4612.960,N,00609.921,E,115041,A,A*5B
$IIHDG,167,,,01,E*13
$IIMTW,+20.0,C*3A
$IIMWV,228,R,01.2,N,A*18
$IIMWV,194,T,03.2,N,A*18
$IIRMC,115042,A,4612.959,N,00609.921,E,02.6,176,280614,01,E,A*02
$IIVHW,,,167,M,02.4,N,,*62
$IIVLW,01566,N,001.9,N*5F
$IIVWR,136,L,01.3,N,,,,*79
$IIDPT,007.2,-1.0,*45
$IIGLL,4612.959,N,00609.921,E,115042,A,A*52
$IIHDG,167,,,01,E*13
$IIMTW,+20.0,C*3A
$IIMWV,224,R,01.1,N,A*17
$IIMWV,194,T,03.3,N,A*19
$IIRMC,115043,A,4612.958,N,00609.922,E,02.1,142,280614,01,E,A*01
$IIVHW,,,167,M,02.4,N,,*62
$IIVLW,01566,N,001.9,N*5F
$IIVWR,136,L,01.1,N,,,,*7B
$IIDPT,007.2,-1.0,*45
$IIGLL,4612.958,N,00609.922,E,115043,A,A*51
$IIHDG,167,,,01,E*13
$IIMTW,+20.0,C*3A
$IIMWV,222,R,00.9,N,A*18
$IIMWV,193,T,03.1,N,A*1C
$IIRMC,115044,A,4612.958,N,00609.922,E,01.7,161,280614,01,E,A*02
$IIVHW,,,167,M,02.4,N,,*62
$IIVLW,01566,N,001.9,N*5F
$IIVWR,138,L,00.9,N,,,,*7C
$IIDPT,007.2,-1.0,*45
$IIGLL,4612.958,N,00609.922,E,115044,A,A*56
$IIHDG,167,,,01,E*13
$IIMTW,+20.0,C*3A
$IIMWV,216,R,01.1,N,A*16
$IIMWV,191,T,03.0,N,A*1F
$IIRMC,115045,A,4612.957,N,00609.922,E,02.0,181,280614,01,E,A*06
$IIVHW,,,167,M,02.4,N,,*62
$IIVLW,01566,N,001.9,N*5F
$IIVWR,144,L,01.1,N,,,,*7E
$IIDPT,007.2,-1.0,*45
$IIGLL,4612.956,N,00609.922,E,115046,A,A*5A
$IIHDG,166,,,01,E*12
$IIMTW,+20.0,C*3A
$IIMWV,218,R,00.9,N,A*11
$IIMWV,191,T,03.2,N,A*1D
$IIRMC,115046,A,4612.956,N,00609.922,E,03.0,177,280614,01,E,A*0C
$IIVHW,,,166,M,02.4,N,,*63
$IIVLW,01566,N,001.9,N*5F
$IIVWR,142,L,00.9,N,,,,*71
$IIDPT,007.2,-1.0,*45
$IIGLL,4612.956,N,00609.922,E,115046,A,A*5A
$IIHDG,166,,,01,E*12
$IIMTW,+20.0,C*3A
$IIMWV,216,R,00.9,N,A*1F
$IIMWV,189,T,03.1,N,A*17
$IIRMC,115046,A,4612.956,N,00609.922,E,03.0,177,280614,01,E,A*0C
$IIVHW,,,166,M,02.3,N,,*64
$IIVLW,01566,N,001.9,N*5F
$IIVWR,151,L,01.0,N,,,,*7B
$IIDPT,007.2,-1.0,*45
$IIGLL,4612.955,N,00609.922,E,115048,A,A*57
$IIHDG,166,,,01,E*12
$IIMTW,+20.5,C*3F
$IIMWV,209,R,01.0,N,A*19
$IIMWV,189,T,03.1,N,A*17
$IIRMC,115048,A,4612.955,N,00609.922,E,02.2,171,280614,01,E,A*04
$IIVHW,,,166,M,02.3,N,,*64
$IIVLW,01566,N,001.9,N*5F
$IIVWR,155,L,00.8,N,,,,*76
$IIDPT,007.2,-1.0,*45
$IIGLL,4612.955,N,00609.922,E,115048,A,A*57
$IIHDG,166,,,01,E*12
$IIMTW,+17.5,C*3B
$IIMWV,205,R,00.8,N,A*1C
$IIMWV,187,T,03.1,N,A*19
$IIRMC,115048,A,4612.955,N,00609.922,E,02.2,171,280614,01,E,A*04
$IIVHW,,,167,M,02.3,N,,*65
$IIVLW,01566,N,001.9,N*5F
$IIVWR,147,L,00.6,N,,,,*7B
$IIDPT,007.2,-1.0,*45
$IIGLL,4612.953,N,00609.922,E,115050,A,A*58
$IIHDG,167,,,01,E*13
$IIMTW,+20.5,C*3F
$IIMWV,213,R,00.6,N,A*15
$IIMWV,185,T,03.1,N,A*1B
$IIRMC,115051,A,4612.953,N,00609.922,E,02.0,183,280614,01,E,A*05
$IIVHW,,,167,M,02.3,N,,*65
$IIVLW,01566,N,001.9,N*5F
$IIVWR,153,L,00.5,N,,,,*7D
$IIDPT,007.2,-1.0,*45
$IIGLL,4612.953,N,00609.922,E,115051,A,A*59
$IIHDG,167,,,01,E*13
$IIMTW,+20.5,C*3F
$IIMWV,207,R,00.5,N,A*13
$IIMWV,184,T,02.7,N,A*1D
$IIRMC,115052,A,4612.952,N,00609.922,E,02.5,171,280614,01,E,A*0F
$IIVHW,,,167,M,02.3,N,,*65
$IIVLW,01566,N,001.9,N*5F
$IIVWR,156,L,00.4,N,,,,*79
$IIDPT,007.2,-1.0,*45
$IIGLL,4612.952,N,00609.922,E,115052,A,A*5B
$IIHDG,167,,,01,E*13
$IIMTW,+20.5,C*3F
$IIMWV,210,R,00.3,N,A*13
$IIMWV,182,T,02.6,N,A*1A
$IIRMC,115053,A,4612.951,N,00609.922,E,02.6,170,280614,01,E,A*0F
$IIVHW,,,168,M,02.3,N,,*6A
$IIVLW,01566,N,001.9,N*5F
$IIVWR,150,L,00.3,N,,,,*78
$IIDPT,007.1,-1.0,*46
$IIGLL,4612.951,N,00609.922,E,115053,A,A*59
$IIHDG,168,,,01,E*1C
$IIMTW,+20.5,C*3F
$IIMWV,199,R,00.3,N,A*11
$IIMWV,182,T,02.5,N,A*19
$IIRMC,115054,A,4612.950,N,00609.922,E,02.6,179,280614,01,E,A*00
$IIVHW,,,168,M,02.2,N,,*6B
$IIVLW,01566,N,001.9,N*5F
$IIVWR,161,L,00.3,N,,,,*7A
$IIDPT,007.0,-1.0,*47
$IIGLL,4612.950,N,00609.922,E,115054,A,A*5F
$IIHDG,168,,,01,E*1C
$IIMTW,+20.5,C*3F
$IIMWV,185,R,00.2,N,A*1D
$IIMWV,180,T,02.4,N,A*1A
$IIRMC,115055,A,4612.949,N,00609.922,E,03.2,162,280614,01,E,A*06
$IIVHW,,,168,M,01.8,N,,*62
$IIVLW,01566,N,001.9,N*5F
$IIVWR,175,L,00.2,N,,,,*7E
$IIDPT,007.0,-1.0,*47
$IIGLL,4612.949,N,00609.922,E,115056,A,A*55
$IIHDG,168,,,01,E*1C
$IIMTW,+20.5,C*3F
$IIMWV,188,R,00.6,N,A*14
$IIMWV,180,T,02.1,N,A*1F
$IIRMC,115056,A,4612.949,N,00609.922,E,02.8,178,280614,01,E,A*05
$IIVHW,,,168,M,01.9,N,,*63
$IIVLW,01566,N,001.9,N*5F
$IIVWR,172,L,00.6,N,,,,*7D
$IIDPT,007.0,-1.0,*47
$IIGLL,4612.947,N,00609.922,E,115057,A,A*5A
