$IIGLL,4612.902,N,00610.130,E,161803,A,A*52
$IIHDG,330,,,,*57
$IIMTW,+18.0,C*31
$IIMWV,034,R,10.2,N,A*17
$IIMWV,038,T,07.8,N,A*11
$IIRMC,161803,A,4612.902,N,00610.130,E,02.4,332,210814,,,A*41
$IIVHW,,,330,M,02.2,N,,*64
$IIVLW,53471,N,000.1,N*56
$IIVWR,034,R,10.2,N,,,,*65
$IIDPT,007.2,+0.7,*45
$IIGLL,4612.903,N,00610.130,E,161804,A,A*54
$IIHDG,331,,,,*56
$IIMTW,+18.0,C*31
$IIMWV,032,R,10.2,N,A*11
$IIMWV,043,T,08.4,N,A*1E
$IIRMC,161804,A,4612.903,N,00610.130,E,02.4,331,210814,,,A*44
$IIVHW,,,331,M,02.2,N,,*65
$IIVLW,53471,N,000.1,N*56
$IIVWR,033,R,10.6,N,,,,*66
$IIDPT,007.2,+0.7,*45
$IIGLL,4612.903,N,00610.129,E,161805,A,A*5D
$IIHDG,334,,,,*53
$IIMTW,+18.0,C*31
$IIMWV,033,R,10.6,N,A*14
$IIMWV,040,T,08.3,N,A*1A
$IIRMC,161805,A,4612.903,N,00610.129,E,01.9,348,210814,,,A*4D
$IIVHW,,,334,M,02.2,N,,*60
$IIVLW,53471,N,000.1,N*56
$IIVWR,030,R,10.4,N,,,,*67
$IIDPT,007.2,+0.7,*45
$IIGLL,4612.904,N,00610.129,E,161806,A,A*59
$IIHDG,334,,,,*53
$IIMTW,+18.0,C*31
$IIMWV,030,R,10.4,N,A*15
$IIMWV,041,T,08.7,N,A*1F
$IIRMC,161806,A,4612.904,N,00610.129,E,02.4,335,210814,,,A*4D
$IIVHW,,,334,M,02.2,N,,*60
$IIVLW,53471,N,000.1,N*56
$IIVWR,030,R,10.1,N,,,,*62
$IIDPT,007.2,+0.7,*45
$IIGLL,4612.904,N,00610.129,E,161807,A,A*58
$IIHDG,334,,,,*53
$IIMTW,+18.0,C*31
$IIMWV,030,R,10.1,N,A*10
$IIMWV,037,T,08.5,N,A*1C
$IIRMC,161807,A,4612.904,N,00610.129,E,02.4,333,210814,,,A*4A
$IIVHW,,,332,M,02.1,N,,*65
$IIVLW,53471,N,000.1,N*56
$IIVWR,032,R,10.5,N,,,,*64
$IIDPT,007.2,+0.7,*45
$IIGLL,4612.904,N,00610.129,E,161807,A,A*58
$IIHDG,332,,,,*55
$IIMTW,+18.0,C*31
$IIMWV,032,R,10.5,N,A*16
$IIMWV,039,T,08.6,N,A*11
$IIRMC,161807,A,4612.904,N,00610.129,E,02.4,333,210814,,,A*4A
$IIVHW,,,332,M,02.1,N,,*65
$IIVLW,53471,N,000.1,N*56
$IIVWR,030,R,10.4,N,,,,*67
$IIDPT,007.2,+0.7,*45
$IIGLL,4612.904,N,00610.129,E,161807,A,A*58
$IIHDG,332,,,,*55
$IIMTW,+18.0,C*31
$IIMWV,033,R,09.7,N,A*1D
$IIMWV,037,T,08.6,N,A*1F
$IIRMC,161810,A,4612.906,N,00610.127,E,01.5,356,210814,,,A*41
$IIVHW,,,330,M,02.0,N,,*66
$IIVLW,53471,N,000.1,N*56
$IIVWR,033,R,09.7,N,,,,*6F
$IIDPT,007.2,+0.7,*45
$IIGLL,4612.906,N,00610.127,E,161810,A,A*52
$IIHDG,330,,,,*57
$IIMTW,+18.0,C*31
$IIMWV,030,R,10.1,N,A*10
$IIMWV,041,T,07.9,N,A*1E
$IIRMC,161811,A,4612.907,N,00610.127,E,01.7,338,210814,,,A*4B
$IIVHW,,,329,M,02.0,N,,*6E
$IIVLW,53471,N,000.1,N*56
$IIVWR,030,R,10.1,N,,,,*62
$IIDPT,007.3,+0.7,*44
$IIGLL,4612.907,N,00610.127,E,161811,A,A*52
$IIHDG,328,,,,*5E
$IIMTW,+18.0,C*31
$IIMWV,034,R,09.7,N,A*1A
$IIMWV,037,T,08.2,N,A*1B
$IIRMC,161812,A,4612.907,N,00610.126,E,03.1,325,210814,,,A*41
$IIVHW,,,328,M,02.1,N,,*6E
$IIVLW,53471,N,000.1,N*56
$IIVWR,034,R,09.7,N,,,,*68
$IIDPT,007.2,+0.7,*45
$IIGLL,4612.907,N,00610.126,E,161813,A,A*51
$IIHDG,326,,,,*50
$IIMTW,+18.0,C*31
$IIMWV,033,R,09.7,N,A*1D
$IIMWV,042,T,07.9,N,A*1D
$IIRMC,161813,A,4612.907,N,00610.126,E,02.3,329,210814,,,A*4F
$IIVHW,,,326,M,02.1,N,,*60
$IIVLW,53471,N,000.1,N*56
$IIVWR,033,R,09.7,N,,,,*6F
$IIDPT,007.2,+0.7,*45
$IIGLL,4612.908,N,00610.125,E,161814,A,A*5A
$IIHDG,326,,,,*50
$IIMTW,+18.0,C*31
$IIMWV,034,R,09.7,N,A*1A
$IIMWV,041,T,07.9,N,A*1E
$IIRMC,161814,A,4612.908,N,00610.125,E,02.2,322,210814,,,A*4E
$IIVHW,,,326,M,02.1,N,,*60
$IIVLW,53471,N,000.1,N*56
$IIVWR,035,R,09.7,N,,,,*69
$IIDPT,007.2,+0.7,*45
$IIGLL,4612.908,N,00610.125,E,161815,A,A*5B
$IIHDG,325,,,,*53
$IIMTW,+18.0,C*31
$IIMWV,035,R,09.7,N,A*1B
$IIMWV,043,T,07.9,N,A*1C
$IIRMC,161815,A,4612.908,N,00610.125,E,02.7,325,210814,,,A*4D
$IIVHW,,,325,M,02.1,N,,*63
$IIVLW,53471,N,000.1,N*56
$IIVWR,034,R,09.4,N,,,,*6B
$IIDPT,007.3,+0.7,*44
$IIGLL,4612.908,N,00610.125,E,161815,A,A*5B
$IIHDG,324,,,,*52
$IIMTW,+18.0,C*31
$IIMWV,034,R,09.4,N,A*19
$IIMWV,044,T,07.9,N,A*1B
$IIRMC,161815,A,4612.908,N,00610.125,E,02.7,325,210814,,,A*4D
$IIVHW,,,324,M,02.1,N,,*62
$IIVLW,53471,N,000.1,N*56
$IIVWR,033,R,09.4,N,,,,*6C
$IIDPT,007.3,+0.7,*44
$IIGLL,4612.909,N,00610.124,E,161817,A,A*59
$IIHDG,324,,,,*52
$IIMTW,+18.0,C*31
$IIMWV,033,R,09.4,N,A*1E
$IIMWV,043,T,07.6,N,A*13
$IIRMC,161818,A,4612.910,N,00610.123,E,02.8,324,210814,,,A*41
$IIVHW,,,324,M,02.2,N,,*61
$IIVLW,53471,N,000.1,N*56
$IIVWR,033,R,09.2,N,,,,*6A
$IIDPT,007.4,+0.7,*43
$IIGLL,4612.910,N,00610.123,E,161818,A,A*59
$IIHDG,324,,,,*52
$IIMTW,+18.0,C*31
$IIMWV,033,R,09.2,N,A*18
$IIMWV,042,T,07.3,N,A*17
$IIRMC,161819,A,4612.911,N,00610.123,E,03.1,327,210814,,,A*4A
$IIVHW,,,323,M,02.2,N,,*66
$IIVLW,53471,N,000.1,N*56
$IIVWR,034,R,09.3,N,,,,*6C
$IIDPT,007.4,+0.7,*43
$IIGLL,4612.911,N,00610.123,E,161819,A,A*59
$IIHDG,323,,,,*55
$IIMTW,+18.0,C*31
$IIMWV,036,R,09.6,N,A*19
$IIMWV,045,T,07.6,N,A*15
$IIRMC,161822,A,4612.912,N,00610.121,E,02.3,324,210814,,,A*43
$IIVHW,,,324,M,02.4,N,,*67
$IIVLW,53471,N,000.1,N*56
$IIVWR,036,R,09.6,N,,,,*6B
$IIDPT,007.4,+0.7,*43
$IIGLL,4612.912,N,00610.121,E,161822,A,A*50
$IIHDG,324,,,,*52
$IIMTW,+18.0,C*31
$IIMWV,035,R,09.7,N,A*1B
$IIMWV,047,T,07.6,N,A*17
$IIRMC,161823,A,4612.913,N,00610.120,E,02.0,322,210814,,,A*47
$IIVHW,,,324,M,02.4,N,,*67
$IIVLW,53471,N,000.1,N*56
$IIVWR,035,R,09.7,N,,,,*69
$IIDPT,007.4,+0.7,*43
$IIGLL,4612.913,N,00610.120,E,161823,A,A*51
$IIHDG,324,,,,*52
$IIMTW,+18.0,C*31
$IIMWV,034,R,09.8,N,A*15
$IIMWV,045,T,07.7,N,A*14
$IIRMC,161824,A,4612.913,N,00610.120,E,02.0,321,210814,,,A*43
$IIVHW,,,324,M,02.4,N,,*67
$IIVLW,53471,N,000.1,N*56
$IIVWR,034,R,09.8,N,,,,*67
$IIDPT,007.4,+0.7,*43
$IIGLL,4612.914,N,00610.119,E,161825,A,A*5A
$IIHDG,325,,,,*53
$IIMTW,+18.0,C*31
$IIMWV,035,R,09.8,N,A*14
$IIMWV,044,T,07.7,N,A*15
$IIRMC,161825,A,4612.914,N,00610.119,E,02.1,323,210814,,,A*4C
$IIVHW,,,325,M,02.4,N,,*66
$IIVLW,53471,N,000.1,N*56
$IIVWR,035,R,09.8,N,,,,*66
$IIDPT,007.4,+0.7,*43
$IIGLL,4612.914,N,00610.119,E,161826,A,A*59
$IIHDG,324,,,,*52
$IIMTW,+18.0,C*31
$IIMWV,034,R,09.8,N,A*15
$IIMWV,045,T,07.7,N,A*14
$IIRMC,161826,A,4612.914,N,00610.119,E,01.8,319,210814,,,A*4C
$IIVHW,,,324,M,02.4,N,,*67
$IIVLW,53471,N,000.1,N*56
$IIVWR,033,R,09.8,N,,,,*60
$IIDPT,007.4,+0.7,*43
$IIGLL,4612.915,N,00610.118,E,161827,A,A*58
$IIHDG,325,,,,*53
$IIMTW,+18.0,C*31
$IIMWV,033,R,09.8,N,A*12
$IIMWV,044,T,07.7,N,A*15
$IIRMC,161827,A,4612.915,N,00610.118,E,02.2,322,210814,,,A*4C
$IIVHW,,,325,M,02.4,N,,*66
$IIVLW,53471,N,000.1,N*56
$IIVWR,032,R,10.0,N,,,,*61
$IIDPT,007.4,+0.7,*43
$IIGLL,4612.915,N,00610.118,E,161828,A,A*57
$IIHDG,324,,,,*52
$IIMTW,+18.0,C*31
$IIMWV,032,R,10.0,N,A*13
$IIMWV,042,T,07.7,N,A*13
$IIRMC,161828,A,4612.915,N,00610.118,E,02.3,323,210814,,,A*43
$IIVHW,,,325,M,02.4,N,,*66
$IIVLW,53471,N,000.1,N*56
$IIVWR,033,R,10.0,N,,,,*60
$IIDPT,007.4,+0.7,*43
$IIGLL,4612.916,N,00610.117,E,161829,A,A*5A
$IIHDG,325,,,,*53
$IIMTW,+18.0,C*31
$IIMWV,033,R,10.0,N,A*12
$IIMWV,041,T,08.0,N,A*18
$IIRMC,161830,A,4612.916,N,00610.116,E,02.1,322,210814,,,A*44
$IIVHW,,,325,M,02.4,N,,*66
$IIVLW,53471,N,000.1,N*56
$IIVWR,033,R,10.0,N,,,,*60
$IIDPT,007.4,+0.7,*43
$IIGLL,4612.916,N,00610.116,E,161830,A,A*53
$IIHDG,325,,,,*53
$IIMTW,+18.0,C*31
$IIMWV,033,R,10.0,N,A*12
$IIMWV,042,T,07.9,N,A*1D
$IIRMC,161831,A,4612.917,N,00610.116,E,02.3,326,210814,,,A*42
$IIVHW,,,325,M,02.4,N,,*66
$IIVLW,53471,N,000.1,N*56
$IIVWR,034,R,09.8,N,,,,*67
$IIDPT,007.4,+0.7,*43
$IIGLL,4612.917,N,00610.116,E,161831,A,A*53
$IIHDG,325,,,,*53
$IIMTW,+18.0,C*31
$IIMWV,034,R,10.2,N,A*17
$IIMWV,045,T,08.4,N,A*18
$IIRMC,161833,A,4612.918,N,00610.115,E,02.5,317,210814,,,A*48
$IIVHW,,,325,M,02.4,N,,*66
$IIVLW,53471,N,000.1,N*56
$IIVWR,034,R,10.2,N,,,,*65
$IIDPT,007.4,+0.7,*43
$IIGLL,4612.918,N,00610.115,E,161833,A,A*5D
$IIHDG,325,,,,*53
$IIMTW,+18.0,C*31
$IIMWV,035,R,10.0,N,A*14
$IIMWV,044,T,08.2,N,A*1F
$IIRMC,161834,A,4612.918,N,00610.114,E,01.2,342,210814,,,A*4A
$IIVHW,,,326,M,02.3,N,,*62
$IIVLW,53471,N,000.1,N*56
$IIVWR,035,R,10.0,N,,,,*66
$IIDPT,007.4,+0.7,*43
$IIGLL,4612.918,N,00610.114,E,161834,A,A*5B
$IIHDG,326,,,,*50
$IIMTW,+18.0,C*31
$IIMWV,034,R,10.5,N,A*10
$IIMWV,045,T,08.1,N,A*1D
$IIRMC,161835,A,4612.919,N,00610.114,E,02.0,336,210814,,,A*48
$IIVHW,,,326,M,02.3,N,,*62
$IIVLW,53471,N,000.1,N*56
$IIVWR,034,R,10.5,N,,,,*62
$IIDPT,007.4,+0.7,*43
$IIGLL,4612.920,N,00610.113,E,161836,A,A*55
$IIHDG,327,,,,*51
$IIMTW,+18.0,C*31
$IIMWV,033,R,09.7,N,A*1D
$IIMWV,042,T,08.6,N,A*1D
$IIRMC,161836,A,4612.920,N,00610.113,E,01.3,317,210814,,,A*45
$IIVHW,,,327,M,02.2,N,,*62
$IIVLW,53471,N,000.1,N*56
$IIVWR,033,R,09.7,N,,,,*6F
$IIDPT,007.5,+0.7,*42
$IIGLL,4612.920,N,00610.113,E,161836,A,A*55
$IIHDG,327,,,,*51
$IIMTW,+18.0,C*31
$IIMWV,033,R,09.8,N,A*12
$IIMWV,042,T,07.7,N,A*13
$IIRMC,161836,A,4612.920,N,00610.113,E,01.3,317,210814,,,A*45
$IIVHW,,,327,M,02.1,N,,*61
$IIVLW,53471,N,000.1,N*56
$IIVWR,034,R,09.8,N,,,,*67
$IIDPT,007.5,+0.7,*42
$IIGLL,4612.921,N,00610.112,E,161838,A,A*5B
$IIHDG,326,,,,*50
$IIMTW,+18.0,C*31
$IIMWV,034,R,09.8,N,A*15
$IIMWV,041,T,07.9,N,A*1E
$IIRMC,161838,A,4612.921,N,00610.112,E,03.0,332,210814,,,A*4D
$IIVHW,,,326,M,02.2,N,,*63
$IIVLW,53471,N,000.1,N*56
$IIVWR,032,R,09.8,N,,,,*61
$IIDPT,007.4,+0.7,*43
$IIGLL,4612.921,N,00610.111,E,161839,A,A*59
$IIHDG,326,,,,*50
$IIMTW,+18.0,C*31
$IIMWV,032,R,09.8,N,A*13
$IIMWV,043,T,07.9,N,A*1C
$IIRMC,161839,A,4612.921,N,00610.111,E,02.8,338,210814,,,A*4C
$IIVHW,,,327,M,02.3,N,,*63
$IIVLW,53471,N,000.1,N*56
$IIVWR,033,R,09.7,N,,,,*6F
$IIDPT,007.4,+0.7,*43
$IIGLL,4612.922,N,00610.110,E,161840,A,A*55
$IIHDG,327,,,,*51
$IIMTW,+18.0,C*31
$IIMWV,033,R,09.7,N,A*1D
$IIMWV,040,T,07.8,N,A*1E
$IIRMC,161841,A,4612.923,N,00610.110,E,02.9,327,210814,,,A*4F
$IIVHW,,,325,M,02.4,N,,*66
$IIVLW,53471,N,000.1,N*56
$IIVWR,035,R,09.8,N,,,,*66
$IIDPT,007.5,+0.7,*42
$IIGLL,4612.923,N,00610.110,E,161841,A,A*55
$IIHDG,325,,,,*53
$IIMTW,+18.0,C*31
$IIMWV,035,R,09.8,N,A*14
$IIMWV,045,T,07.7,N,A*14
$IIRMC,161842,A,4612.923,N,00610.109,E,02.9,315,210814,,,A*45
$IIVHW,,,327,M,02.5,N,,*65
$IIVLW,53471,N,000.1,N*56
$IIVWR,033,R,09.7,N,,,,*6F
$IIDPT,007.4,+0.7,*43
$IIGLL,4612.923,N,00610.109,E,161842,A,A*5E
$IIHDG,327,,,,*51
$IIMTW,+18.0,C*31
$IIMWV,034,R,09.7,N,A*1A
$IIMWV,043,T,07.6,N,A*13
$IIRMC,161843,A,4612.924,N,00610.108,E,02.9,315,210814,,,A*42
$IIVHW,,,324,M,02.5,N,,*66
$IIVLW,53471,N,000.1,N*56
$IIVWR,034,R,09.7,N,,,,*68
$IIDPT,007.4,+0.7,*43
$IIGLL,4612.924,N,00610.108,E,161843,A,A*59
$IIHDG,324,,,,*52
$IIMTW,+18.0,C*31
$IIMWV,035,R,09.7,N,A*1B
$IIMWV,045,T,07.6,N,A*15
$IIRMC,161844,A,4612.925,N,00610.107,E,02.9,315,210814,,,A*4B
$IIVHW,,,322,M,02.6,N,,*63
$IIVLW,53471,N,000.1,N*56
$IIVWR,035,R,09.7,N,,,,*69
$IIDPT,007.4,+0.7,*43
$IIGLL,4612.925,N,00610.107,E,161844,A,A*50
$IIHDG,321,,,,*57
$IIMTW,+18.0,C*31
$IIMWV,035,R,09.8,N,A*14
$IIMWV,046,T,07.6,N,A*16
$IIRMC,161845,A,4612.925,N,00610.107,E,02.3,315,210814,,,A*40
$IIVHW,,,321,M,02.6,N,,*60
$IIVLW,53471,N,000.1,N*56
$IIVWR,035,R,09.8,N,,,,*66
$IIDPT,007.5,+0.7,*42
$IIGLL,4612.926,N,00610.106,E,161846,A,A*50
$IIHDG,321,,,,*57
$IIMTW,+18.0,C*31
$IIMWV,035,R,09.4,N,A*18
$IIMWV,045,T,07.7,N,A*14
$IIRMC,161846,A,4612.926,N,00610.106,E,02.7,320,210814,,,A*43
$IIVHW,,,321,M,02.5,N,,*63
$IIVLW,53471,N,000.1,N*56
$IIVWR,035,R,09.4,N,,,,*6A
$IIDPT,007.6,+0.7,*41
$IIGLL,4612.926,N,00610.105,E,161847,A,A*52
$IIHDG,320,,,,*56
$IIMTW,+18.0,C*31
$IIMWV,037,R,09.6,N,A*18
$IIMWV,045,T,07.4,N,A*17
$IIRMC,161847,A,4612.926,N,00610.105,E,02.4,313,210814,,,A*42
$IIVHW,,,320,M,02.5,N,,*62
$IIVLW,53471,N,000.1,N*56
$IIVWR,036,R,09.6,N,,,,*6B
$IIDPT,007.6,+0.7,*41
$IIGLL,4612.927,N,00610.105,E,161848,A,A*5C
$IIHDG,320,,,,*56
$IIMTW,+18.0,C*31
$IIMWV,036,R,09.6,N,A*19
$IIMWV,048,T,07.6,N,A*18
$IIRMC,161848,A,4612.927,N,00610.105,E,02.5,310,210814,,,A*4E
$IIVHW,,,320,M,02.4,N,,*63
$IIVLW,53471,N,000.1,N*56
$IIVWR,038,R,09.3,N,,,,*60
$IIDPT,007.6,+0.7,*41
$IIGLL,4612.927,N,00610.104,E,161849,A,A*5C
$IIHDG,320,,,,*56
$IIMTW,+18.0,C*31
$IIMWV,038,R,09.3,N,A*12
$IIMWV,047,T,07.7,N,A*16
$IIRMC,161849,A,4612.927,N,00610.104,E,02.5,324,210814,,,A*49
$IIVHW,,,321,M,02.3,N,,*65
$IIVLW,53471,N,000.1,N*56
$IIVWR,036,R,09.3,N,,,,*6E
$IIDPT,007.6,+0.7,*41
$IIGLL,4612.928,N,00610.104,E,161850,A,A*5B
$IIHDG,321,,,,*57
$IIMTW,+18.0,C*31
$IIMWV,036,R,09.3,N,A*1C
$IIMWV,049,T,07.5,N,A*1A
$IIRMC,161851,A,4612.928,N,00610.103,E,02.4,318,210814,,,A*46
$IIVHW,,,320,M,02.3,N,,*64
$IIVLW,53471,N,000.1,N*56
$IIVWR,038,R,09.6,N,,,,*65
$IIDPT,007.6,+0.7,*41
$IIGLL,4612.928,N,00610.103,E,161851,A,A*5D
$IIHDG,320,,,,*56
$IIMTW,+18.0,C*31
$IIMWV,038,R,09.6,N,A*17
$IIMWV,049,T,07.8,N,A*17
$IIRMC,161852,A,4612.928,N,00610.103,E,02.4,319,210814,,,A*44
$IIVHW,,,320,M,02.3,N,,*64
$IIVLW,53471,N,000.1,N*56
$IIVWR,038,R,09.3,N,,,,*60
$IIDPT,007.6,+0.7,*41
$IIGLL,4612.928,N,00610.103,E,161852,A,A*5E
$IIHDG,320,,,,*56
$IIMTW,+18.0,C*31
$IIMWV,038,R,09.6,N,A*17
$IIMWV,049,T,07.5,N,A*1A
$IIRMC,161854,A,4612.930,N,00610.102,E,02.4,314,210814,,,A*47
$IIVHW,,,319,M,02.2,N,,*6F
$IIVLW,53471,N,000.1,N*56
$IIVWR,038,R,09.6,N,,,,*65
$IIDPT,007.7,+0.7,*40
$IIGLL,4612.930,N,00610.102,E,161854,A,A*50
$IIHDG,319,,,,*5C
$IIMTW,+18.0,C*31
$IIMWV,039,R,09.2,N,A*12
$IIMWV,048,T,07.9,N,A*17
$IIRMC,161855,A,4612.930,N,00610.102,E,02.3,319,210814,,,A*4C
$IIVHW,,,318,M,02.2,N,,*6E
$IIVLW,53471,N,000.1,N*56
$IIVWR,039,R,09.2,N,,,,*60
$IIDPT,007.7,+0.7,*40
$IIGLL,4612.930,N,00610.102,E,161855,A,A*51
$IIHDG,318,,,,*5D
$IIMTW,+18.0,C*31
$IIMWV,038,R,09.1,N,A*10
$IIMWV,049,T,07.5,N,A*1A
$IIRMC,161856,A,4612.931,N,00610.102,E,02.3,313,210814,,,A*44
$IIVHW,,,318,M,02.1,N,,*6D
$IIVLW,53471,N,000.1,N*56
$IIVWR,038,R,09.1,N,,,,*62
$IIDPT,007.7,+0.7,*40
$IIGLL,4612.931,N,00610.101,E,161857,A,A*51
$IIHDG,318,,,,*5D
$IIMTW,+18.0,C*31
$IIMWV,039,R,09.3,N,A*13
$IIMWV,049,T,07.4,N,A*1B
$IIRMC,161857,A,4612.931,N,00610.101,E,02.3,323,210814,,,A*45
$IIVHW,,,318,M,02.1,N,,*6D
$IIVLW,53471,N,000.1,N*56
$IIVWR,039,R,09.3,N,,,,*61
$IIDPT,007.7,+0.7,*40
$IIGLL,4612.932,N,00610.100,E,161858,A,A*5C
$IIHDG,318,,,,*5D
$IIMTW,+18.0,C*31
$IIMWV,038,R,09.2,N,A*13
$IIMWV,049,T,07.6,N,A*19
$IIRMC,161858,A,4612.932,N,00610.100,E,02.3,315,210814,,,A*4D
$IIVHW,,,318,M,02.1,N,,*6D
$IIVLW,53471,N,000.1,N*56
$IIVWR,040,R,09.3,N,,,,*6F
$IIDPT,007.7,+0.7,*40
$IIGLL,4612.932,N,00610.100,E,161859,A,A*5D
$IIHDG,317,,,,*52
$IIMTW,+18.0,C*31
$IIMWV,040,R,09.3,N,A*1D
$IIMWV,049,T,07.5,N,A*1A
$IIRMC,161859,A,4612.932,N,00610.100,E,02.2,315,210814,,,A*4D
$IIVHW,,,317,M,02.1,N,,*62
$IIVLW,53471,N,000.1,N*56
$IIVWR,039,R,09.1,N,,,,*63
$IIDPT,007.7,+0.7,*40
$IIGLL,4612.933,N,00610.099,E,161900,A,A*50
$IIHDG,315,,,,*50
$IIMTW,+18.0,C*31
$IIMWV,039,R,09.1,N,A*11
$IIMWV,050,T,07.6,N,A*11
$IIRMC,161900,A,4612.933,N,00610.099,E,01.9,298,210814,,,A*4C
$IIVHW,,,314,M,02.1,N,,*61
$IIVLW,53471,N,000.1,N*56
$IIVWR,040,R,08.9,N,,,,*64
$IIDPT,007.7,+0.7,*40
$IIGLL,4612.933,N,00610.098,E,161901,A,A*50
$IIHDG,314,,,,*51
$IIMTW,+18.0,C*31
$IIMWV,040,R,08.9,N,A*16
$IIMWV,050,T,07.4,N,A*13
$IIRMC,161902,A,4612.933,N,00610.097,E,02.4,304,210814,,,A*4A
$IIVHW,,,313,M,02.0,N,,*67
$IIVLW,53471,N,000.1,N*56
$IIVWR,039,R,08.8,N,,,,*6B
$IIDPT,007.7,+0.7,*40
$IIGLL,4612.933,N,00610.097,E,161902,A,A*5C
$IIHDG,313,,,,*56
$IIMTW,+18.0,C*31
$IIMWV,039,R,08.8,N,A*19
$IIMWV,049,T,07.2,N,A*1D
$IIRMC,161902,A,4612.933,N,00610.097,E,02.4,304,210814,,,A*4A
$IIVHW,,,313,M,02.0,N,,*67
$IIVLW,53471,N,000.1,N*56
$IIVWR,040,R,08.8,N,,,,*65
$IIDPT,007.7,+0.7,*40
$IIGLL,4612.933,N,00610.097,E,161902,A,A*5C
$IIHDG,313,,,,*56
$IIMTW,+18.0,C*31
$IIMWV,042,R,08.4,N,A*19
$IIMWV,051,T,06.8,N,A*1F
$IIRMC,161905,A,4612.935,N,00610.095,E,02.1,315,210814,,,A*4C
$IIVHW,,,313,M,01.9,N,,*6D
$IIVLW,53471,N,000.1,N*56
$IIVWR,042,R,08.4,N,,,,*6B
$IIDPT,007.7,+0.7,*40
$IIGLL,4612.935,N,00610.095,E,161905,A,A*5F
$IIHDG,313,,,,*56
$IIMTW,+18.0,C*31
$IIMWV,042,R,08.4,N,A*19
$IIMWV,053,T,07.0,N,A*14
$IIRMC,161906,A,4612.935,N,00610.094,E,02.3,311,210814,,,A*48
$IIVHW,,,312,M,01.9,N,,*6C
$IIVLW,53471,N,000.1,N*56
$IIVWR,042,R,08.4,N,,,,*6B
$IIDPT,007.7,+0.7,*40
$IIGLL,4612.935,N,00610.094,E,161906,A,A*5D
$IIHDG,311,,,,*54
$IIMTW,+18.0,C*31
$IIMWV,043,R,08.4,N,A*18
$IIMWV,053,T,07.0,N,A*14
$IIRMC,161907,A,4612.936,N,00610.094,E,02.5,309,210814,,,A*45
$IIVHW,,,311,M,01.9,N,,*6F
$IIVLW,53471,N,000.1,N*56
$IIVWR,043,R,08.4,N,,,,*6A
$IIDPT,007.7,+0.7,*40
$IIGLL,4612.936,N,00610.093,E,161908,A,A*57
$IIHDG,311,,,,*54
$IIMTW,+18.0,C*31
$IIMWV,044,R,08.5,N,A*1E
$IIMWV,054,T,07.0,N,A*13
$IIRMC,161908,A,4612.936,N,00610.093,E,02.5,296,210814,,,A*4A
$IIVHW,,,311,M,01.9,N,,*6F
$IIVLW,53471,N,000.1,N*56
$IIVWR,044,R,08.5,N,,,,*6C
$IIDPT,007.7,+0.7,*40
$IIGLL,4612.937,N,00610.092,E,161909,A,A*56
$IIHDG,311,,,,*54
$IIMTW,+18.0,C*31
$IIMWV,044,R,08.5,N,A*1E
$IIMWV,055,T,07.1,N,A*13
$IIRMC,161909,A,4612.937,N,00610.092,E,02.1,309,210814,,,A*48
$IIVHW,,,311,M,01.9,N,,*6F
$IIVLW,53471,N,000.1,N*56
$IIVWR,045,R,08.4,N,,,,*6C
$IIDPT,007.7,+0.7,*40
$IIGLL,4612.937,N,00610.091,E,161910,A,A*5D
$IIHDG,311,,,,*54
$IIMTW,+18.0,C*31
$IIMWV,045,R,08.4,N,A*1E
$IIMWV,055,T,07.1,N,A*13
$IIRMC,161910,A,4612.937,N,00610.091,E,02.1,296,210814,,,A*44
$IIVHW,,,311,M,01.9,N,,*6F
$IIVLW,53471,N,000.1,N*56
$IIVWR,044,R,08.1,N,,,,*68
$IIDPT,007.7,+0.7,*40
$IIGLL,4612.937,N,00610.090,E,161911,A,A*5D
$IIHDG,310,,,,*55
$IIMTW,+18.0,C*31
$IIMWV,044,R,08.1,N,A*1A
$IIMWV,057,T,07.0,N,A*10
$IIRMC,161911,A,4612.937,N,00610.090,E,02.1,310,210814,,,A*4B
$IIVHW,,,310,M,01.9,N,,*6E
$IIVLW,53471,N,000.1,N*56
$IIVWR,044,R,08.3,N,,,,*6A
$IIDPT,007.7,+0.7,*40
$IIGLL,4612.938,N,00610.090,E,161912,A,A*51
$IIHDG,310,,,,*55
$IIMTW,+18.0,C*31
$IIMWV,044,R,08.3,N,A*18
$IIMWV,055,T,06.6,N,A*15
$IIRMC,161913,A,4612.938,N,00610.089,E,02.2,301,210814,,,A*4D
$IIVHW,,,310,M,01.9,N,,*6E
$IIVLW,53471,N,000.1,N*56
$IIVWR,043,R,07.9,N,,,,*68
$IIDPT,007.7,+0.7,*40
$IIGLL,4612.938,N,00610.089,E,161913,A,A*58
$IIHDG,310,,,,*55
$IIMTW,+18.0,C*31
$IIMWV,043,R,07.9,N,A*1A
$IIMWV,055,T,06.4,N,A*17
$IIRMC,161914,A,4612.938,N,00610.087,E,02.2,285,210814,,,A*49
$IIVHW,,,310,M,01.9,N,,*6E
$IIVLW,53471,N,000.1,N*56
$IIVWR,044,R,08.0,N,,,,*69
$IIDPT,007.7,+0.7,*40
$IIGLL,4612.938,N,00610.087,E,161914,A,A*51
$IIHDG,310,,,,*55
$IIMTW,+18.0,C*31
$IIMWV,043,R,07.9,N,A*1A
$IIMWV,056,T,06.6,N,A*16
$IIRMC,161915,A,4612.938,N,00610.086,E,02.5,297,210814,,,A*4D
$IIVHW,,,310,M,01.9,N,,*6E
$IIVLW,53471,N,000.1,N*56
$IIVWR,043,R,07.9,N,,,,*68
$IIDPT,007.8,+0.7,*4F
$IIGLL,4612.938,N,00610.086,E,161915,A,A*51
$IIHDG,310,,,,*55
$IIMTW,+18.0,C*31
$IIMWV,043,R,07.6,N,A*15
$IIMWV,055,T,06.4,N,A*17
$IIRMC,161916,A,4612.938,N,00610.086,E,01.7,301,210814,,,A*41
$IIVHW,,,310,M,01.9,N,,*6E
$IIVLW,53471,N,000.1,N*56
$IIVWR,043,R,07.6,N,,,,*67
$IIDPT,007.9,+0.7,*4E
$IIGLL,4612.938,N,00610.086,E,161916,A,A*52
$IIHDG,310,,,,*55
$IIMTW,+18.0,C*31
$IIMWV,045,R,07.9,N,A*1C
$IIMWV,056,T,06.1,N,A*11
$IIRMC,161917,A,4612.939,N,00610.085,E,02.0,300,210814,,,A*47
$IIVHW,,,310,M,01.9,N,,*6E
$IIVLW,53471,N,000.1,N*56
$IIVWR,045,R,07.9,N,,,,*6E
$IIDPT,007.9,+0.7,*4E
$IIGLL,4612.939,N,00610.084,E,161918,A,A*5F
$IIHDG,308,,,,*5C
$IIMTW,+18.0,C*31
$IIMWV,044,R,07.8,N,A*1C
$IIMWV,057,T,06.6,N,A*17
$IIRMC,161918,A,4612.939,N,00610.084,E,02.0,295,210814,,,A*44
$IIVHW,,,308,M,01.9,N,,*67
$IIVLW,53471,N,000.1,N*56
$IIVWR,044,R,07.8,N,,,,*6E
$IIDPT,007.9,+0.7,*4E
$IIGLL,4612.939,N,00610.084,E,161919,A,A*5E
$IIHDG,308,,,,*5C
$IIMTW,+18.0,C*31
$IIMWV,045,R,07.6,N,A*13
$IIMWV,055,T,06.4,N,A*17
$IIRMC,161919,A,4612.939,N,00610.084,E,02.0,317,210814,,,A*4E
$IIVHW,,,308,M,01.8,N,,*66
$IIVLW,53471,N,000.1,N*56
$IIVWR,047,R,07.8,N,,,,*6D
$IIDPT,007.9,+0.7,*4E
$IIGLL,4612.940,N,00610.083,E,161920,A,A*5D
$IIHDG,308,,,,*5C
$IIMTW,+18.0,C*31
$IIMWV,047,R,07.8,N,A*1F
$IIMWV,057,T,06.2,N,A*13
$IIRMC,161920,A,4612.940,N,00610.083,E,02.0,309,210814,,,A*42
$IIVHW,,,308,M,01.8,N,,*66
$IIVLW,53471,N,000.1,N*56
$IIVWR,045,R,07.6,N,,,,*61
$IIDPT,007.9,+0.7,*4E
$IIGLL,4612.940,N,00610.082,E,161921,A,A*5D
$IIHDG,308,,,,*5C
$IIMTW,+18.0,C*31
$IIMWV,045,R,07.6,N,A*13
$IIMWV,058,T,06.6,N,A*18
$IIRMC,161921,A,4612.940,N,00610.082,E,02.0,305,210814,,,A*4E
$IIVHW,,,307,M,01.8,N,,*69
$IIVLW,53471,N,000.1,N*56
$IIVWR,047,R,07.6,N,,,,*63
$IIDPT,007.9,+0.7,*4E
$IIGLL,4612.940,N,00610.082,E,161922,A,A*5E
$IIHDG,307,,,,*53
$IIMTW,+18.0,C*31
$IIMWV,047,R,07.6,N,A*11
$IIMWV,057,T,06.3,N,A*12
$IIRMC,161923,A,4612.941,N,00610.082,E,02.0,295,210814,,,A*45
$IIVHW,,,306,M,01.8,N,,*68
$IIVLW,53471,N,000.1,N*56
$IIVWR,048,R,07.9,N,,,,*63
$IIDPT,007.9,+0.7,*4E
$IIGLL,4612.941,N,00610.082,E,161923,A,A*5E
$IIHDG,306,,,,*52
$IIMTW,+18.0,C*31
$IIMWV,048,R,07.9,N,A*11
$IIMWV,060,T,06.7,N,A*12
$IIRMC,161924,A,4612.941,N,00610.081,E,02.0,297,210814,,,A*43
$IIVHW,,,305,M,01.8,N,,*6B
$IIVLW,53471,N,000.1,N*56
$IIVWR,047,R,07.8,N,,,,*6D
$IIDPT,007.9,+0.7,*4E
$IIGLL,4612.941,N,00610.081,E,161924,A,A*5A
$IIHDG,305,,,,*51
$IIMTW,+18.0,C*31
$IIMWV,050,R,07.9,N,A*18
$IIMWV,059,T,06.5,N,A*1A
$IIRMC,161925,A,4612.941,N,00610.080,E,02.0,299,210814,,,A*4D
$IIVHW,,,306,M,01.8,N,,*68
$IIVLW,53471,N,000.1,N*56
$IIVWR,050,R,07.9,N,,,,*6A
$IIDPT,007.9,+0.7,*4E
$IIGLL,4612.941,N,00610.080,E,161925,A,A*5A
$IIHDG,306,,,,*52
$IIMTW,+18.0,C*31
$IIMWV,049,R,07.8,N,A*11
$IIMWV,063,T,06.7,N,A*11
$IIRMC,161926,A,4612.942,N,00610.079,E,02.0,306,210814,,,A*4C
$IIVHW,,,306,M,01.8,N,,*68
$IIVLW,53471,N,000.1,N*56
$IIVWR,049,R,07.8,N,,,,*63
$IIDPT,007.9,+0.7,*4E
$IIGLL,4612.942,N,00610.079,E,161926,A,A*5C
$IIHDG,305,,,,*51
$IIMTW,+18.0,C*31
$IIMWV,051,R,07.5,N,A*15
$IIMWV,061,T,06.6,N,A*12
$IIRMC,161927,A,4612.942,N,00610.079,E,02.0,306,210814,,,A*4D
$IIVHW,,,305,M,01.8,N,,*6B
$IIVLW,53471,N,000.1,N*56
$IIVWR,051,R,07.5,N,,,,*67
$IIDPT,007.9,+0.7,*4E
$IIGLL,4612.942,N,00610.078,E,161928,A,A*53
$IIHDG,305,,,,*51
$IIMTW,+18.0,C*31
$IIMWV,049,R,07.9,N,A*10
$IIMWV,064,T,06.4,N,A*15
$IIRMC,161928,A,4612.942,N,00610.078,E,01.8,303,210814,,,A*4D
$IIVHW,,,305,M,01.8,N,,*6B
$IIVLW,53471,N,000.1,N*56
$IIVWR,049,R,07.9,N,,,,*62
$IIDPT,007.9,+0.7,*4E
$IIGLL,4612.943,N,00610.077,E,161929,A,A*5C
$IIHDG,306,,,,*52
$IIMTW,+18.0,C*31
$IIMWV,052,R,07.8,N,A*1B
$IIMWV,060,T,06.8,N,A*1D
$IIRMC,161929,A,4612.943,N,00610.077,E,01.9,302,210814,,,A*42
$IIVHW,,,306,M,01.8,N,,*68
$IIVLW,53471,N,000.1,N*56
$IIVWR,050,R,07.5,N,,,,*66
$IIDPT,007.9,+0.7,*4E
$IIGLL,4612.943,N,00610.077,E,161930,A,A*54
$IIHDG,305,,,,*51
$IIMTW,+18.0,C*31
$IIMWV,050,R,07.5,N,A*14
$IIMWV,064,T,06.7,N,A*16
$IIRMC,161930,A,4612.943,N,00610.077,E,01.8,307,210814,,,A*4E
$IIVHW,,,305,M,01.8,N,,*6B
$IIVLW,53471,N,000.1,N*56
$IIVWR,052,R,07.4,N,,,,*65
$IIDPT,007.9,+0.7,*4E
$IIGLL,4612.943,N,00610.076,E,161931,A,A*54
$IIHDG,304,,,,*50
$IIMTW,+18.0,C*31
$IIMWV,052,R,07.4,N,A*17
$IIMWV,062,T,06.4,N,A*13
$IIRMC,161931,A,4612.943,N,00610.076,E,02.3,300,210814,,,A*41
$IIVHW,,,304,M,01.8,N,,*6A
$IIVLW,53471,N,000.1,N*56
$IIVWR,051,R,07.6,N,,,,*64
$IIDPT,007.9,+0.7,*4E
$IIGLL,4612.944,N,00610.076,E,161932,A,A*50
$IIHDG,304,,,,*50
$IIMTW,+18.0,C*31
$IIMWV,051,R,07.6,N,A*16
$IIMWV,065,T,06.3,N,A*13
$IIRMC,161933,A,4612.944,N,00610.075,E,01.9,303,210814,,,A*4D
$IIVHW,,,303,M,01.8,N,,*6D
$IIVLW,53471,N,000.1,N*56
$IIVWR,052,R,07.6,N,,,,*67
$IIDPT,007.9,+0.7,*4E
$IIGLL,4612.944,N,00610.075,E,161933,A,A*52
$IIHDG,303,,,,*57
$IIMTW,+18.0,C*31
$IIMWV,052,R,07.6,N,A*15
$IIMWV,065,T,06.6,N,A*16
$IIRMC,161934,A,4612.945,N,00610.075,E,02.0,299,210814,,,A*43
$IIVHW,,,304,M,01.8,N,,*6A
$IIVLW,53471,N,000.1,N*56
$IIVWR,052,R,07.6,N,,,,*67
$IIDPT,007.9,+0.7,*4E
$IIGLL,4612.945,N,00610.075,E,161934,A,A*54
$IIHDG,304,,,,*50
$IIMTW,+18.0,C*31
$IIMWV,052,R,07.5,N,A*16
$IIMWV,065,T,06.6,N,A*16
$IIRMC,161935,A,4612.945,N,00610.074,E,02.0,303,210814,,,A*41
$IIVHW,,,304,M,01.8,N,,*6A
$IIVLW,53471,N,000.1,N*56
$IIVWR,052,R,07.5,N,,,,*64
$IIDPT,007.9,+0.7,*4E
$IIGLL,4612.945,N,00610.074,E,161935,A,A*54
$IIHDG,304,,,,*50
$IIMTW,+18.0,C*31
$IIMWV,053,R,07.4,N,A*16
$IIMWV,065,T,06.4,N,A*14
$IIRMC,161936,A,4612.945,N,00610.073,E,02.0,300,210814,,,A*46
$IIVHW,,,304,M,01.8,N,,*6A
$IIVLW,53471,N,000.1,N*56
$IIVWR,053,R,07.4,N,,,,*64
$IIDPT,007.9,+0.7,*4E
$IIGLL,4612.945,N,00610.073,E,161936,A,A*50
$IIHDG,304,,,,*50
$IIMTW,+18.0,C*31
$IIMWV,052,R,07.2,N,A*11
$IIMWV,066,T,06.4,N,A*17
$IIRMC,161937,A,4612.945,N,00610.073,E,02.0,300,210814,,,A*47
$IIVHW,,,304,M,01.7,N,,*65
$IIVLW,53471,N,000.1,N*56
$IIVWR,052,R,07.2,N,,,,*63
$IIDPT,008.0,+0.7,*48
$IIGLL,4612.946,N,00610.072,E,161938,A,A*5C
$IIHDG,304,,,,*50
$IIMTW,+18.0,C*31
$IIMWV,053,R,07.6,N,A*14
$IIMWV,065,T,06.1,N,A*11
$IIRMC,161938,A,4612.946,N,00610.072,E,02.0,300,210814,,,A*4A
$IIVHW,,,304,M,01.7,N,,*65
$IIVLW,53471,N,000.1,N*56
$IIVWR,053,R,07.6,N,,,,*66
$IIDPT,008.1,+0.7,*49
$IIGLL,4612.946,N,00610.072,E,161939,A,A*5D
$IIHDG,305,,,,*51
$IIMTW,+18.0,C*31
$IIMWV,051,R,07.5,N,A*15
$IIMWV,066,T,06.5,N,A*16
$IIRMC,161939,A,4612.946,N,00610.072,E,02.0,302,210814,,,A*49
$IIVHW,,,305,M,01.8,N,,*6B
$IIVLW,53471,N,000.1,N*56
$IIVWR,051,R,07.5,N,,,,*67
$IIDPT,008.1,+0.7,*49
$IIGLL,4612.947,N,00610.071,E,161940,A,A*51
$IIHDG,304,,,,*50
$IIMTW,+18.0,C*31
$IIMWV,051,R,07.5,N,A*15
$IIMWV,063,T,06.4,N,A*12
$IIRMC,161940,A,4612.947,N,00610.071,E,02.0,299,210814,,,A*46
$IIVHW,,,304,M,01.8,N,,*6A
$IIVLW,53471,N,000.1,N*56
$IIVWR,050,R,07.5,N,,,,*66
$IIDPT,008.1,+0.7,*49
$IIGLL,4612.947,N,00610.070,E,161941,A,A*51
$IIHDG,304,,,,*50
$IIMTW,+18.0,C*31
$IIMWV,050,R,07.5,N,A*14
$IIMWV,063,T,06.4,N,A*12
$IIRMC,161941,A,4612.947,N,00610.070,E,02.1,299,210814,,,A*47
$IIVHW,,,303,M,01.8,N,,*6D
$IIVLW,53471,N,000.1,N*56
$IIVWR,049,R,07.0,N,,,,*6B
$IIDPT,008.1,+0.7,*49
$IIGLL,4612.947,N,00610.070,E,161942,A,A*52
$IIHDG,303,,,,*57
$IIMTW,+18.0,C*31
$IIMWV,049,R,07.0,N,A*19
$IIMWV,062,T,06.4,N,A*13
$IIRMC,161943,A,4612.948,N,00610.069,E,02.1,298,210814,,,A*43
$IIVHW,,,304,M,01.8,N,,*6A
$IIVLW,53471,N,000.1,N*56
$IIVWR,048,R,07.1,N,,,,*6B
$IIDPT,008.1,+0.7,*49
$IIGLL,4612.948,N,00610.069,E,161943,A,A*54
$IIHDG,304,,,,*50
$IIMTW,+18.0,C*31
$IIMWV,048,R,07.1,N,A*19
$IIMWV,061,T,05.9,N,A*1E
$IIRMC,161944,A,4612.948,N,00610.068,E,02.0,299,210814,,,A*45
$IIVHW,,,305,M,01.8,N,,*6B
$IIVLW,53471,N,000.1,N*56
$IIVWR,047,R,07.0,N,,,,*65
$IIDPT,008.1,+0.7,*49
$IIGLL,4612.948,N,00610.068,E,161944,A,A*52
$IIHDG,305,,,,*51
$IIMTW,+18.0,C*31
$IIMWV,046,R,07.1,N,A*17
$IIMWV,060,T,05.8,N,A*1E
$IIRMC,161945,A,4612.948,N,00610.068,E,02.0,304,210814,,,A*41
$IIVHW,,,305,M,01.7,N,,*64
$IIVLW,53471,N,000.1,N*56
$IIVWR,046,R,07.1,N,,,,*65
$IIDPT,008.1,+0.7,*49
$IIGLL,4612.948,N,00610.068,E,161945,A,A*53
$IIHDG,305,,,,*51
$IIMTW,+18.0,C*31
$IIMWV,047,R,07.1,N,A*16
$IIMWV,059,T,05.9,N,A*15
$IIRMC,161946,A,4612.948,N,00610.067,E,02.0,299,210814,,,A*48
$IIVHW,,,306,M,01.7,N,,*67
$IIVLW,53471,N,000.1,N*56
$IIVWR,047,R,07.1,N,,,,*64
$IIDPT,008.1,+0.7,*49
$IIGLL,4612.948,N,00610.067,E,161946,A,A*5F
$IIHDG,306,,,,*52
$IIMTW,+18.0,C*31
$IIMWV,049,R,07.1,N,A*18
$IIMWV,059,T,05.9,N,A*15
$IIRMC,161947,A,4612.949,N,00610.067,E,02.0,298,210814,,,A*49
$IIVHW,,,306,M,01.7,N,,*67
$IIVLW,53471,N,000.1,N*56
$IIVWR,049,R,07.1,N,,,,*6A
$IIDPT,008.1,+0.7,*49
$IIGLL,4612.949,N,00610.066,E,161948,A,A*51
$IIHDG,306,,,,*52
$IIMTW,+18.0,C*31
$IIMWV,050,R,07.5,N,A*14
$IIMWV,061,T,06.0,N,A*14
$IIRMC,161948,A,4612.949,N,00610.066,E,02.4,298,210814,,,A*43
$IIVHW,,,306,M,01.6,N,,*66
$IIVLW,53471,N,000.1,N*56
$IIVWR,050,R,07.5,N,,,,*66
$IIDPT,008.1,+0.7,*49
$IIGLL,4612.949,N,00610.065,E,161949,A,A*53
$IIHDG,305,,,,*51
$IIMTW,+18.0,C*31
$IIMWV,051,R,07.5,N,A*15
$IIMWV,061,T,06.5,N,A*11
$IIRMC,161949,A,4612.949,N,00610.065,E,02.0,299,210814,,,A*44
$IIVHW,,,305,M,01.5,N,,*66
$IIVLW,53471,N,000.1,N*56
$IIVWR,052,R,07.5,N,,,,*64
$IIDPT,008.1,+0.7,*49
$IIGLL,4612.950,N,00610.064,E,161950,A,A*52
$IIHDG,305,,,,*51
$IIMTW,+18.0,C*31
$IIMWV,052,R,07.5,N,A*16
$IIMWV,062,T,06.5,N,A*12
$IIRMC,161950,A,4612.950,N,00610.064,E,01.9,301,210814,,,A*4F
$IIVHW,,,305,M,01.5,N,,*66
$IIVLW,53471,N,000.1,N*56
$IIVWR,054,R,07.4,N,,,,*63
$IIDPT,008.1,+0.7,*49
$IIGLL,4612.950,N,00610.064,E,161951,A,A*53
$IIHDG,305,,,,*51
$IIMTW,+18.0,C*31
$IIMWV,054,R,07.4,N,A*11
$IIMWV,063,T,06.6,N,A*10
$IIRMC,161951,A,4612.950,N,00610.064,E,02.0,299,210814,,,A*44
$IIVHW,,,305,M,01.5,N,,*66
$IIVLW,53471,N,000.1,N*56
$IIVWR,054,R,07.2,N,,,,*65
$IIDPT,008.1,+0.7,*49
$IIGLL,4612.950,N,00610.063,E,161952,A,A*57
$IIHDG,305,,,,*51
$IIMTW,+18.0,C*31
$IIMWV,054,R,07.2,N,A*17
$IIMWV,065,T,06.4,N,A*14
$IIRMC,161953,A,4612.950,N,00610.062,E,02.0,302,210814,,,A*43
$IIVHW,,,305,M,01.5,N,,*66
$IIVLW,53471,N,000.1,N*56
$IIVWR,055,R,07.1,N,,,,*67
$IIDPT,008.1,+0.7,*49
$IIGLL,4612.950,N,00610.062,E,161953,A,A*57
$IIHDG,305,,,,*51
$IIMTW,+18.0,C*31
$IIMWV,055,R,07.1,N,A*15
$IIMWV,067,T,06.2,N,A*10
$IIRMC,161954,A,4612.951,N,00610.062,E,02.0,303,210814,,,A*44
$IIVHW,,,304,M,01.5,N,,*67
$IIVLW,53471,N,000.1,N*56
$IIVWR,053,R,07.2,N,,,,*62
$IIDPT,008.1,+0.7,*49
$IIGLL,4612.951,N,00610.062,E,161954,A,A*51
$IIHDG,304,,,,*50
$IIMTW,+18.0,C*31
$IIMWV,052,R,07.1,N,A*12
$IIMWV,064,T,06.3,N,A*12
$IIRMC,161955,A,4612.951,N,00610.061,E,01.9,299,210814,,,A*4E
$IIVHW,,,306,M,01.5,N,,*65
$IIVLW,53471,N,000.1,N*56
$IIVWR,052,R,07.1,N,,,,*60
$IIDPT,008.1,+0.7,*49
$IIGLL,4612.951,N,00610.061,E,161955,A,A*53
$IIHDG,306,,,,*52
$IIMTW,+18.0,C*31
$IIMWV,053,R,06.8,N,A*1B
$IIMWV,063,T,06.3,N,A*15
$IIRMC,161956,A,4612.951,N,00610.060,E,01.9,303,210814,,,A*4E
$IIVHW,,,306,M,01.5,N,,*65
$IIVLW,53471,N,000.1,N*56
$IIVWR,053,R,06.8,N,,,,*69
$IIDPT,008.1,+0.7,*49
$IIGLL,4612.951,N,00610.060,E,161956,A,A*51
$IIHDG,307,,,,*53
$IIMTW,+18.0,C*31
$IIMWV,053,R,07.0,N,A*12
$IIMWV,066,T,05.9,N,A*19
$IIRMC,161957,A,4612.952,N,00610.060,E,01.9,303,210814,,,A*4C
$IIVHW,,,307,M,01.6,N,,*67
$IIVLW,53471,N,000.1,N*56
$IIVWR,053,R,07.0,N,,,,*60
$IIDPT,008.1,+0.7,*49
$IIGLL,4612.952,N,00610.059,E,161958,A,A*56
$IIHDG,308,,,,*5C
$IIMTW,+18.0,C*31
$IIMWV,054,R,07.4,N,A*11
$IIMWV,066,T,06.1,N,A*12
$IIRMC,161958,A,4612.952,N,00610.059,E,02.0,306,210814,,,A*46
$IIVHW,,,308,M,01.6,N,,*68
$IIVLW,53471,N,000.1,N*56
$IIVWR,054,R,07.4,N,,,,*63
$IIDPT,008.1,+0.7,*49
$IIGLL,4612.952,N,00610.058,E,161959,A,A*56
$IIHDG,306,,,,*52
$IIMTW,+18.0,C*31
$IIMWV,054,R,07.4,N,A*11
$IIMWV,066,T,06.4,N,A*17
$IIRMC,161959,A,4612.952,N,00610.058,E,02.0,303,210814,,,A*43
$IIVHW,,,306,M,01.7,N,,*67
$IIVLW,53471,N,000.1,N*56
$IIVWR,053,R,07.2,N,,,,*62
$IIDPT,008.1,+0.7,*49
$IIGLL,4612.953,N,00610.057,E,162000,A,A*5E
$IIHDG,306,,,,*52
$IIMTW,+18.0,C*31
$IIMWV,053,R,07.2,N,A*10
$IIMWV,067,T,06.4,N,A*16
$IIRMC,162000,A,4612.953,N,00610.057,E,02.0,302,210814,,,A*4A
$IIVHW,,,306,M,01.7,N,,*67
$IIVLW,53471,N,000.1,N*56
$IIVWR,053,R,07.5,N,,,,*65
$IIDPT,008.1,+0.7,*49
$IIGLL,4612.953,N,00610.057,E,162001,A,A*5F
$IIHDG,306,,,,*52
$IIMTW,+18.0,C*31
$IIMWV,053,R,07.5,N,A*17
$IIMWV,066,T,06.2,N,A*11
$IIRMC,162001,A,4612.953,N,00610.057,E,02.0,305,210814,,,A*4C
$IIVHW,,,307,M,01.8,N,,*69
$IIVLW,53471,N,000.1,N*56
$IIVWR,053,R,07.5,N,,,,*65
$IIDPT,008.1,+0.7,*49
$IIGLL,4612.953,N,00610.056,E,162002,A,A*5D
$IIHDG,307,,,,*53
$IIMTW,+18.0,C*31
$IIMWV,053,R,07.5,N,A*17
$IIMWV,066,T,06.5,N,A*16
$IIRMC,162003,A,4612.953,N,00610.055,E,02.0,304,210814,,,A*4D
$IIVHW,,,307,M,01.8,N,,*69
$IIVLW,53471,N,000.1,N*56
$IIVWR,052,R,07.4,N,,,,*65
$IIDPT,008.1,+0.7,*49
$IIGLL,4612.953,N,00610.055,E,162003,A,A*5F
$IIHDG,307,,,,*53
$IIMTW,+18.0,C*31
$IIMWV,052,R,07.4,N,A*17
$IIMWV,065,T,06.3,N,A*13
$IIRMC,162004,A,4612.954,N,00610.055,E,02.0,304,210814,,,A*4D
$IIVHW,,,307,M,01.7,N,,*66
$IIVLW,53471,N,000.1,N*56
$IIVWR,053,R,07.6,N,,,,*66
$IIDPT,008.1,+0.7,*49
$IIGLL,4612.954,N,00610.055,E,162004,A,A*5F
$IIHDG,307,,,,*53
$IIMTW,+18.0,C*31
$IIMWV,052,R,07.6,N,A*15
$IIMWV,066,T,06.5,N,A*16
$IIRMC,162005,A,4612.954,N,00610.054,E,02.0,306,210814,,,A*4F
$IIVHW,,,307,M,01.7,N,,*66
$IIVLW,53471,N,000.1,N*56
$IIVWR,052,R,07.6,N,,,,*67
$IIDPT,008.1,+0.7,*49
$IIGLL,4612.954,N,00610.054,E,162005,A,A*5F
$IIHDG,307,,,,*53
$IIMTW,+18.0,C*31
$IIMWV,052,R,07.5,N,A*16
$IIMWV,064,T,06.6,N,A*17
$IIRMC,162006,A,4612.955,N,00610.053,E,02.0,304,210814,,,A*48
$IIVHW,,,308,M,01.8,N,,*66
$IIVLW,53471,N,000.1,N*56
$IIVWR,052,R,07.5,N,,,,*64
$IIDPT,008.1,+0.7,*49
$IIGLL,4612.955,N,00610.053,E,162006,A,A*5A
$IIHDG,307,,,,*53
$IIMTW,+18.0,C*31
$IIMWV,051,R,07.5,N,A*15
$IIMWV,065,T,06.5,N,A*15
$IIRMC,162007,A,4612.955,N,00610.053,E,02.0,303,210814,,,A*4E
$IIVHW,,,307,M,01.7,N,,*66
$IIVLW,53471,N,000.1,N*56
$IIVWR,051,R,07.5,N,,,,*67
$IIDPT,008.1,+0.7,*49
$IIGLL,4612.955,N,00610.052,E,162008,A,A*55
$IIHDG,308,,,,*5C
$IIMTW,+18.0,C*31
$IIMWV,050,R,07.4,N,A*15
$IIMWV,063,T,06.4,N,A*12
$IIRMC,162008,A,4612.955,N,00610.052,E,02.0,305,210814,,,A*46
$IIVHW,,,308,M,01.7,N,,*69
$IIVLW,53471,N,000.1,N*56
$IIVWR,050,R,07.4,N,,,,*67
$IIDPT,008.1,+0.7,*49
$IIGLL,4612.956,N,00610.052,E,162009,A,A*57
$IIHDG,309,,,,*5D
$IIMTW,+18.0,C*31
$IIMWV,051,R,07.4,N,A*14
$IIMWV,063,T,06.3,N,A*15
$IIRMC,162009,A,4612.956,N,00610.052,E,02.0,307,210814,,,A*46
$IIVHW,,,309,M,01.8,N,,*67
$IIVLW,53471,N,000.1,N*56
$IIVWR,051,R,07.5,N,,,,*67
$IIDPT,008.1,+0.7,*49
$IIGLL,4612.956,N,00610.051,E,162010,A,A*5C
$IIHDG,308,,,,*5C
$IIMTW,+18.0,C*31
$IIMWV,051,R,07.5,N,A*15
$IIMWV,064,T,06.3,N,A*12
$IIRMC,162010,A,4612.956,N,00610.051,E,02.0,302,210814,,,A*48
$IIVHW,,,308,M,01.8,N,,*66
$IIVLW,53471,N,000.1,N*56
$IIVWR,050,R,07.6,N,,,,*65
$IIDPT,008.1,+0.7,*49
$IIGLL,4612.957,N,00610.051,E,162011,A,A*5C
$IIHDG,308,,,,*5C
$IIMTW,+18.0,C*31
$IIMWV,050,R,07.6,N,A*17
$IIMWV,063,T,06.4,N,A*12
$IIRMC,162011,A,4612.957,N,00610.051,E,02.0,306,210814,,,A*4C
$IIVHW,,,309,M,01.8,N,,*67
$IIVLW,53471,N,000.1,N*56
$IIVWR,050,R,07.5,N,,,,*66
$IIDPT,008.1,+0.7,*49
$IIGLL,4612.957,N,00610.050,E,162012,A,A*5E
$IIHDG,309,,,,*5D
$IIMTW,+18.0,C*31
$IIMWV,050,R,07.5,N,A*14
$IIMWV,063,T,06.5,N,A*13
$IIRMC,162013,A,4612.957,N,00610.049,E,02.0,305,210814,,,A*44
$IIVHW,,,307,M,01.8,N,,*69
$IIVLW,53471,N,000.1,N*56
$IIVWR,050,R,07.4,N,,,,*67
$IIDPT,008.1,+0.7,*49
$IIGLL,4612.957,N,00610.049,E,162013,A,A*57
$IIHDG,307,,,,*53
$IIMTW,+18.0,C*31
$IIMWV,050,R,07.4,N,A*15
$IIMWV,063,T,06.3,N,A*15
$IIRMC,162014,A,4612.958,N,00610.049,E,02.0,306,210814,,,A*4F
$IIVHW,,,307,M,01.8,N,,*69
$IIVLW,53471,N,000.1,N*56
$IIVWR,050,R,07.4,N,,,,*67
$IIDPT,008.1,+0.7,*49
$IIGLL,4612.958,N,00610.049,E,162014,A,A*5F
$IIHDG,307,,,,*53
$IIMTW,+18.0,C*31
$IIMWV,050,R,07.5,N,A*14
$IIMWV,063,T,06.3,N,A*15
$IIRMC,162015,A,4612.958,N,00610.048,E,02.0,303,210814,,,A*4A
$IIVHW,,,306,M,01.8,N,,*68
$IIVLW,53471,N,000.1,N*56
$IIVWR,050,R,07.5,N,,,,*66
$IIDPT,008.1,+0.7,*49
$IIGLL,4612.958,N,00610.048,E,162015,A,A*5F
$IIHDG,306,,,,*52
$IIMTW,+18.0,C*31
$IIMWV,052,R,07.2,N,A*11
$IIMWV,062,T,06.4,N,A*13
$IIRMC,162016,A,4612.958,N,00610.047,E,02.0,300,210814,,,A*45
$IIVHW,,,306,M,01.8,N,,*68
$IIVLW,53471,N,000.1,N*56
$IIVWR,052,R,07.2,N,,,,*63
$IIDPT,008.1,+0.7,*49
$IIGLL,4612.958,N,00610.047,E,162016,A,A*53
$IIHDG,306,,,,*52
$IIMTW,+18.0,C*31
$IIMWV,051,R,07.5,N,A*15
$IIMWV,065,T,06.1,N,A*11
$IIRMC,162017,A,4612.958,N,00610.047,E,02.0,301,210814,,,A*45
$IIVHW,,,306,M,01.8,N,,*68
$IIVLW,53471,N,000.1,N*56
$IIVWR,051,R,07.5,N,,,,*67
$IIDPT,008.1,+0.7,*49
$IIGLL,4612.958,N,00610.047,E,162017,A,A*52
$IIHDG,307,,,,*53
$IIMTW,+18.0,C*31
$IIMWV,052,R,07.5,N,A*16
$IIMWV,063,T,06.4,N,A*12
$IIRMC,162017,A,4612.958,N,00610.047,E,02.0,301,210814,,,A*45
$IIVHW,,,307,M,01.8,N,,*69
$IIVLW,53471,N,000.1,N*56
$IIVWR,052,R,07.5,N,,,,*64
$IIDPT,008.1,+0.7,*49
$IIGLL,4612.959,N,00610.046,E,162019,A,A*5C
$IIHDG,308,,,,*5C
$IIMTW,+18.0,C*31
$IIMWV,051,R,07.5,N,A*15
$IIMWV,065,T,06.5,N,A*15
$IIRMC,162019,A,4612.959,N,00610.046,E,02.0,304,210814,,,A*4E
$IIVHW,,,308,M,01.8,N,,*66
$IIVLW,53471,N,000.1,N*56
$IIVWR,051,R,07.6,N,,,,*64
$IIDPT,008.2,+0.7,*4A
$IIGLL,4612.960,N,00610.045,E,162020,A,A*5F
$IIHDG,310,,,,*55
$IIMTW,+18.0,C*31
$IIMWV,051,R,07.6,N,A*16
$IIMWV,063,T,06.4,N,A*12
$IIRMC,162020,A,4612.960,N,00610.045,E,02.0,309,210814,,,A*40
$IIVHW,,,310,M,01.8,N,,*6F
$IIVLW,53471,N,000.1,N*56
$IIVWR,051,R,07.6,N,,,,*64
$IIDPT,008.2,+0.7,*4A
$IIGLL,4612.960,N,00610.044,E,162021,A,A*5F
$IIHDG,311,,,,*54
$IIMTW,+18.0,C*31
$IIMWV,051,R,07.6,N,A*16
$IIMWV,064,T,06.5,N,A*14
$IIRMC,162021,A,4612.960,N,00610.044,E,02.0,314,210814,,,A*4C
$IIVHW,,,311,M,01.7,N,,*61
$IIVLW,53471,N,000.1,N*56
$IIVWR,051,R,07.5,N,,,,*67
$IIDPT,008.3,+0.7,*4B
$IIGLL,4612.960,N,00610.044,E,162022,A,A*5C
$IIHDG,311,,,,*54
$IIMTW,+18.0,C*31
$IIMWV,051,R,07.5,N,A*15
$IIMWV,064,T,06.5,N,A*14
$IIRMC,162023,A,4612.961,N,00610.043,E,02.0,308,210814,,,A*45
$IIVHW,,,311,M,01.7,N,,*61
$IIVLW,53471,N,000.1,N*56
$IIVWR,052,R,07.6,N,,,,*67
$IIDPT,008.3,+0.7,*4B
$IIGLL,4612.961,N,00610.043,E,162023,A,A*5B
$IIHDG,311,,,,*54
$IIMTW,+18.0,C*31
$IIMWV,052,R,07.6,N,A*15
$IIMWV,064,T,06.6,N,A*17
$IIRMC,162024,A,4612.961,N,00610.042,E,01.9,309,210814,,,A*48
$IIVHW,,,309,M,01.7,N,,*68
$IIVLW,53471,N,000.1,N*56
$IIVWR,051,R,07.6,N,,,,*64
$IIDPT,008.3,+0.7,*4B
$IIGLL,4612.961,N,00610.042,E,162024,A,A*5D
$IIHDG,309,,,,*5D
$IIMTW,+18.0,C*31
$IIMWV,053,R,07.8,N,A*1A
$IIMWV,066,T,06.8,N,A*1B
$IIRMC,162026,A,4612.962,N,00610.041,E,01.9,292,210814,,,A*49
$IIVHW,,,308,M,01.7,N,,*69
$IIVLW,53471,N,000.1,N*56
$IIVWR,053,R,07.8,N,,,,*68
$IIDPT,008.3,+0.7,*4B
$IIGLL,4612.962,N,00610.041,E,162026,A,A*5F
$IIHDG,308,,,,*5C
$IIMTW,+18.0,C*31
$IIMWV,052,R,07.6,N,A*15
$IIMWV,066,T,06.8,N,A*1B
$IIRMC,162027,A,4612.962,N,00610.040,E,01.9,299,210814,,,A*42
$IIVHW,,,309,M,01.7,N,,*68
$IIVLW,53471,N,000.1,N*56
$IIVWR,052,R,07.6,N,,,,*67
$IIDPT,008.3,+0.7,*4B
$IIGLL,4612.962,N,00610.040,E,162027,A,A*5F
$IIHDG,309,,,,*5D
$IIMTW,+18.0,C*31
$IIMWV,052,R,07.8,N,A*1B
$IIMWV,064,T,06.6,N,A*17
$IIRMC,162028,A,4612.962,N,00610.039,E,01.9,302,210814,,,A*40
$IIVHW,,,309,M,01.7,N,,*68
$IIVLW,53471,N,000.1,N*56
$IIVWR,052,R,07.8,N,,,,*69
$IIDPT,008.3,+0.7,*4B
$IIGLL,4612.962,N,00610.039,E,162029,A,A*5F
$IIHDG,310,,,,*55
$IIMTW,+18.0,C*31
$IIMWV,051,R,07.6,N,A*16
$IIMWV,064,T,06.7,N,A*16
$IIRMC,162029,A,4612.962,N,00610.039,E,01.9,307,210814,,,A*44
$IIVHW,,,310,M,01.7,N,,*60
$IIVLW,53471,N,000.1,N*56
$IIVWR,051,R,07.6,N,,,,*64
$IIDPT,008.3,+0.7,*4B
$IIGLL,4612.963,N,00610.038,E,162030,A,A*57
$IIHDG,308,,,,*5C
$IIMTW,+18.0,C*31
$IIMWV,051,R,07.6,N,A*16
$IIMWV,063,T,06.6,N,A*10
$IIRMC,162030,A,4612.963,N,00610.038,E,02.2,283,210814,,,A*49
$IIVHW,,,308,M,01.7,N,,*69
$IIVLW,53471,N,000.1,N*56
$IIVWR,051,R,07.6,N,,,,*64
$IIDPT,008.3,+0.7,*4B
$IIGLL,4612.963,N,00610.037,E,162031,A,A*59
$IIHDG,307,,,,*53
$IIMTW,+18.0,C*31
$IIMWV,051,R,07.6,N,A*16
$IIMWV,063,T,06.6,N,A*10
$IIRMC,162031,A,4612.963,N,00610.037,E,01.9,318,210814,,,A*4C
$IIVHW,,,307,M,01.7,N,,*66
$IIVLW,53471,N,000.1,N*56
$IIVWR,052,R,07.6,N,,,,*67
$IIDPT,008.3,+0.7,*4B
$IIGLL,4612.963,N,00610.037,E,162032,A,A*5A
$IIHDG,307,,,,*53
$IIMTW,+18.0,C*31
$IIMWV,052,R,07.6,N,A*15
$IIMWV,063,T,06.6,N,A*10
$IIRMC,162032,A,4612.963,N,00610.037,E,01.9,313,210814,,,A*44
$IIVHW,,,307,M,01.6,N,,*67
$IIVLW,53471,N,000.1,N*56
$IIVWR,051,R,07.8,N,,,,*6A
$IIDPT,008.3,+0.7,*4B
$IIGLL,4612.964,N,00610.036,E,162033,A,A*5D
$IIHDG,307,,,,*53
$IIMTW,+18.0,C*31
$IIMWV,051,R,07.8,N,A*18
$IIMWV,063,T,06.7,N,A*11
$IIRMC,162034,A,4612.964,N,00610.036,E,01.9,305,210814,,,A*43
$IIVHW,,,308,M,01.6,N,,*68
$IIVLW,53471,N,000.1,N*56
$IIVWR,051,R,07.6,N,,,,*64
$IIDPT,008.3,+0.7,*4B
$IIGLL,4612.964,N,00610.036,E,162034,A,A*5A
$IIHDG,308,,,,*5C
$IIMTW,+18.0,C*31
$IIMWV,051,R,07.6,N,A*16
$IIMWV,063,T,06.6,N,A*10
$IIRMC,162035,A,4612.964,N,00610.035,E,01.9,303,210814,,,A*47
$IIVHW,,,307,M,01.6,N,,*67
$IIVLW,53471,N,000.1,N*56
$IIVWR,051,R,07.5,N,,,,*67
$IIDPT,008.3,+0.7,*4B
$IIGLL,4612.964,N,00610.035,E,162035,A,A*58
$IIHDG,307,,,,*53
$IIMTW,+18.0,C*31
$IIMWV,051,R,07.5,N,A*15
$IIMWV,063,T,06.5,N,A*13
$IIRMC,162036,A,4612.965,N,00610.035,E,01.9,306,210814,,,A*40
$IIVHW,,,307,M,01.6,N,,*67
$IIVLW,53471,N,000.1,N*56
$IIVWR,051,R,07.5,N,,,,*67
$IIDPT,008.3,+0.7,*4B
$IIGLL,4612.965,N,00610.035,E,162036,A,A*5A
$IIHDG,307,,,,*53
$IIMTW,+18.0,C*31
$IIMWV,051,R,07.6,N,A*16
$IIMWV,063,T,06.5,N,A*13
$IIRMC,162037,A,4612.965,N,00610.034,E,01.9,302,210814,,,A*44
$IIVHW,,,306,M,01.7,N,,*67
$IIVLW,53471,N,000.1,N*56
$IIVWR,051,R,07.6,N,,,,*64
$IIDPT,008.3,+0.7,*4B
$IIGLL,4612.965,N,00610.034,E,162037,A,A*5A
$IIHDG,306,,,,*52
$IIMTW,+18.0,C*31
$IIMWV,053,R,07.6,N,A*14
$IIMWV,063,T,06.6,N,A*10
$IIRMC,162038,A,4612.965,N,00610.033,E,01.9,304,210814,,,A*4A
$IIVHW,,,306,M,01.7,N,,*67
$IIVLW,53471,N,000.1,N*56
$IIVWR,053,R,07.6,N,,,,*66
$IIDPT,008.3,+0.7,*4B
$IIGLL,4612.965,N,00610.033,E,162039,A,A*53
$IIHDG,305,,,,*51
$IIMTW,+18.0,C*31
$IIMWV,052,R,07.5,N,A*16
$IIMWV,065,T,06.6,N,A*16
$IIRMC,162039,A,4612.965,N,00610.033,E,01.9,304,210814,,,A*4B
$IIVHW,,,305,M,01.7,N,,*64
$IIVLW,53471,N,000.1,N*56
$IIVWR,052,R,07.5,N,,,,*64
$IIDPT,008.3,+0.7,*4B
$IIGLL,4612.966,N,00610.032,E,162040,A,A*5F
$IIHDG,303,,,,*57
$IIMTW,+18.0,C*31
$IIMWV,054,R,07.5,N,A*10
$IIMWV,064,T,06.5,N,A*14
$IIRMC,162040,A,4612.966,N,00610.032,E,01.9,296,210814,,,A*4D
$IIVHW,,,303,M,01.7,N,,*62
$IIVLW,53471,N,000.1,N*56
$IIVWR,055,R,07.4,N,,,,*62
$IIDPT,008.3,+0.7,*4B
$IIGLL,4612.966,N,00610.032,E,162041,A,A*5E
$IIHDG,301,,,,*55
$IIMTW,+18.0,C*31
$IIMWV,055,R,07.4,N,A*10
$IIMWV,067,T,06.5,N,A*17
$IIRMC,162041,A,4612.966,N,00610.032,E,01.9,300,210814,,,A*42
$IIVHW,,,301,M,01.7,N,,*60
$IIVLW,53471,N,000.1,N*56
$IIVWR,055,R,07.5,N,,,,*63
$IIDPT,008.3,+0.7,*4B
$IIGLL,4612.966,N,00610.031,E,162042,A,A*5E
$IIHDG,299,,,,*55
$IIMTW,+18.0,C*31
$IIMWV,055,R,07.5,N,A*11
$IIMWV,068,T,06.4,N,A*19
$IIRMC,162042,A,4612.966,N,00610.031,E,01.7,300,210814,,,A*4C
$IIVHW,,,299,M,01.8,N,,*6F
$IIVLW,53471,N,000.1,N*56
$IIVWR,056,R,07.5,N,,,,*60
$IIDPT,008.3,+0.7,*4B
$IIGLL,4612.967,N,00610.031,E,162043,A,A*5E
$IIHDG,299,,,,*55
$IIMTW,+18.0,C*31
$IIMWV,056,R,07.5,N,A*12
$IIMWV,069,T,06.5,N,A*19
$IIRMC,162044,A,4612.967,N,00610.030,E,01.7,298,210814,,,A*4A
$IIVHW,,,299,M,01.7,N,,*60
$IIVLW,53471,N,000.1,N*56
$IIVWR,057,R,07.4,N,,,,*60
$IIDPT,008.3,+0.7,*4B
$IIGLL,4612.967,N,00610.030,E,162044,A,A*58
$IIHDG,299,,,,*55
$IIMTW,+18.0,C*31
$IIMWV,057,R,07.4,N,A*12
$IIMWV,071,T,06.5,N,A*10
$IIRMC,162045,A,4612.967,N,00610.029,E,01.9,295,210814,,,A*40
$IIVHW,,,299,M,01.7,N,,*60
$IIVLW,53471,N,000.1,N*56
$IIVWR,057,R,07.5,N,,,,*61
$IIDPT,008.3,+0.7,*4B
$IIGLL,4612.967,N,00610.029,E,162045,A,A*51
$IIHDG,299,,,,*55
$IIMTW,+18.0,C*31
$IIMWV,059,R,07.5,N,A*1D
$IIMWV,071,T,06.6,N,A*13
$IIRMC,162046,A,4612.967,N,00610.029,E,01.9,297,210814,,,A*41
$IIVHW,,,298,M,01.7,N,,*61
$IIVLW,53471,N,000.1,N*56
$IIVWR,059,R,07.5,N,,,,*6F
$IIDPT,008.3,+0.7,*4B
$IIGLL,4612.967,N,00610.029,E,162046,A,A*52
$IIHDG,298,,,,*54
$IIMTW,+18.0,C*31
$IIMWV,058,R,07.4,N,A*1D
$IIMWV,072,T,06.7,N,A*11
$IIRMC,162047,A,4612.968,N,00610.028,E,02.0,294,210814,,,A*47
$IIVHW,,,297,M,01.7,N,,*6E
$IIVLW,53471,N,000.1,N*56
$IIVWR,058,R,07.4,N,,,,*6F
$IIDPT,008.3,+0.7,*4B
$IIGLL,4612.968,N,00610.028,E,162047,A,A*5D
$IIHDG,297,,,,*5B
$IIMTW,+18.0,C*31
$IIMWV,061,R,07.4,N,A*17
$IIMWV,071,T,06.5,N,A*10
$IIRMC,162048,A,4612.968,N,00610.028,E,01.9,293,210814,,,A*45
$IIVHW,,,297,M,01.7,N,,*6E
$IIVLW,53471,N,000.1,N*56
$IIVWR,061,R,07.4,N,,,,*65
$IIDPT,008.3,+0.7,*4B
$IIGLL,4612.968,N,00610.027,E,162049,A,A*5C
$IIHDG,297,,,,*5B
$IIMTW,+18.0,C*31
$IIMWV,060,R,07.2,N,A*10
$IIMWV,075,T,06.6,N,A*17
$IIRMC,162049,A,4612.968,N,00610.027,E,02.0,296,210814,,,A*44
$IIVHW,,,297,M,01.7,N,,*6E
$IIVLW,53471,N,000.1,N*56
$IIVWR,060,R,07.2,N,,,,*62
$IIDPT,008.3,+0.7,*4B
$IIGLL,4612.968,N,00610.027,E,162049,A,A*5C
$IIHDG,299,,,,*55
$IIMTW,+18.0,C*31
$IIMWV,062,R,07.4,N,A*14
$IIMWV,074,T,06.4,N,A*14
$IIRMC,162049,A,4612.968,N,00610.027,E,02.0,296,210814,,,A*44
$IIVHW,,,299,M,01.7,N,,*60
$IIVLW,53471,N,000.1,N*56
$IIVWR,061,R,07.2,N,,,,*63
$IIDPT,008.3,+0.7,*4B
$IIGLL,4612.968,N,00610.025,E,162051,A,A*57
$IIHDG,299,,,,*55
$IIMTW,+18.0,C*31
$IIMWV,061,R,07.2,N,A*11
$IIMWV,076,T,06.6,N,A*14
$IIRMC,162051,A,4612.968,N,00610.025,E,02.0,300,210814,,,A*41
$IIVHW,,,299,M,01.8,N,,*6F
$IIVLW,53471,N,000.2,N*55
$IIVWR,063,R,07.2,N,,,,*61
$IIDPT,008.3,+0.7,*4B
$IIGLL,4612.968,N,00610.025,E,162052,A,A*54
$IIHDG,299,,,,*55
$IIMTW,+18.0,C*31
$IIMWV,063,R,07.2,N,A*13
$IIMWV,075,T,06.4,N,A*15
$IIRMC,162052,A,4612.968,N,00610.025,E,02.0,297,210814,,,A*4D
$IIVHW,,,298,M,01.8,N,,*6E
$IIVLW,53471,N,000.2,N*55
$IIVWR,064,R,07.2,N,,,,*66
$IIDPT,008.3,+0.7,*4B
$IIGLL,4612.969,N,00610.024,E,162053,A,A*55
$IIHDG,298,,,,*54
$IIMTW,+18.0,C*31
$IIMWV,064,R,07.2,N,A*14
$IIMWV,078,T,06.5,N,A*19
$IIRMC,162054,A,4612.969,N,00610.024,E,01.9,298,210814,,,A*4E
$IIVHW,,,297,M,01.8,N,,*61
$IIVLW,53471,N,000.2,N*55
$IIVWR,064,R,07.1,N,,,,*65
$IIDPT,008.3,+0.7,*4B
$IIGLL,4612.969,N,00610.024,E,162054,A,A*52
$IIHDG,297,,,,*5B
$IIMTW,+18.0,C*31
$IIMWV,064,R,07.1,N,A*17
$IIMWV,078,T,06.4,N,A*18
$IIRMC,162055,A,4612.969,N,00610.023,E,01.9,295,210814,,,A*45
$IIVHW,,,296,M,01.8,N,,*60
$IIVLW,53471,N,000.2,N*55
$IIVWR,065,R,07.1,N,,,,*64
$IIDPT,008.3,+0.7,*4B
$IIGLL,4612.969,N,00610.023,E,162055,A,A*54
$IIHDG,296,,,,*5A
$IIMTW,+18.0,C*31
$IIMWV,066,R,07.1,N,A*15
$IIMWV,080,T,06.4,N,A*1F
$IIRMC,162056,A,4612.969,N,00610.022,E,01.9,294,210814,,,A*46
$IIVHW,,,295,M,01.8,N,,*63
$IIVLW,53471,N,000.2,N*55
$IIVWR,066,R,07.1,N,,,,*67
$IIDPT,008.3,+0.7,*4B
$IIGLL,4612.969,N,00610.022,E,162056,A,A*56
$IIHDG,295,,,,*59
$IIMTW,+18.0,C*31
$IIMWV,068,R,07.1,N,A*1B
$IIMWV,080,T,06.4,N,A*1F
$IIRMC,162057,A,4612.970,N,00610.022,E,01.9,292,210814,,,A*49
$IIVHW,,,293,M,01.8,N,,*65
$IIVLW,53471,N,000.2,N*55
$IIVWR,068,R,07.1,N,,,,*69
$IIDPT,008.3,+0.7,*4B
$IIGLL,4612.970,N,00610.022,E,162057,A,A*5F
$IIHDG,292,,,,*5E
$IIMTW,+18.0,C*31
$IIMWV,070,R,07.0,N,A*13
$IIMWV,083,T,06.6,N,A*1E
$IIRMC,162058,A,4612.970,N,00610.021,E,01.9,289,210814,,,A*4F
$IIVHW,,,292,M,01.7,N,,*6B
$IIVLW,53471,N,000.2,N*55
$IIVWR,070,R,07.0,N,,,,*61
$IIDPT,008.3,+0.7,*4B
$IIGLL,4612.970,N,00610.020,E,162059,A,A*53
$IIHDG,291,,,,*5D
$IIMTW,+18.0,C*31
$IIMWV,071,R,07.0,N,A*12
$IIMWV,085,T,06.5,N,A*1B
$IIRMC,162059,A,4612.970,N,00610.020,E,01.9,291,210814,,,A*46
$IIVHW,,,291,M,01.7,N,,*68
$IIVLW,53471,N,000.2,N*55
$IIVWR,071,R,07.0,N,,,,*60
$IIDPT,008.3,+0.7,*4B
$IIGLL,4612.970,N,00610.020,E,162100,A,A*5E
$IIHDG,290,,,,*5C
$IIMTW,+18.0,C*31
$IIMWV,073,R,07.0,N,A*10
$IIMWV,085,T,06.6,N,A*18
$IIRMC,162100,A,4612.970,N,00610.020,E,01.8,285,210814,,,A*4F
$IIVHW,,,290,M,01.7,N,,*69
$IIVLW,53471,N,000.2,N*55
$IIVWR,072,R,06.8,N,,,,*6A
$IIDPT,008.3,+0.7,*4B
$IIGLL,4612.970,N,00610.019,E,162101,A,A*55
$IIHDG,288,,,,*55
$IIMTW,+18.0,C*31
$IIMWV,072,R,06.8,N,A*18
$IIMWV,088,T,06.7,N,A*14
$IIRMC,162101,A,4612.970,N,00610.019,E,01.9,289,210814,,,A*49
$IIVHW,,,288,M,01.7,N,,*60
$IIVLW,53471,N,000.2,N*55
$IIVWR,074,R,06.8,N,,,,*6C
$IIDPT,008.3,+0.7,*4B
$IIGLL,4612.970,N,00610.018,E,162102,A,A*57
$IIHDG,287,,,,*5A
$IIMTW,+18.0,C*31
$IIMWV,074,R,06.8,N,A*1E
$IIMWV,087,T,06.4,N,A*18
$IIRMC,162102,A,4612.970,N,00610.018,E,01.9,284,210814,,,A*46
$IIVHW,,,285,M,01.8,N,,*62
$IIVLW,53471,N,000.2,N*55
$IIVWR,075,R,06.8,N,,,,*6D
$IIDPT,008.3,+0.7,*4B
$IIGLL,4612.970,N,00610.017,E,162103,A,A*59
$IIHDG,285,,,,*58
$IIMTW,+18.0,C*31
$IIMWV,075,R,06.8,N,A*1F
$IIMWV,089,T,06.5,N,A*17
$IIRMC,162104,A,4612.970,N,00610.016,E,02.0,283,210814,,,A*43
$IIVHW,,,284,M,01.8,N,,*63
$IIVLW,53471,N,000.2,N*55
$IIVWR,076,R,06.6,N,,,,*60
$IIDPT,008.3,+0.7,*4B
$IIGLL,4612.970,N,00610.016,E,162104,A,A*5F
$IIHDG,284,,,,*59
$IIMTW,+18.0,C*31
$IIMWV,076,R,06.6,N,A*12
$IIMWV,094,T,06.4,N,A*1A
$IIRMC,162105,A,4612.970,N,00610.015,E,02.0,274,210814,,,A*49
$IIVHW,,,282,M,01.9,N,,*64
$IIVLW,53471,N,000.2,N*55
$IIVWR,080,R,06.3,N,,,,*6C
$IIDPT,008.3,+0.7,*4B
$IIGLL,4612.970,N,00610.015,E,162105,A,A*5D
$IIHDG,282,,,,*5F
$IIMTW,+18.0,C*31
$IIMWV,080,R,06.2,N,A*1F
$IIMWV,099,T,06.1,N,A*12
$IIRMC,162106,A,4612.970,N,00610.015,E,02.0,277,210814,,,A*49
$IIVHW,,,280,M,01.9,N,,*66
$IIVLW,53471,N,000.2,N*55
$IIVWR,080,R,06.2,N,,,,*6D
$IIDPT,008.3,+0.7,*4B
$IIGLL,4612.970,N,00610.015,E,162106,A,A*5E
$IIHDG,280,,,,*5D
$IIMTW,+18.0,C*31
$IIMWV,082,R,06.2,N,A*1D
$IIMWV,099,T,06.0,N,A*13
$IIRMC,162107,A,4612.970,N,00610.014,E,02.1,270,210814,,,A*4F
$IIVHW,,,279,M,02.0,N,,*6A
$IIVLW,53471,N,000.2,N*55
$IIVWR,082,R,06.2,N,,,,*6F
$IIDPT,008.3,+0.7,*4B
$IIGLL,4612.970,N,00610.014,E,162107,A,A*5E
$IIHDG,279,,,,*5B
$IIMTW,+18.0,C*31
$IIMWV,082,R,06.1,N,A*1E
$IIMWV,102,T,06.2,N,A*12
$IIRMC,162108,A,4612.970,N,00610.013,E,02.3,275,210814,,,A*40
$IIVHW,,,279,M,02.1,N,,*6B
$IIVLW,53471,N,000.2,N*55
$IIVWR,082,R,06.1,N,,,,*6C
$IIDPT,008.3,+0.7,*4B
$IIGLL,4612.970,N,00610.012,E,162109,A,A*56
$IIHDG,280,,,,*5D
$IIMTW,+18.0,C*31
$IIMWV,082,R,06.1,N,A*1E
$IIMWV,103,T,06.1,N,A*10
$IIRMC,162109,A,4612.970,N,00610.012,E,02.4,278,210814,,,A*4A
$IIVHW,,,280,M,02.2,N,,*6E
$IIVLW,53471,N,000.2,N*55
$IIVWR,082,R,06.1,N,,,,*6C
$IIDPT,008.3,+0.7,*4B
$IIGLL,4612.970,N,00610.011,E,162110,A,A*5D
$IIHDG,280,,,,*5D
$IIMTW,+18.0,C*31
$IIMWV,083,R,06.1,N,A*1F
$IIMWV,104,T,06.1,N,A*17
$IIRMC,162110,A,4612.970,N,00610.011,E,02.5,278,210814,,,A*40
$IIVHW,,,280,M,02.3,N,,*6F
$IIVLW,53471,N,000.2,N*55
$IIVWR,082,R,06.1,N,,,,*6C
$IIDPT,008.3,+0.7,*4B
$IIGLL,4612.970,N,00610.010,E,162111,A,A*5D
$IIHDG,279,,,,*5B
$IIMTW,+18.0,C*31
$IIMWV,082,R,06.1,N,A*1E
$IIMWV,106,T,06.2,N,A*16
$IIRMC,162111,A,4612.970,N,00610.010,E,02.5,276,210814,,,A*4E
$IIVHW,,,279,M,02.4,N,,*6E
$IIVLW,53471,N,000.2,N*55
$IIVWR,081,R,05.9,N,,,,*64
$IIDPT,008.3,+0.7,*4B
$IIGLL,4612.970,N,00610.009,E,162112,A,A*56
$IIHDG,279,,,,*5B
$IIMTW,+18.0,C*31
$IIMWV,081,R,05.9,N,A*16
$IIMWV,106,T,06.2,N,A*16
$IIRMC,162112,A,4612.970,N,00610.009,E,02.7,278,210814,,,A*49
$IIVHW,,,279,M,02.6,N,,*6C
$IIVLW,53471,N,000.2,N*55
$IIVWR,081,R,05.9,N,,,,*64
$IIDPT,008.3,+0.7,*4B
$IIGLL,4612.970,N,00610.009,E,162112,A,A*56
$IIHDG,279,,,,*5B
$IIMTW,+18.0,C*31
$IIMWV,081,R,05.9,N,A*16
$IIMWV,106,T,06.0,N,A*14
$IIRMC,162114,A,4612.970,N,00610.007,E,02.8,275,210814,,,A*43
$IIVHW,,,278,M,02.6,N,,*6D
$IIVLW,53471,N,000.2,N*55
$IIVWR,079,R,06.2,N,,,,*6B
$IIDPT,008.3,+0.7,*4B
$IIGLL,4612.970,N,00610.007,E,162114,A,A*5E
$IIHDG,278,,,,*5A
$IIMTW,+18.0,C*31
$IIMWV,079,R,06.2,N,A*19
$IIMWV,105,T,06.2,N,A*15
$IIRMC,162114,A,4612.970,N,00610.007,E,02.8,275,210814,,,A*43
$IIVHW,,,279,M,02.7,N,,*6D
$IIVLW,53471,N,000.2,N*55
$IIVWR,080,R,06.2,N,,,,*6D
$IIDPT,008.3,+0.7,*4B
$IIGLL,4612.970,N,00610.007,E,162114,A,A*5E
$IIHDG,279,,,,*5B
$IIMTW,+18.0,C*31
$IIMWV,079,R,06.3,N,A*18
$IIMWV,107,T,06.2,N,A*17
$IIRMC,162116,A,4612.970,N,00610.005,E,03.2,277,210814,,,A*4A
$IIVHW,,,279,M,02.8,N,,*62
$IIVLW,53471,N,000.2,N*55
$IIVWR,079,R,06.3,N,,,,*6A
$IIDPT,008.3,+0.7,*4B
$IIGLL,4612.970,N,00610.005,E,162116,A,A*5E
$IIHDG,279,,,,*5B
$IIMTW,+18.0,C*31
$IIMWV,078,R,06.3,N,A*19
$IIMWV,105,T,06.3,N,A*14
$IIRMC,162116,A,4612.970,N,00610.005,E,03.2,277,210814,,,A*4A
$IIVHW,,,281,M,02.9,N,,*64
$IIVLW,53471,N,000.2,N*55
$IIVWR,078,R,06.3,N,,,,*6B
$IIDPT,008.3,+0.7,*4B
$IIGLL,4612.970,N,00610.005,E,162116,A,A*5E
$IIHDG,282,,,,*5F
$IIMTW,+18.0,C*31
$IIMWV,077,R,06.3,N,A*16
$IIMWV,105,T,06.3,N,A*14
$IIRMC,162118,A,4612.970,N,00610.002,E,03.3,279,210814,,,A*4C
$IIVHW,,,282,M,02.9,N,,*67
$IIVLW,53471,N,000.2,N*55
$IIVWR,077,R,06.3,N,,,,*64
$IIDPT,008.3,+0.7,*4B
$IIGLL,4612.970,N,00610.001,E,162119,A,A*55
$IIHDG,283,,,,*5E
$IIMTW,+18.0,C*31
$IIMWV,075,R,06.2,N,A*15
$IIMWV,105,T,06.3,N,A*14
$IIRMC,162119,A,4612.970,N,00610.001,E,03.5,282,210814,,,A*4C
$IIVHW,,,283,M,03.0,N,,*6E
$IIVLW,53471,N,000.2,N*55
$IIVWR,075,R,06.2,N,,,,*67
$IIDPT,008.3,+0.7,*4B
$IIGLL,4612.970,N,00610.000,E,162120,A,A*5E
$IIHDG,284,,,,*59
$IIMTW,+18.0,C*31
$IIMWV,074,R,06.3,N,A*15
$IIMWV,103,T,06.1,N,A*10
$IIRMC,162120,A,4612.970,N,00610.000,E,03.3,282,210814,,,A*41
$IIVHW,,,284,M,03.1,N,,*68
$IIVLW,53471,N,000.2,N*55
$IIVWR,071,R,06.5,N,,,,*64
$IIDPT,008.3,+0.7,*4B
$IIGLL,4612.971,N,00609.999,E,162121,A,A*5F
$IIHDG,285,,,,*58
$IIMTW,+18.0,C*31
$IIMWV,071,R,06.5,N,A*16
$IIMWV,103,T,06.1,N,A*10
$IIRMC,162121,A,4612.971,N,00609.999,E,03.4,284,210814,,,A*41
$IIVHW,,,285,M,03.2,N,,*6A
$IIVLW,53471,N,000.2,N*55
$IIVWR,070,R,06.5,N,,,,*65
$IIDPT,008.3,+0.7,*4B
$IIGLL,4612.971,N,00609.997,E,162122,A,A*52
$IIHDG,286,,,,*5B
$IIMTW,+18.0,C*31
$IIMWV,070,R,06.5,N,A*17
$IIMWV,100,T,06.1,N,A*13
$IIRMC,162122,A,4612.971,N,00609.997,E,03.5,284,210814,,,A*4D
$IIVHW,,,286,M,03.3,N,,*68
$IIVLW,53471,N,000.2,N*55
$IIVWR,068,R,06.6,N,,,,*6F
$IIDPT,008.3,+0.7,*4B
$IIGLL,4612.971,N,00609.996,E,162123,A,A*52
$IIHDG,286,,,,*5B
$IIMTW,+18.0,C*31
$IIMWV,068,R,06.6,N,A*1D
$IIMWV,100,T,06.1,N,A*13
$IIRMC,162124,A,4612.971,N,00609.994,E,03.6,286,210814,,,A*49
$IIVHW,,,287,M,03.3,N,,*69
$IIVLW,53471,N,000.2,N*55
$IIVWR,066,R,06.7,N,,,,*60
$IIDPT,008.3,+0.7,*4B
$IIGLL,4612.971,N,00609.994,E,162124,A,A*57
$IIHDG,287,,,,*5A
$IIMTW,+18.0,C*31
$IIMWV,066,R,06.7,N,A*12
$IIMWV,097,T,06.0,N,A*1D
$IIRMC,162125,A,4612.972,N,00609.993,E,03.8,287,210814,,,A*43
$IIVHW,,,288,M,03.3,N,,*66
$IIVLW,53471,N,000.2,N*55
$IIVWR,064,R,06.8,N,,,,*6D
$IIDPT,008.3,+0.7,*4B
$IIGLL,4612.972,N,00609.993,E,162125,A,A*52
$IIHDG,288,,,,*55
$IIMTW,+18.0,C*31
$IIMWV,062,R,07.0,N,A*10
$IIMWV,095,T,06.1,N,A*1E
$IIRMC,162126,A,4612.972,N,00609.991,E,03.8,288,210814,,,A*4D
$IIVHW,,,288,M,03.4,N,,*61
$IIVLW,53471,N,000.2,N*55
$IIVWR,062,R,07.0,N,,,,*62
$IIDPT,008.3,+0.7,*4B
$IIGLL,4612.972,N,00609.991,E,162126,A,A*53
$IIHDG,288,,,,*55
$IIMTW,+18.0,C*31
$IIMWV,061,R,07.1,N,A*12
$IIMWV,093,T,06.1,N,A*18
$IIRMC,162127,A,4612.972,N,00609.990,E,03.8,287,210814,,,A*42
$IIVHW,,,291,M,03.4,N,,*69
$IIVLW,53471,N,000.2,N*55
$IIVWR,061,R,07.1,N,,,,*60
$IIDPT,008.3,+0.7,*4B
$IIGLL,4612.972,N,00609.990,E,162127,A,A*53
$IIHDG,292,,,,*5E
$IIMTW,+18.0,C*31
$IIMWV,057,R,07.2,N,A*14
$IIMWV,091,T,06.1,N,A*1A
$IIRMC,162128,A,4612.973,N,00609.988,E,03.9,293,210814,,,A*41
$IIVHW,,,292,M,03.6,N,,*68
$IIVLW,53471,N,000.2,N*55
$IIVWR,057,R,07.2,N,,,,*66
$IIDPT,008.3,+0.7,*4B
$IIGLL,4612.973,N,00609.987,E,162129,A,A*5A
$IIHDG,293,,,,*5F
$IIMTW,+18.0,C*31
$IIMWV,055,R,07.5,N,A*11
$IIMWV,088,T,06.0,N,A*13
$IIRMC,162129,A,4612.973,N,00609.987,E,03.9,293,210814,,,A*4F
$IIVHW,,,293,M,03.7,N,,*68
$IIVLW,53471,N,000.2,N*55
$IIVWR,055,R,07.5,N,,,,*63
$IIDPT,008.3,+0.7,*4B
$IIGLL,4612.973,N,00609.985,E,162130,A,A*50
$IIHDG,292,,,,*5E
$IIMTW,+18.0,C*31
$IIMWV,053,R,07.5,N,A*17
$IIMWV,085,T,06.1,N,A*1F
$IIRMC,162130,A,4612.973,N,00609.985,E,03.9,291,210814,,,A*47
$IIVHW,,,292,M,03.7,N,,*69
$IIVLW,53471,N,000.2,N*55
$IIVWR,051,R,07.5,N,,,,*67
$IIDPT,008.3,+0.7,*4B
$IIGLL,4612.974,N,00609.984,E,162131,A,A*57
$IIHDG,295,,,,*59
$IIMTW,+18.0,C*31
$IIMWV,051,R,07.5,N,A*15
$IIMWV,083,T,06.0,N,A*18
$IIRMC,162131,A,4612.974,N,00609.984,E,04.1,290,210814,,,A*4E
$IIVHW,,,295,M,03.8,N,,*61
$IIVLW,53471,N,000.2,N*55
$IIVWR,049,R,07.6,N,,,,*6D
$IIDPT,008.3,+0.7,*4B
$IIGLL,4612.974,N,00609.983,E,162132,A,A*53
$IIHDG,297,,,,*5B
$IIMTW,+18.0,C*31
$IIMWV,049,R,07.6,N,A*1F
$IIMWV,081,T,05.8,N,A*11
$IIRMC,162132,A,4612.974,N,00609.983,E,04.2,300,210814,,,A*41
$IIVHW,,,298,M,03.9,N,,*6D
$IIVLW,53471,N,000.2,N*55
$IIVWR,047,R,07.6,N,,,,*63
$IIDPT,008.3,+0.7,*4B
$IIGLL,4612.974,N,00609.983,E,162132,A,A*53
$IIHDG,298,,,,*54
$IIMTW,+18.0,C*31
$IIMWV,047,R,07.6,N,A*11
$IIMWV,079,T,05.8,N,A*16
$IIRMC,162134,A,4612.976,N,00609.980,E,04.3,301,210814,,,A*46
$IIVHW,,,300,M,03.9,N,,*6D
$IIVLW,53471,N,000.2,N*55
$IIVWR,046,R,07.8,N,,,,*6C
$IIDPT,008.3,+0.7,*4B
$IIGLL,4612.976,N,00609.980,E,162134,A,A*54
$IIHDG,300,,,,*54
$IIMTW,+18.0,C*31
$IIMWV,046,R,07.8,N,A*1E
$IIMWV,077,T,05.7,N,A*17
$IIRMC,162134,A,4612.976,N,00609.980,E,04.3,301,210814,,,A*46
$IIVHW,,,300,M,04.0,N,,*63
$IIVLW,53471,N,000.2,N*55
$IIVWR,044,R,07.9,N,,,,*6F
$IIDPT,008.3,+0.7,*4B
$IIGLL,4612.976,N,00609.980,E,162134,A,A*54
$IIHDG,300,,,,*54
$IIMTW,+18.0,C*31
$IIMWV,045,R,08.0,N,A*1A
$IIMWV,077,T,05.6,N,A*16
$IIRMC,162137,A,4612.978,N,00609.976,E,04.8,296,210814,,,A*46
$IIVHW,,,297,M,04.1,N,,*6D
$IIVLW,53471,N,000.2,N*55
$IIVWR,045,R,08.0,N,,,,*68
$IIDPT,008.3,+0.7,*4B
$IIGLL,4612.978,N,00609.976,E,162137,A,A*50
$IIHDG,297,,,,*5B
$IIMTW,+18.0,C*31
$IIMWV,047,R,08.1,N,A*19
$IIMWV,076,T,05.7,N,A*16
$IIRMC,162138,A,4612.978,N,00609.974,E,04.3,295,210814,,,A*43
$IIVHW,,,296,M,04.3,N,,*6E
$IIVLW,53471,N,000.2,N*55
$IIVWR,047,R,08.1,N,,,,*6B
$IIDPT,008.3,+0.7,*4B
$IIGLL,4612.978,N,00609.974,E,162138,A,A*5D
$IIHDG,296,,,,*5A
$IIMTW,+18.0,C*31
$IIMWV,046,R,08.1,N,A*18
$IIMWV,078,T,06.0,N,A*1C
$IIRMC,162139,A,4612.979,N,00609.972,E,04.5,297,210814,,,A*41
$IIVHW,,,296,M,04.3,N,,*6E
$IIVLW,53471,N,000.2,N*55
$IIVWR,046,R,08.1,N,,,,*6A
$IIDPT,008.3,+0.7,*4B
$IIGLL,4612.979,N,00609.970,E,162140,A,A*57
$IIHDG,296,,,,*5A
$IIMTW,+18.0,C*31
$IIMWV,047,R,08.1,N,A*19
$IIMWV,079,T,05.9,N,A*17
$IIRMC,162140,A,4612.979,N,00609.970,E,04.6,295,210814,,,A*4C
$IIVHW,,,296,M,04.4,N,,*69
$IIVLW,53471,N,000.2,N*55
$IIVWR,047,R,08.1,N,,,,*6B
$IIDPT,008.3,+0.7,*4B
$IIGLL,4612.980,N,00609.968,E,162141,A,A*59
$IIHDG,295,,,,*59
$IIMTW,+18.0,C*31
$IIMWV,047,R,08.4,N,A*1C
$IIMWV,079,T,06.0,N,A*1D
$IIRMC,162141,A,4612.980,N,00609.968,E,04.6,296,210814,,,A*41
$IIVHW,,,295,M,04.5,N,,*6B
$IIVLW,53471,N,000.2,N*55
$IIVWR,048,R,08.7,N,,,,*62
$IIDPT,008.3,+0.7,*4B
$IIGLL,4612.980,N,00609.966,E,162142,A,A*54
$IIHDG,294,,,,*58
$IIMTW,+18.0,C*31
$IIMWV,048,R,08.7,N,A*10
$IIMWV,079,T,06.2,N,A*1F
$IIRMC,162142,A,4612.980,N,00609.966,E,04.8,294,210814,,,A*40
$IIVHW,,,294,M,04.5,N,,*6A
$IIVLW,53471,N,000.2,N*55
$IIVWR,047,R,08.7,N,,,,*6D
$IIDPT,008.3,+0.7,*4B
$IIGLL,4612.981,N,00609.965,E,162143,A,A*57
$IIHDG,292,,,,*5E
$IIMTW,+18.0,C*31
$IIMWV,047,R,08.7,N,A*1F
$IIMWV,079,T,06.5,N,A*18
$IIRMC,162143,A,4612.981,N,00609.965,E,04.8,291,210814,,,A*46
$IIVHW,,,292,M,04.6,N,,*6F
$IIVLW,53471,N,000.2,N*55
$IIVWR,047,R,08.7,N,,,,*6D
$IIDPT,008.3,+0.7,*4B
$IIGLL,4612.981,N,00609.963,E,162144,A,A*56
$IIHDG,292,,,,*5E
$IIMTW,+18.0,C*31
$IIMWV,047,R,08.7,N,A*1F
$IIMWV,078,T,06.4,N,A*18
$IIRMC,162145,A,4612.982,N,00609.961,E,05.0,289,210814,,,A*47
$IIVHW,,,291,M,04.6,N,,*6C
$IIVLW,53471,N,000.2,N*55
$IIVWR,046,R,08.7,N,,,,*6C
$IIDPT,008.3,+0.7,*4B
$IIGLL,4612.982,N,00609.961,E,162145,A,A*56
$IIHDG,291,,,,*5D
$IIMTW,+18.0,C*31
$IIMWV,046,R,08.7,N,A*1E
$IIMWV,078,T,06.3,N,A*1F
$IIRMC,162146,A,4612.982,N,00609.959,E,05.0,291,210814,,,A*46
$IIVHW,,,293,M,04.6,N,,*6E
$IIVLW,53471,N,000.2,N*55
$IIVWR,047,R,08.7,N,,,,*6D
$IIDPT,008.3,+0.7,*4B
$IIGLL,4612.982,N,00609.959,E,162146,A,A*5E
$IIHDG,293,,,,*5F
$IIMTW,+18.0,C*31
$IIMWV,047,R,08.9,N,A*11
$IIMWV,079,T,06.4,N,A*19
$IIRMC,162147,A,4612.983,N,00609.957,E,05.0,291,210814,,,A*48
$IIVHW,,,294,M,04.6,N,,*69
$IIVLW,53471,N,000.2,N*55
$IIVWR,047,R,08.9,N,,,,*63
$IIDPT,008.3,+0.7,*4B
$IIGLL,4612.983,N,00609.957,E,162147,A,A*50
$IIHDG,294,,,,*58
$IIMTW,+18.0,C*31
$IIMWV,046,R,08.9,N,A*10
$IIMWV,078,T,06.5,N,A*19
$IIRMC,162148,A,4612.984,N,00609.955,E,05.1,296,210814,,,A*44
$IIVHW,,,297,M,04.7,N,,*6B
$IIVLW,53471,N,000.2,N*55
$IIVWR,046,R,08.9,N,,,,*62
$IIDPT,008.3,+0.7,*4B
$IIGLL,4612.984,N,00609.955,E,162148,A,A*5A
$IIHDG,299,,,,*55
$IIMTW,+18.0,C*31
$IIMWV,045,R,09.1,N,A*1A
$IIMWV,078,T,06.5,N,A*19
$IIRMC,162149,A,4612.984,N,00609.953,E,05.1,300,210814,,,A*4D
$IIVHW,,,299,M,04.7,N,,*65
$IIVLW,53471,N,000.2,N*55
$IIVWR,045,R,09.1,N,,,,*68
$IIDPT,008.3,+0.7,*4B
$IIGLL,4612.985,N,00609.951,E,162150,A,A*56
$IIHDG,299,,,,*55
$IIMTW,+18.0,C*31
$IIMWV,044,R,09.1,N,A*1B
$IIMWV,076,T,06.5,N,A*17
$IIRMC,162150,A,4612.985,N,00609.951,E,05.1,302,210814,,,A*44
$IIVHW,,,299,M,04.7,N,,*65
$IIVLW,53471,N,000.2,N*55
$IIVWR,044,R,09.1,N,,,,*69
$IIDPT,008.3,+0.7,*4B
$IIGLL,4612.986,N,00609.950,E,162151,A,A*55
$IIHDG,300,,,,*54
$IIMTW,+18.0,C*31
$IIMWV,044,R,09.1,N,A*1B
$IIMWV,075,T,06.4,N,A*15
$IIRMC,162151,A,4612.986,N,00609.950,E,05.2,301,210814,,,A*47
$IIVHW,,,300,M,04.8,N,,*6B
$IIVLW,53471,N,000.2,N*55
$IIVWR,044,R,09.1,N,,,,*69
$IIDPT,008.3,+0.7,*4B
$IIGLL,4612.987,N,00609.948,E,162152,A,A*5E
$IIHDG,301,,,,*55
$IIMTW,+18.0,C*31
$IIMWV,044,R,09.1,N,A*1B
$IIMWV,075,T,06.4,N,A*15
$IIRMC,162152,A,4612.987,N,00609.948,E,05.2,300,210814,,,A*4D
$IIVHW,,,301,M,04.9,N,,*6B
$IIVLW,53471,N,000.2,N*55
$IIVWR,043,R,08.9,N,,,,*67
$IIDPT,008.3,+0.7,*4B
$IIGLL,4612.988,N,00609.946,E,162153,A,A*5E
$IIHDG,300,,,,*54
$IIMTW,+18.0,C*31
$IIMWV,043,R,08.9,N,A*15
$IIMWV,075,T,06.4,N,A*15
$IIRMC,162153,A,4612.988,N,00609.946,E,05.2,300,210814,,,A*4D
$IIVHW,,,300,M,04.9,N,,*6A
$IIVLW,53471,N,000.2,N*55
$IIVWR,042,R,09.1,N,,,,*6F
$IIDPT,008.3,+0.7,*4B
$IIGLL,4612.989,N,00609.945,E,162154,A,A*5B
$IIHDG,300,,,,*54
$IIMTW,+18.0,C*31
$IIMWV,042,R,09.1,N,A*1D
$IIMWV,076,T,06.1,N,A*13
$IIRMC,162155,A,4612.989,N,00609.942,E,05.6,298,210814,,,A*4A
$IIVHW,,,301,M,04.9,N,,*6B
$IIVLW,53471,N,000.2,N*55
$IIVWR,042,R,09.1,N,,,,*6F
$IIDPT,008.3,+0.7,*4B
$IIGLL,4612.989,N,00609.942,E,162155,A,A*5D
$IIHDG,301,,,,*55
$IIMTW,+18.0,C*31
$IIMWV,042,R,09.1,N,A*1D
$IIMWV,073,T,06.2,N,A*15
$IIRMC,162156,A,4612.990,N,00609.940,E,04.9,301,210814,,,A*4C
$IIVHW,,,301,M,04.9,N,,*6B
$IIVLW,53471,N,000.2,N*55
$IIVWR,042,R,08.9,N,,,,*66
$IIDPT,008.3,+0.7,*4B
