$IIVWR,076,R,08.5,N,,,,*6D
$IIDPT,049.1,-1.0,*4C
$IIGLL,4629.465,N,00641.184,E,180052,A,A*5E
$IIHDG,268,,,,*5B
$IIMTW,+24.0,C*3E
$IIMWV,076,R,08.5,N,A*1F
$IIMWV,115,T,08.9,N,A*11
$IIRMB,A,0.38,R,,VIDY,,,,,003.43,291,05.2,V,A*77
$IIRMC,180054,A,4629.465,N,00641.180,E,05.9,267,260608,,,A*40
$IIVHW,,,268,M,05.7,N,,*6A
$IIVWR,073,R,08.0,N,,,,*6D
$IIDPT,011.1,-1.0,*41
$IIGLL,4629.465,N,00641.180,E,180054,A,A*5C
$IIHDG,268,,,,*5B
$IIMTW,+24.0,C*3E
$IIMWV,073,R,08.0,N,A*1F
$IIMWV,115,T,08.3,N,A*1B
$IIRMB,A,0.38,R,,VIDY,,,,,003.42,291,05.4,V,A*70
$IIRMC,180054,A,4629.465,N,00641.180,E,05.9,267,260608,,,A*40
$IIVHW,,,268,M,05.7,N,,*6A
$IIVWR,071,R,08.2,N,,,,*6D
$IIDPT,011.1,-1.0,*41
$IIGLL,4629.465,N,00641.180,E,180054,A,A*5C
$IIHDG,268,,,,*5B
$IIMTW,+24.0,C*3E
$IIMWV,072,R,08.4,N,A*1A
$IIMWV,112,T,08.3,N,A*1C
$IIRMC,180056,A,4629.465,N,00641.175,E,05.8,267,260608,,,A*49
$IIVHW,,,268,M,05.7,N,,*6A
$IIVWR,072,R,08.4,N,,,,*68
$IIDPT,011.1,-1.0,*41
$IIGLL,4629.465,N,00641.175,E,180056,A,A*54
$IIHDG,269,,,,*5A
$IIMTW,+24.0,C*3E
$IIMWV,068,R,08.5,N,A*10
$IIMWV,112,T,08.5,N,A*1A
$IIRMB,A,0.38,R,,VIDY,,,,,003.42,291,05.3,V,A*77
$IIRMC,180056,A,4629.465,N,00641.175,E,05.8,267,260608,,,A*49
$IIVHW,,,269,M,05.7,N,,*6B
$IIVWR,071,R,08.6,N,,,,*69
$IIDPT,028.6,-1.0,*4C
$IIGLL,4629.465,N,00641.170,E,180058,A,A*5F
$IIHDG,272,,,,*50
$IIMTW,+24.0,C*3E
$IIMWV,071,R,08.6,N,A*1B
$IIMWV,108,T,08.3,N,A*17
$IIRMC,180058,A,4629.465,N,00641.170,E,06.2,272,260608,,,A*4F
$IIVHW,,,272,M,05.7,N,,*61
$IIVWR,070,R,08.1,N,,,,*6F
$IIDPT,028.6,-1.0,*4C
$IIGLL,4629.465,N,00641.170,E,180058,A,A*5F
$IIHDG,272,,,,*50
$IIMTW,+24.0,C*3E
$IIMWV,070,R,08.1,N,A*1D
$IIMWV,110,T,08.6,N,A*1B
$IIRMB,A,0.38,R,,VIDY,,,,,003.42,291,05.4,V,A*70
$IIRMC,180100,A,4629.465,N,00641.165,E,06.1,272,260608,,,A*44
$IIVHW,,,272,M,05.6,N,,*60
$IIVWR,070,R,08.3,N,,,,*6D
$IIDPT,028.6,-1.0,*4C
$IIGLL,4629.465,N,00641.165,E,180100,A,A*57
$IIHDG,272,,,,*50
$IIMTW,+24.0,C*3E
$IIMWV,070,R,08.3,N,A*1F
$IIMWV,110,T,08.3,N,A*1E
$IIRMB,A,0.38,R,,VIDY,,,,,003.41,291,05.8,V,A*7F
$IIRMC,180100,A,4629.465,N,00641.165,E,06.1,272,260608,,,A*44
$IIVHW,,,274,M,05.6,N,,*66
$IIVWR,068,R,08.3,N,,,,*64
$IIDPT,028.6,-1.0,*4C
$IIGLL,4629.465,N,00641.165,E,180100,A,A*57
$IIHDG,275,,,,*57
$IIMTW,+24.0,C*3E
$IIMWV,067,R,08.4,N,A*1E
$IIMWV,110,T,08.1,N,A*1C
$IIRMC,180102,A,4629.466,N,00641.160,E,05.9,275,260608,,,A*4C
$IIVHW,,,275,M,05.6,N,,*67
$IIVWR,067,R,08.4,N,,,,*6C
$IIDPT,011.4,-1.0,*44
$IIGLL,4629.466,N,00641.160,E,180102,A,A*53
$IIHDG,275,,,,*57
$IIMTW,+24.0,C*3E
$IIMWV,064,R,08.9,N,A*10
$IIMWV,108,T,08.0,N,A*14
$IIRMB,A,0.38,R,,VIDY,,,,,003.41,291,05.8,V,A*7F
$IIRMC,180102,A,4629.466,N,00641.160,E,05.9,275,260608,,,A*4C
$IIVHW,,,275,M,05.6,N,,*67
$IIVWR,062,R,09.2,N,,,,*6E
$IIDPT,011.0,-1.0,*40
$IIGLL,4629.466,N,00641.156,E,180104,A,A*50
$IIHDG,276,,,,*54
$IIMTW,+24.0,C*3E
$IIMWV,062,R,09.2,N,A*1C
$IIMWV,103,T,08.2,N,A*1D
$IIRMC,180104,A,4629.466,N,00641.156,E,05.7,275,260608,,,A*41
$IIVHW,,,276,M,05.6,N,,*64
$IIVWR,061,R,09.4,N,,,,*6B
$IIDPT,011.0,-1.0,*40
$IIGLL,4629.466,N,00641.156,E,180104,A,A*50
$IIHDG,276,,,,*54
$IIMTW,+24.0,C*3E
$IIMWV,061,R,09.4,N,A*19
$IIMWV,100,T,08.1,N,A*1D
$IIRMB,A,0.38,R,,VIDY,,,,,003.41,291,05.6,V,A*71
$IIRMC,180106,A,4629.466,N,00641.151,E,05.8,275,260608,,,A*4B
$IIVHW,,,276,M,05.6,N,,*64
$IIVWR,059,R,09.1,N,,,,*65
$IIDPT,011.2,-1.0,*42
$IIGLL,4629.466,N,00641.151,E,180106,A,A*55
$IIHDG,276,,,,*54
$IIMTW,+24.0,C*3E
$IIMWV,059,R,09.1,N,A*17
$IIMWV,097,T,07.8,N,A*14
$IIRMB,A,0.38,R,,VIDY,,,,,003.40,291,05.5,V,A*73
$IIRMC,180106,A,4629.466,N,00641.151,E,05.8,275,260608,,,A*4B
$IIVHW,,,277,M,05.7,N,,*64
$IIVWR,060,R,09.6,N,,,,*68
$IIDPT,011.2,-1.0,*42
$IIGLL,4629.466,N,00641.151,E,180106,A,A*55
$IIHDG,277,,,,*55
$IIMTW,+24.0,C*3E
$IIMWV,058,R,10.0,N,A*1F
$IIMWV,096,T,08.3,N,A*11
$IIRMC,180108,A,4629.466,N,00641.146,E,05.7,275,260608,,,A*4C
$IIVHW,,,277,M,05.6,N,,*65
$IIVWR,058,R,10.0,N,,,,*6D
$IIDPT,011.2,-1.0,*42
$IIGLL,4629.466,N,00641.146,E,180108,A,A*5D
$IIHDG,280,,,,*5D
$IIMTW,+24.0,C*3E
$IIMWV,057,R,10.6,N,A*16
$IIMWV,093,T,08.5,N,A*12
$IIRMB,A,0.38,R,,VIDY,,,,,003.40,291,05.6,V,A*70
$IIRMC,180108,A,4629.466,N,00641.146,E,05.7,275,260608,,,A*4C
$IIVHW,,,280,M,05.6,N,,*6D
$IIVWR,054,R,10.6,N,,,,*67
$IIDPT,011.4,-1.0,*44
$IIGLL,4629.467,N,00641.141,E,180110,A,A*52
$IIHDG,282,,,,*5F
$IIMTW,+24.0,C*3E
$IIMWV,054,R,10.6,N,A*15
$IIMWV,090,T,08.9,N,A*1D
$IIRMC,180110,A,4629.467,N,00641.141,E,05.7,283,260608,,,A*4A
$IIVHW,,,284,M,05.6,N,,*69
$IIVWR,052,R,10.8,N,,,,*6F
$IIDPT,011.3,-1.0,*43
$IIGLL,4629.467,N,00641.141,E,180110,A,A*52
$IIHDG,284,,,,*59
$IIMTW,+24.0,C*3E
$IIMWV,052,R,10.8,N,A*1D
$IIMWV,087,T,08.5,N,A*17
$IIRMB,A,0.38,R,,VIDY,,,,,003.40,291,05.5,V,A*73
$IIRMC,180112,A,4629.468,N,00641.137,E,05.8,284,260608,,,A*4E
$IIVHW,,,287,M,05.6,N,,*6A
$IIVWR,049,R,11.1,N,,,,*6D
$IIDPT,010.9,-1.0,*48
$IIGLL,4629.468,N,00641.137,E,180112,A,A*5E
$IIHDG,287,,,,*5A
$IIMTW,+24.0,C*3E
$IIMWV,049,R,11.1,N,A*1F
$IIMWV,078,T,08.4,N,A*16
$IIRMB,A,0.38,R,,VIDY,,,,,003.39,291,05.7,V,A*7F
$IIRMC,180114,A,4629.469,N,00641.132,E,05.7,289,260608,,,A*4E
$IIVHW,,,289,M,05.6,N,,*64
$IIVWR,046,R,11.1,N,,,,*62
$IIDPT,011.0,-1.0,*40
$IIGLL,4629.469,N,00641.132,E,180114,A,A*5C
$IIHDG,291,,,,*5D
$IIMTW,+24.0,C*3E
$IIMWV,045,R,11.6,N,A*14
$IIMWV,076,T,08.1,N,A*1D
$IIRMB,A,0.38,R,,VIDY,,,,,003.39,291,05.7,V,A*7F
$IIRMC,180114,A,4629.469,N,00641.132,E,05.7,289,260608,,,A*4E
$IIVHW,,,291,M,05.6,N,,*6D
$IIVWR,045,R,11.6,N,,,,*66
$IIDPT,011.0,-1.0,*40
$IIGLL,4629.470,N,00641.128,E,180116,A,A*5D
$IIHDG,293,,,,*5F
$IIMTW,+24.0,C*3E
$IIMWV,044,R,11.9,N,A*1A
$IIMWV,073,T,08.6,N,A*1F
$IIRMC,180116,A,4629.470,N,00641.128,E,05.6,292,260608,,,A*44
$IIVHW,,,293,M,05.5,N,,*6C
$IIVWR,042,R,12.7,N,,,,*63
$IIDPT,070.5,-1.0,*42
$IIGLL,4629.470,N,00641.128,E,180116,A,A*5D
$IIHDG,297,,,,*5B
$IIMTW,+23.5,C*3C
$IIMWV,042,R,12.7,N,A*11
$IIMWV,070,T,08.6,N,A*1C
$IIRMB,A,0.38,R,,VIDY,,,,,003.39,291,05.7,V,A*7F
$IIRMC,180118,A,4629.471,N,00641.124,E,05.6,299,260608,,,A*4C
$IIVHW,,,301,M,05.5,N,,*66
$IIVWR,040,R,13.0,N,,,,*67
$IIDPT,062.6,-1.0,*42
$IIGLL,4629.471,N,00641.124,E,180118,A,A*5E
$IIHDG,301,,,,*55
$IIMTW,+23.5,C*3C
$IIMWV,040,R,13.0,N,A*15
$IIMWV,062,T,09.3,N,A*1B
$IIRMC,180118,A,4629.471,N,00641.124,E,05.6,299,260608,,,A*4C
$IIVHW,,,308,M,05.5,N,,*6F
$IIVWR,036,R,13.5,N,,,,*63
$IIDPT,065.1,-1.0,*42
$IIGLL,4629.471,N,00641.124,E,180118,A,A*5E
$IIHDG,308,,,,*5C
$IIMTW,+23.5,C*3C
$IIMWV,033,R,13.7,N,A*16
$IIMWV,056,T,09.5,N,A*1A
$IIRMC,180120,A,4629.474,N,00641.121,E,05.8,313,260608,,,A*4A
$IIVHW,,,312,M,05.4,N,,*65
$IIVWR,033,R,13.7,N,,,,*64
$IIDPT,065.1,-1.0,*42
$IIGLL,4629.474,N,00641.121,E,180120,A,A*55
$IIHDG,312,,,,*57
$IIMTW,+23.5,C*3C
$IIMWV,028,R,13.8,N,A*13
$IIMWV,051,T,09.4,N,A*1C
$IIRMB,A,0.38,R,,VIDY,,,,,003.38,291,05.0,V,A*79
$IIRMC,180120,A,4629.474,N,00641.121,E,05.8,313,260608,,,A*4A
$IIVHW,,,314,M,05.4,N,,*63
$IIVWR,028,R,13.8,N,,,,*61
$IIDPT,055.4,-1.0,*44
$IIGLL,4629.476,N,00641.118,E,180122,A,A*5F
$IIHDG,314,,,,*51
$IIMTW,+23.5,C*3C
$IIMWV,027,R,13.6,N,A*12
$IIMWV,044,T,09.1,N,A*1D
$IIRMC,180122,A,4629.476,N,00641.118,E,05.4,317,260608,,,A*48
$IIVHW,,,314,M,05.4,N,,*63
$IIVWR,027,R,13.6,N,,,,*60
$IIDPT,055.4,-1.0,*44
$IIGLL,4629.476,N,00641.118,E,180122,A,A*5F
$IIHDG,317,,,,*52
$IIMTW,+23.5,C*3C
$IIMWV,025,R,13.8,N,A*1E
$IIMWV,042,T,09.0,N,A*1A
$IIRMB,A,0.38,R,,VIDY,,,,,003.38,291,05.1,V,A*78
$IIRMC,180122,A,4629.476,N,00641.118,E,05.4,317,260608,,,A*48
$IIVHW,,,317,M,05.4,N,,*60
$IIVWR,024,R,13.5,N,,,,*60
$IIDPT,055.4,-1.0,*44
$IIGLL,4629.478,N,00641.115,E,180124,A,A*5A
$IIHDG,318,,,,*5D
$IIMTW,+23.5,C*3C
$IIMWV,024,R,13.5,N,A*12
$IIMWV,039,T,09.1,N,A*17
$IIRMC,180124,A,4629.478,N,00641.115,E,05.3,315,260608,,,A*48
$IIVHW,,,319,M,05.3,N,,*69
$IIVWR,025,R,12.9,N,,,,*6C
$IIDPT,010.9,-1.0,*48
$IIGLL,4629.478,N,00641.115,E,180124,A,A*5A
$IIHDG,319,,,,*5C
$IIMTW,+23.5,C*3C
$IIMWV,025,R,12.9,N,A*1E
$IIMWV,039,T,08.7,N,A*10
$IIRMB,A,0.38,R,,VIDY,,,,,003.38,291,04.9,V,A*71
$IIRMC,180126,A,4629.480,N,00641.112,E,05.3,316,260608,,,A*49
$IIVHW,,,319,M,05.3,N,,*69
$IIVWR,027,R,12.9,N,,,,*6E
$IIDPT,010.8,-1.0,*49
$IIGLL,4629.480,N,00641.112,E,180126,A,A*58
$IIHDG,319,,,,*5C
$IIMTW,+23.5,C*3C
$IIMWV,027,R,12.9,N,A*1C
$IIMWV,044,T,08.4,N,A*19
$IIRMB,A,0.38,R,,VIDY,,,,,003.37,291,04.8,V,A*7F
$IIRMC,180126,A,4629.480,N,00641.112,E,05.3,316,260608,,,A*49
$IIVHW,,,318,M,05.3,N,,*68
$IIVWR,023,R,12.9,N,,,,*6A
$IIDPT,010.8,-1.0,*49
$IIGLL,4629.480,N,00641.112,E,180126,A,A*58
$IIHDG,319,,,,*5C
$IIMTW,+23.5,C*3C
$IIMWV,024,R,12.9,N,A*1F
$IIMWV,038,T,08.2,N,A*14
$IIRMC,180128,A,4629.482,N,00641.109,E,05.1,317,260608,,,A*4C
$IIVHW,,,319,M,05.2,N,,*68
$IIVWR,024,R,12.9,N,,,,*6D
$IIDPT,010.8,-1.0,*49
$IIGLL,4629.482,N,00641.109,E,180128,A,A*5E
$IIHDG,319,,,,*5C
$IIMTW,+23.5,C*3C
$IIMWV,021,R,12.5,N,A*16
$IIMWV,039,T,08.2,N,A*15
$IIRMB,A,0.37,R,,VIDY,,,,,003.37,291,04.6,V,A*7E
$IIRMC,180128,A,4629.482,N,00641.109,E,05.1,317,260608,,,A*4C
$IIVHW,,,319,M,05.2,N,,*68
$IIVWR,020,R,11.7,N,,,,*64
$IIDPT,010.8,-1.0,*49
$IIGLL,4629.484,N,00641.106,E,180130,A,A*5E
$IIHDG,316,,,,*53
$IIMTW,+23.5,C*3C
$IIMWV,020,R,11.7,N,A*16
$IIMWV,035,T,07.8,N,A*1C
$IIRMC,180130,A,4629.484,N,00641.106,E,05.0,315,260608,,,A*4F
$IIVHW,,,316,M,05.1,N,,*64
$IIVWR,022,R,11.4,N,,,,*65
$IIDPT,010.8,-1.0,*49
$IIGLL,4629.484,N,00641.106,E,180130,A,A*5E
$IIHDG,316,,,,*53
$IIMTW,+24.0,C*3E
$IIMWV,022,R,11.4,N,A*17
$IIMWV,034,T,06.9,N,A*1D
$IIRMB,A,0.37,R,,VIDY,,,,,003.37,291,04.6,V,A*7E
$IIRMC,180132,A,4629.486,N,00641.103,E,05.0,316,260608,,,A*49
$IIVHW,,,316,M,05.0,N,,*65
$IIVWR,023,R,10.9,N,,,,*68
$IIDPT,010.8,-1.0,*49
$IIGLL,4629.486,N,00641.103,E,180132,A,A*5B
$IIHDG,316,,,,*53
$IIMTW,+24.0,C*3E
$IIMWV,023,R,10.9,N,A*1A
$IIMWV,041,T,06.4,N,A*12
$IIRMB,A,0.37,R,,VIDY,,,,,003.37,291,04.6,V,A*7E
$IIRMC,180132,A,4629.486,N,00641.103,E,05.0,316,260608,,,A*49
$IIVHW,,,316,M,05.0,N,,*65
$IIVWR,022,R,11.0,N,,,,*61
$IIDPT,010.8,-1.0,*49
$IIGLL,4629.486,N,00641.103,E,180132,A,A*5B
$IIHDG,316,,,,*53
$IIMTW,+24.0,C*3E
$IIMWV,020,R,10.2,N,A*12
$IIMWV,038,T,06.4,N,A*1C
$IIRMC,180134,A,4629.488,N,00641.100,E,04.9,317,260608,,,A*4B
$IIVHW,,,316,M,05.0,N,,*65
$IIVWR,020,R,10.2,N,,,,*60
$IIDPT,010.8,-1.0,*49
$IIGLL,4629.488,N,00641.100,E,180134,A,A*50
$IIHDG,316,,,,*53
$IIMTW,+24.0,C*3E
$IIMWV,018,R,10.3,N,A*18
$IIMWV,037,T,05.6,N,A*12
$IIRMB,A,0.37,R,,VIDY,,,,,003.36,291,04.4,V,A*7D
$IIRMC,180134,A,4629.488,N,00641.100,E,04.9,317,260608,,,A*4B
$IIVHW,,,316,M,04.9,N,,*6D
$IIVWR,022,R,09.9,N,,,,*61
$IIDPT,010.8,-1.0,*49
$IIGLL,4629.490,N,00641.098,E,180136,A,A*5B
$IIHDG,316,,,,*53
$IIMTW,+24.5,C*3B
$IIMWV,022,R,09.9,N,A*13
$IIMWV,033,T,05.6,N,A*16
$IIRMC,180136,A,4629.490,N,00641.098,E,04.8,315,260608,,,A*43
$IIVHW,,,314,M,04.8,N,,*6E
$IIVWR,021,R,09.3,N,,,,*68
$IIDPT,010.8,-1.0,*49
$IIGLL,4629.490,N,00641.098,E,180136,A,A*5B
$IIHDG,314,,,,*51
$IIMTW,+24.0,C*3E
$IIMWV,021,R,09.3,N,A*1A
$IIMWV,040,T,05.6,N,A*12
$IIRMB,A,0.37,R,,VIDY,,,,,003.36,291,04.3,V,A*7A
$IIRMC,180138,A,4629.492,N,00641.095,E,04.6,314,260608,,,A*4D
$IIVHW,,,313,M,04.8,N,,*69
$IIVWR,018,R,09.7,N,,,,*66
$IIDPT,010.8,-1.0,*49
$IIGLL,4629.492,N,00641.095,E,180138,A,A*5A
$IIHDG,313,,,,*56
$IIMTW,+24.0,C*3E
$IIMWV,018,R,09.7,N,A*14
$IIMWV,035,T,05.2,N,A*14
$IIRMB,A,0.37,R,,VIDY,,,,,003.36,290,04.3,V,A*7B
$IIRMC,180138,A,4629.492,N,00641.095,E,04.6,314,260608,,,A*4D
$IIVHW,,,313,M,04.7,N,,*66
$IIVWR,018,R,09.3,N,,,,*62
$IIDPT,010.8,-1.0,*49
$IIGLL,4629.492,N,00641.095,E,180138,A,A*5A
$IIHDG,313,,,,*56
$IIMTW,+24.5,C*3B
$IIMWV,018,R,09.3,N,A*10
$IIMWV,035,T,04.8,N,A*1F
$IIRMC,180140,A,4629.494,N,00641.092,E,04.4,311,260608,,,A*44
$IIVHW,,,313,M,04.7,N,,*66
$IIVWR,018,R,09.3,N,,,,*62
$IIDPT,010.8,-1.0,*49
$IIGLL,4629.494,N,00641.092,E,180140,A,A*54
$IIHDG,312,,,,*57
$IIMTW,+24.0,C*3E
$IIMWV,020,R,09.0,N,A*18
$IIMWV,034,T,04.9,N,A*1F
$IIRMB,A,0.37,R,,VIDY,,,,,003.36,290,04.2,V,A*7A
$IIRMC,180140,A,4629.494,N,00641.092,E,04.4,311,260608,,,A*44
$IIVHW,,,312,M,04.6,N,,*66
$IIVWR,020,R,09.3,N,,,,*69
$IIDPT,010.8,-1.0,*49
$IIGLL,4629.496,N,00641.090,E,180142,A,A*56
$IIHDG,312,,,,*57
$IIMTW,+24.0,C*3E
$IIMWV,020,R,09.3,N,A*1B
$IIMWV,039,T,04.7,N,A*1C
$IIRMC,180142,A,4629.496,N,00641.090,E,04.5,313,260608,,,A*45
$IIVHW,,,312,M,04.5,N,,*65
$IIVWR,019,R,09.0,N,,,,*60
$IIDPT,010.8,-1.0,*49
$IIGLL,4629.496,N,00641.090,E,180142,A,A*56
$IIHDG,312,,,,*57
$IIMTW,+24.0,C*3E
$IIMWV,019,R,09.0,N,A*12
$IIMWV,037,T,05.1,N,A*15
$IIRMB,A,0.36,R,,VIDY,,,,,003.35,290,04.1,V,A*7B
$IIRMC,180144,A,4629.497,N,00641.087,E,04.3,313,260608,,,A*42
$IIVHW,,,312,M,04.5,N,,*65
$IIVWR,019,R,09.2,N,,,,*62
$IIDPT,010.8,-1.0,*49
$IIGLL,4629.497,N,00641.087,E,180144,A,A*57
$IIHDG,312,,,,*57
$IIMTW,+24.0,C*3E
$IIMWV,019,R,09.2,N,A*10
$IIMWV,036,T,05.1,N,A*14
$IIRMB,A,0.36,R,,VIDY,,,,,003.35,290,04.0,V,A*7A
$IIRMC,180144,A,4629.497,N,00641.087,E,04.3,313,260608,,,A*42
$IIVHW,,,312,M,04.4,N,,*64
$IIVWR,018,R,08.9,N,,,,*69
$IIDPT,010.9,-1.0,*48
$IIGLL,4629.497,N,00641.087,E,180144,A,A*57
$IIHDG,313,,,,*56
$IIMTW,+24.0,C*3E
$IIMWV,016,R,08.9,N,A*15
$IIMWV,035,T,04.7,N,A*10
$IIRMC,180146,A,4629.499,N,00641.085,E,04.2,314,260608,,,A*4A
$IIVHW,,,313,M,04.4,N,,*65
$IIVWR,016,R,08.9,N,,,,*67
$IIDPT,010.9,-1.0,*48
$IIGLL,4629.499,N,00641.085,E,180146,A,A*59
$IIHDG,316,,,,*53
$IIMTW,+24.0,C*3E
$IIMWV,016,R,08.8,N,A*14
$IIMWV,030,T,04.7,N,A*15
$IIRMB,A,0.36,R,,VIDY,,,,,003.35,290,03.8,V,A*75
$IIRMC,180146,A,4629.499,N,00641.085,E,04.2,314,260608,,,A*4A
$IIVHW,,,316,M,04.3,N,,*67
$IIVWR,018,R,09.0,N,,,,*61
$IIDPT,010.9,-1.0,*48
$IIGLL,4629.501,N,00641.082,E,180148,A,A*50
$IIHDG,316,,,,*53
$IIMTW,+24.0,C*3E
$IIMWV,018,R,09.0,N,A*13
$IIMWV,031,T,04.6,N,A*15
$IIRMC,180148,A,4629.501,N,00641.082,E,04.2,319,260608,,,A*4E
$IIVHW,,,319,M,04.2,N,,*69
$IIVWR,017,R,09.2,N,,,,*6C
$IIDPT,011.0,-1.0,*40
$IIGLL,4629.501,N,00641.082,E,180148,A,A*50
$IIHDG,319,,,,*5C
$IIMTW,+24.0,C*3E
$IIMWV,017,R,09.2,N,A*1E
$IIMWV,033,T,04.9,N,A*18
$IIRMB,A,0.36,R,,VIDY,,,,,003.35,290,03.8,V,A*75
$IIRMC,180150,A,4629.503,N,00641.081,E,04.1,337,260608,,,A*49
$IIVHW,,,327,M,04.1,N,,*67
$IIVWR,018,R,09.7,N,,,,*66
$IIDPT,011.0,-1.0,*40
$IIGLL,4629.503,N,00641.081,E,180150,A,A*58
$IIHDG,327,,,,*51
$IIMTW,+24.0,C*3E
$IIMWV,018,R,09.7,N,A*14
$IIMWV,031,T,05.8,N,A*1A
$IIRMB,A,0.36,R,,VIDY,,,,,003.35,290,03.4,V,A*79
$IIRMC,180150,A,4629.503,N,00641.081,E,04.1,337,260608,,,A*49
$IIVHW,,,337,M,04.1,N,,*66
$IIVWR,017,R,10.0,N,,,,*66
$IIDPT,011.0,-1.0,*40
$IIGLL,4629.503,N,00641.081,E,180150,A,A*58
$IIHDG,346,,,,*56
$IIMTW,+24.5,C*3B
$IIMWV,013,R,10.2,N,A*12
$IIMWV,028,T,06.1,N,A*18
$IIRMC,180152,A,4629.505,N,00641.080,E,03.7,001,260608,,,A*4B
$IIVHW,,,346,M,04.1,N,,*60
$IIVWR,013,R,10.2,N,,,,*60
$IIDPT,011.0,-1.0,*40
$IIGLL,4629.505,N,00641.080,E,180152,A,A*5D
$IIHDG,359,,,,*58
$IIMTW,+24.5,C*3B
$IIMWV,008,R,10.2,N,A*18
$IIMWV,021,T,06.1,N,A*11
$IIRMC,180152,A,4629.505,N,00641.080,E,03.7,001,260608,,,A*4B
$IIVHW,,,359,M,04.0,N,,*6F
$IIVWR,008,R,10.2,N,,,,*6A
$IIDPT,011.0,-1.0,*40
$IIGLL,4629.507,N,00641.081,E,180154,A,A*58
$IIHDG,008,,,,*5F
$IIMTW,+24.5,C*3B
$IIMWV,002,R,10.0,N,A*10
$IIMWV,013,T,06.0,N,A*11
$IIRMC,180154,A,4629.507,N,00641.081,E,03.5,020,260608,,,A*4F
$IIVHW,,,008,M,04.0,N,,*68
$IIVWR,002,L,09.5,N,,,,*71
$IIDPT,011.0,-1.0,*40
$IIGLL,4629.507,N,00641.081,E,180154,A,A*58
$IIHDG,013,,,,*55
$IIMTW,+24.0,C*3E
$IIMWV,358,R,09.5,N,A*11
$IIMWV,003,T,06.0,N,A*10
$IIRMC,180154,A,4629.507,N,00641.081,E,03.5,020,260608,,,A*4F
$IIVHW,,,013,M,03.9,N,,*6C
$IIVWR,007,L,08.8,N,,,,*78
$IIDPT,011.0,-1.0,*40
$IIGLL,4629.508,N,00641.082,E,180156,A,A*56
$IIHDG,027,,,,*52
$IIMTW,+24.0,C*3E
$IIMWV,353,R,08.8,N,A*16
$IIMWV,358,T,05.6,N,A*18
$IIRMC,180156,A,4629.508,N,00641.082,E,02.8,047,260608,,,A*4C
$IIVHW,,,036,M,03.7,N,,*65
$IIVWR,018,L,08.3,N,,,,*7D
$IIDPT,011.0,-1.0,*40
$IIGLL,4629.508,N,00641.082,E,180156,A,A*56
$IIHDG,036,,,,*52
$IIMTW,+24.0,C*3E
$IIMWV,342,R,08.3,N,A*1D
$IIMWV,348,T,04.9,N,A*17
$IIRMB,A,0.35,R,,VIDY,,,,,003.34,290,-00.7,V,A*56
$IIRMC,180158,A,4629.509,N,00641.084,E,02.8,062,260608,,,A*42
$IIVHW,,,042,M,03.7,N,,*66
$IIVWR,021,L,08.4,N,,,,*70
$IIDPT,011.1,-1.0,*41
$IIGLL,4629.509,N,00641.084,E,180158,A,A*5F
$IIHDG,042,,,,*51
$IIMTW,+24.5,C*3B
$IIMWV,339,R,08.4,N,A*16
$IIMWV,324,T,05.0,N,A*15
$IIRMB,A,0.35,R,,VIDY,,,,,003.35,290,-01.6,V,A*57
$IIRMC,180158,A,4629.509,N,00641.084,E,02.8,062,260608,,,A*42
$IIVHW,,,048,M,03.6,N,,*6D
$IIVWR,025,L,08.5,N,,,,*75
$IIDPT,011.3,-1.0,*43
$IIGLL,4629.509,N,00641.084,E,180158,A,A*5F
$IIHDG,060,,,,*51
$IIMTW,+24.5,C*3B
$IIMWV,333,R,08.5,N,A*1D
$IIMWV,319,T,05.3,N,A*18
$IIRMC,180200,A,4629.510,N,00641.087,E,03.3,071,260608,,,A*4F
$IIVHW,,,060,M,03.6,N,,*67
$IIVWR,027,L,08.5,N,,,,*77
$IIDPT,011.3,-1.0,*43
$IIGLL,4629.510,N,00641.087,E,180200,A,A*5A
$IIHDG,067,,,,*56
$IIMTW,+24.0,C*3E
$IIMWV,329,R,08.6,N,A*15
$IIMWV,316,T,05.4,N,A*10
$IIRMB,A,0.35,R,,VIDY,,,,,003.35,290,-02.2,V,A*50
$IIRMC,180200,A,4629.510,N,00641.087,E,03.3,071,260608,,,A*4F
$IIVHW,,,067,M,03.5,N,,*63
$IIVWR,034,L,08.6,N,,,,*76
$IIDPT,011.4,-1.0,*44
$IIGLL,4629.510,N,00641.089,E,180202,A,A*56
$IIHDG,074,,,,*54
$IIMTW,+24.0,C*3E
$IIMWV,326,R,08.6,N,A*1A
$IIMWV,310,T,05.7,N,A*15
$IIRMC,180202,A,4629.510,N,00641.089,E,03.3,084,260608,,,A*49
$IIVHW,,,082,M,03.4,N,,*69
$IIVWR,037,L,08.6,N,,,,*75
$IIDPT,011.4,-1.0,*44
$IIGLL,4629.510,N,00641.089,E,180202,A,A*56
$IIHDG,082,,,,*5D
$IIMTW,+24.0,C*3E
$IIMWV,323,R,08.6,N,A*1F
$IIMWV,307,T,06.0,N,A*17
$IIRMB,A,0.35,R,,VIDY,,,,,003.35,290,-02.7,V,A*55
$IIRMC,180204,A,4629.510,N,00641.092,E,03.4,096,260608,,,A*41
$IIVHW,,,089,M,03.4,N,,*62
$IIVWR,042,L,08.9,N,,,,*78
$IIDPT,011.4,-1.0,*44
$IIGLL,4629.510,N,00641.092,E,180204,A,A*5A
$IIHDG,089,,,,*56
$IIMTW,+24.0,C*3E
$IIMWV,318,R,08.9,N,A*18
$IIMWV,298,T,06.6,N,A*16
$IIRMB,A,0.35,R,,VIDY,,,,,003.35,290,-03.0,V,A*53
$IIRMC,180204,A,4629.510,N,00641.092,E,03.4,096,260608,,,A*41
$IIVHW,,,096,M,03.4,N,,*6C
$IIVWR,048,L,08.8,N,,,,*73
$IIDPT,011.4,-1.0,*44
$IIGLL,4629.510,N,00641.092,E,180204,A,A*5A
$IIHDG,102,,,,*54
$IIMTW,+24.0,C*3E
$IIMWV,306,R,08.7,N,A*19
$IIMWV,290,T,06.9,N,A*11
$IIRMC,180206,A,4629.510,N,00641.094,E,03.3,102,260608,,,A*4E
$IIVHW,,,102,M,03.4,N,,*60
$IIVWR,054,L,08.7,N,,,,*71
$IIDPT,011.4,-1.0,*44
$IIGLL,4629.510,N,00641.094,E,180206,A,A*5E
$IIHDG,107,,,,*51
$IIMTW,+24.0,C*3E
$IIMWV,300,R,08.7,N,A*1F
$IIMWV,284,T,07.2,N,A*1E
$IIRMB,A,0.35,R,,VIDY,,,,,003.35,290,-03.3,V,A*50
$IIRMC,180206,A,4629.510,N,00641.094,E,03.3,102,260608,,,A*4E
$IIVHW,,,107,M,03.3,N,,*62
$IIVWR,066,L,08.2,N,,,,*75
$IIDPT,011.3,-1.0,*43
$IIGLL,4629.509,N,00641.097,E,180208,A,A*5B
$IIHDG,113,,,,*54
$IIMTW,+24.0,C*3E
$IIMWV,294,R,08.2,N,A*16
$IIMWV,277,T,07.5,N,A*15
$IIRMC,180208,A,4629.509,N,00641.097,E,03.4,105,260608,,,A*4B
$IIVHW,,,117,M,03.3,N,,*63
$IIVWR,071,L,08.9,N,,,,*78
$IIDPT,011.3,-1.0,*43
$IIGLL,4629.509,N,00641.097,E,180208,A,A*5B
$IIHDG,117,,,,*50
$IIMTW,+24.0,C*3E
$IIMWV,289,R,08.9,N,A*11
$IIMWV,269,T,07.4,N,A*1B
$IIRMB,A,0.35,R,,VIDY,,,,,003.35,290,-03.3,V,A*50
$IIRMC,180210,A,4629.509,N,00641.099,E,03.2,106,260608,,,A*49
$IIVHW,,,117,M,03.3,N,,*63
$IIVWR,075,L,08.8,N,,,,*7D
$IIDPT,011.3,-1.0,*43
$IIGLL,4629.509,N,00641.099,E,180210,A,A*5C
$IIHDG,117,,,,*50
$IIMTW,+24.5,C*3B
$IIMWV,285,R,08.8,N,A*1C
$IIMWV,262,T,08.5,N,A*1E
$IIRMB,A,0.35,R,,VIDY,,,,,003.36,290,-03.3,V,A*53
$IIRMC,180210,A,4629.509,N,00641.099,E,03.2,106,260608,,,A*49
$IIVHW,,,120,M,03.3,N,,*67
$IIVWR,079,L,09.1,N,,,,*79
$IIDPT,011.4,-1.0,*44
$IIGLL,4629.509,N,00641.099,E,180210,A,A*5C
$IIHDG,124,,,,*50
$IIMTW,+24.0,C*3E
$IIMWV,281,R,08.5,N,A*15
$IIMWV,259,T,09.0,N,A*12
$IIRMC,180212,A,4629.508,N,00641.102,E,03.9,125,260608,,,A*43
$IIVHW,,,124,M,03.3,N,,*63
$IIVWR,079,L,08.5,N,,,,*7C
$IIDPT,011.4,-1.0,*44
$IIGLL,4629.508,N,00641.102,E,180212,A,A*5C
$IIHDG,125,,,,*51
$IIMTW,+24.0,C*3E
$IIMWV,285,R,07.9,N,A*12
$IIMWV,258,T,08.4,N,A*16
$IIRMB,A,0.35,R,,VIDY,,,,,003.36,290,-03.3,V,A*53
$IIRMC,180212,A,4629.508,N,00641.102,E,03.9,125,260608,,,A*43
$IIVHW,,,125,M,03.4,N,,*65
$IIVWR,075,L,07.6,N,,,,*7C
$IIDPT,011.4,-1.0,*44
$IIGLL,4629.507,N,00641.104,E,180214,A,A*53
$IIHDG,126,,,,*52
$IIMTW,+24.0,C*3E
$IIMWV,285,R,07.6,N,A*1D
$IIMWV,260,T,07.7,N,A*11
$IIRMC,180214,A,4629.507,N,00641.104,E,03.8,127,260608,,,A*4F
$IIVHW,,,129,M,03.4,N,,*69
$IIVWR,078,L,07.5,N,,,,*72
$IIDPT,011.4,-1.0,*44
$IIGLL,4629.507,N,00641.104,E,180214,A,A*53
$IIHDG,129,,,,*5D
$IIMTW,+24.0,C*3E
$IIMWV,282,R,07.5,N,A*19
$IIMWV,258,T,07.4,N,A*19
$IIRMB,A,0.35,R,,VIDY,,,,,003.36,290,-03.7,V,A*57
$IIRMC,180216,A,4629.505,N,00641.107,E,04.1,128,260608,,,A*4D
$IIVHW,,,132,M,03.5,N,,*62
$IIVWR,079,L,08.0,N,,,,*79
$IIDPT,011.4,-1.0,*44
$IIGLL,4629.505,N,00641.107,E,180216,A,A*50
$IIHDG,132,,,,*57
$IIMTW,+24.0,C*3E
$IIMWV,281,R,08.0,N,A*10
$IIMWV,255,T,08.0,N,A*1F
$IIRMB,A,0.35,R,,VIDY,,,,,003.36,290,-04.0,V,A*57
$IIRMC,180216,A,4629.505,N,00641.107,E,04.1,128,260608,,,A*4D
$IIVHW,,,136,M,03.5,N,,*66
$IIVWR,082,L,08.3,N,,,,*7E
$IIDPT,011.4,-1.0,*44
$IIGLL,4629.505,N,00641.107,E,180216,A,A*50
$IIHDG,138,,,,*5D
$IIMTW,+24.0,C*3E
$IIMWV,278,R,08.1,N,A*17
$IIMWV,253,T,08.5,N,A*1C
$IIRMC,180218,A,4629.504,N,00641.109,E,04.1,138,260608,,,A*4D
$IIVHW,,,138,M,03.6,N,,*6B
$IIVWR,082,L,08.1,N,,,,*7C
$IIDPT,060.7,-1.0,*41
$IIGLL,4629.504,N,00641.109,E,180218,A,A*51
$IIHDG,140,,,,*52
$IIMTW,+24.0,C*3E
$IIMWV,275,R,08.3,N,A*18
$IIMWV,253,T,08.3,N,A*1A
$IIRMB,A,0.35,R,,VIDY,,,,,003.36,290,-03.8,V,A*58
$IIRMC,180218,A,4629.504,N,00641.109,E,04.1,138,260608,,,A*4D
$IIVHW,,,140,M,03.7,N,,*65
$IIVWR,086,L,08.0,N,,,,*79
$IIDPT,060.7,-1.0,*41
$IIGLL,4629.502,N,00641.112,E,180220,A,A*56
$IIHDG,143,,,,*51
$IIMTW,+24.0,C*3E
$IIMWV,274,R,08.0,N,A*1A
$IIMWV,250,T,08.8,N,A*12
$IIRMC,180220,A,4629.502,N,00641.112,E,04.5,140,260608,,,A*41
$IIVHW,,,142,M,03.8,N,,*68
$IIVWR,085,L,07.9,N,,,,*7C
$IIDPT,060.7,-1.0,*41
$IIGLL,4629.502,N,00641.112,E,180220,A,A*56
$IIHDG,142,,,,*50
$IIMTW,+24.0,C*3E
$IIMWV,275,R,07.9,N,A*1D
$IIMWV,248,T,08.6,N,A*15
$IIRMB,A,0.35,R,,VIDY,,,,,003.37,290,-03.8,V,A*59
$IIRMC,180222,A,4629.500,N,00641.114,E,04.5,143,260608,,,A*44
$IIVHW,,,144,M,03.9,N,,*6F
$IIVWR,086,L,07.7,N,,,,*71
$IIDPT,060.7,-1.0,*41
$IIGLL,4629.500,N,00641.114,E,180222,A,A*50
$IIHDG,144,,,,*56
$IIMTW,+24.0,C*3E
$IIMWV,274,R,07.7,N,A*12
$IIMWV,246,T,08.4,N,A*19
$IIRMB,A,0.36,R,,VIDY,,,,,003.37,290,-03.8,V,A*5A
$IIRMC,180222,A,4629.500,N,00641.114,E,04.5,143,260608,,,A*44
$IIVHW,,,144,M,03.9,N,,*6F
$IIVWR,082,L,07.6,N,,,,*74
$IIDPT,060.7,-1.0,*41
$IIGLL,4629.500,N,00641.114,E,180222,A,A*50
$IIHDG,145,,,,*57
$IIMTW,+24.0,C*3E
$IIMWV,278,R,07.5,N,A*1C
$IIMWV,248,T,08.0,N,A*13
$IIRMC,180222,A,4629.500,N,00641.114,E,04.5,143,260608,,,A*44
$IIVHW,,,145,M,04.0,N,,*60
$IIVWR,082,L,07.5,N,,,,*77
$IIDPT,060.7,-1.0,*41
$IIGLL,4629.498,N,00641.116,E,180224,A,A*54
$IIHDG,146,,,,*54
$IIMTW,+24.0,C*3E
$IIMWV,280,R,07.6,N,A*18
$IIMWV,248,T,07.9,N,A*15
$IIRMB,A,0.36,R,,VIDY,,,,,003.37,290,-03.9,V,A*5B
$IIRMC,180224,A,4629.498,N,00641.116,E,04.6,143,260608,,,A*43
$IIVHW,,,146,M,04.0,N,,*63
$IIVWR,079,L,07.1,N,,,,*77
$IIDPT,011.5,-1.0,*45
$IIGLL,4629.496,N,00641.118,E,180226,A,A*56
$IIHDG,146,,,,*54
$IIMTW,+24.0,C*3E
$IIMWV,281,R,07.1,N,A*1E
$IIMWV,249,T,07.9,N,A*14
$IIRMC,180226,A,4629.496,N,00641.118,E,04.6,144,260608,,,A*46
$IIVHW,,,146,M,04.1,N,,*62
$IIVWR,082,L,06.8,N,,,,*7B
$IIDPT,011.5,-1.0,*45
$IIGLL,4629.496,N,00641.118,E,180226,A,A*56
$IIHDG,146,,,,*54
$IIMTW,+24.0,C*3E
$IIMWV,278,R,06.8,N,A*10
$IIMWV,248,T,07.4,N,A*18
$IIRMB,A,0.36,R,,VIDY,,,,,003.37,290,-03.8,V,A*5A
$IIRMC,180228,A,4629.493,N,00641.120,E,04.8,146,260608,,,A*4A
$IIVHW,,,147,M,04.2,N,,*60
$IIVWR,085,L,06.7,N,,,,*73
$IIDPT,011.5,-1.0,*45
$IIGLL,4629.493,N,00641.120,E,180228,A,A*56
$IIHDG,147,,,,*55
$IIMTW,+24.0,C*3E
$IIMWV,275,R,06.7,N,A*12
$IIMWV,242,T,07.6,N,A*10
$IIRMB,A,0.36,R,,VIDY,,,,,003.37,290,-03.9,V,A*5B
$IIRMC,180228,A,4629.493,N,00641.120,E,04.8,146,260608,,,A*4A
$IIVHW,,,148,M,04.2,N,,*6F
$IIVWR,087,L,06.6,N,,,,*70
$IIDPT,014.4,-1.0,*41
$IIGLL,4629.493,N,00641.120,E,180228,A,A*56
$IIHDG,149,,,,*5B
$IIMTW,+24.0,C*3E
$IIMWV,271,R,07.0,N,A*10
$IIMWV,239,T,07.6,N,A*1C
$IIRMC,180230,A,4629.491,N,00641.122,E,04.9,147,260608,,,A*43
$IIVHW,,,149,M,04.2,N,,*6E
$IIVWR,089,L,07.0,N,,,,*79
$IIDPT,014.4,-1.0,*41
$IIGLL,4629.491,N,00641.122,E,180230,A,A*5F
$IIHDG,149,,,,*5B
$IIMTW,+24.5,C*3B
$IIMWV,274,R,06.9,N,A*1D
$IIMWV,239,T,08.1,N,A*14
$IIRMB,A,0.36,R,,VIDY,,,,,003.38,290,-03.8,V,A*55
$IIRMC,180230,A,4629.491,N,00641.122,E,04.9,147,260608,,,A*43
$IIVHW,,,149,M,04.2,N,,*6E
$IIVWR,092,L,06.8,N,,,,*7A
$IIDPT,041.1,-1.0,*44
$IIGLL,4629.489,N,00641.124,E,180232,A,A*52
$IIHDG,150,,,,*53
$IIMTW,+24.5,C*3B
$IIMWV,268,R,06.8,N,A*11
$IIMWV,240,T,07.9,N,A*1D
$IIRMC,180232,A,4629.489,N,00641.124,E,04.9,148,260608,,,A*41
$IIVHW,,,149,M,04.3,N,,*6F
$IIVWR,092,L,06.8,N,,,,*7A
$IIDPT,036.2,-1.0,*47
$IIGLL,4629.489,N,00641.124,E,180232,A,A*52
$IIHDG,149,,,,*5B
$IIMTW,+24.5,C*3B
$IIMWV,268,R,06.8,N,A*11
$IIMWV,237,T,08.1,N,A*1A
$IIRMB,A,0.37,R,,VIDY,,,,,003.38,290,-03.8,V,A*54
$IIRMC,180234,A,4629.487,N,00641.126,E,04.9,148,260608,,,A*4B
$IIVHW,,,151,M,04.3,N,,*66
$IIVWR,098,L,06.7,N,,,,*7F
$IIDPT,036.2,-1.0,*47
$IIGLL,4629.487,N,00641.126,E,180234,A,A*58
$IIHDG,151,,,,*52
$IIMTW,+24.5,C*3B
$IIMWV,262,R,06.7,N,A*14
$IIMWV,231,T,08.4,N,A*19
$IIRMB,A,0.37,R,,VIDY,,,,,003.38,290,-03.7,V,A*5B
$IIRMC,180234,A,4629.487,N,00641.126,E,04.9,148,260608,,,A*4B
$IIVHW,,,150,M,04.4,N,,*60
$IIVWR,098,L,06.2,N,,,,*7A
$IIDPT,030.0,-1.0,*43
$IIGLL,4629.487,N,00641.126,E,180234,A,A*58
$IIHDG,150,,,,*53
$IIMTW,+24.0,C*3E
$IIMWV,262,R,06.8,N,A*1B
$IIMWV,230,T,08.0,N,A*1C
$IIRMC,180236,A,4629.484,N,00641.128,E,04.9,150,260608,,,A*4D
$IIVHW,,,150,M,04.4,N,,*60
$IIVWR,098,L,06.8,N,,,,*70
$IIDPT,023.5,-1.0,*44
$IIGLL,4629.484,N,00641.128,E,180236,A,A*57
$IIHDG,150,,,,*53
$IIMTW,+24.0,C*3E
$IIMWV,266,R,06.9,N,A*1E
$IIMWV,232,T,08.5,N,A*1B
$IIRMB,A,0.37,R,,VIDY,,,,,003.38,290,-03.8,V,A*54
$IIRMC,180236,A,4629.484,N,00641.128,E,04.9,150,260608,,,A*4D
$IIVHW,,,150,M,04.4,N,,*60
$IIVWR,102,L,06.7,N,,,,*7D
$IIDPT,023.5,-1.0,*44
$IIGLL,4629.482,N,00641.130,E,180238,A,A*56
$IIHDG,150,,,,*53
$IIMTW,+24.0,C*3E
$IIMWV,258,R,06.7,N,A*1D
$IIMWV,235,T,08.4,N,A*1D
$IIRMC,180238,A,4629.482,N,00641.130,E,04.9,149,260608,,,A*44
$IIVHW,,,150,M,04.4,N,,*60
$IIVWR,093,L,06.6,N,,,,*75
$IIDPT,020.2,-1.0,*40
$IIGLL,4629.482,N,00641.130,E,180238,A,A*56
$IIHDG,150,,,,*53
$IIMTW,+24.5,C*3B
$IIMWV,267,R,06.6,N,A*10
$IIMWV,228,T,08.7,N,A*12
$IIRMB,A,0.37,R,,VIDY,,,,,003.39,291,-03.8,V,A*54
$IIRMC,180240,A,4629.480,N,00641.132,E,04.8,151,260608,,,A*43
$IIVHW,,,151,M,04.4,N,,*61
$IIVWR,098,L,06.6,N,,,,*7E
$IIDPT,024.3,-1.0,*45
$IIGLL,4629.480,N,00641.132,E,180240,A,A*59
$IIHDG,151,,,,*52
$IIMTW,+24.5,C*3B
$IIMWV,262,R,06.6,N,A*15
$IIMWV,231,T,08.3,N,A*1E
$IIRMB,A,0.37,R,,VIDY,,,,,003.39,291,-03.8,V,A*54
$IIRMC,180240,A,4629.480,N,00641.132,E,04.8,151,260608,,,A*43
$IIVHW,,,152,M,04.4,N,,*62
$IIVWR,099,L,06.6,N,,,,*7F
$IIDPT,024.3,-1.0,*45
$IIGLL,4629.480,N,00641.132,E,180240,A,A*59
$IIHDG,153,,,,*50
$IIMTW,+24.0,C*3E
$IIMWV,261,R,06.2,N,A*12
$IIMWV,230,T,08.5,N,A*19
$IIRMC,180242,A,4629.477,N,00641.134,E,04.9,150,260608,,,A*4F
$IIVHW,,,153,M,04.4,N,,*63
$IIVWR,099,L,06.2,N,,,,*7B
$IIDPT,044.3,-1.0,*43
$IIGLL,4629.475,N,00641.136,E,180244,A,A*53
$IIHDG,154,,,,*57
$IIMTW,+24.5,C*3B
$IIMWV,264,R,06.1,N,A*14
$IIMWV,231,T,07.9,N,A*1B
$IIRMB,A,0.37,R,,VIDY,,,,,003.39,291,-03.9,V,A*55
$IIRMC,180244,A,4629.475,N,00641.136,E,04.8,151,260608,,,A*49
$IIVHW,,,154,M,04.4,N,,*64
$IIVWR,094,L,05.9,N,,,,*7E
$IIDPT,060.2,-1.0,*44
$IIGLL,4629.475,N,00641.136,E,180244,A,A*53
$IIHDG,154,,,,*57
$IIMTW,+24.0,C*3E
$IIMWV,266,R,05.9,N,A*1D
$IIMWV,230,T,07.8,N,A*1B
$IIRMB,A,0.38,R,,VIDY,,,,,003.39,291,-03.7,V,A*54
$IIRMC,180246,A,4629.472,N,00641.137,E,04.7,154,260608,,,A*47
$IIVHW,,,155,M,04.4,N,,*65
$IIVWR,094,L,06.4,N,,,,*70
$IIDPT,060.2,-1.0,*44
$IIGLL,4629.472,N,00641.137,E,180246,A,A*57
$IIHDG,155,,,,*56
$IIMTW,+24.5,C*3B
$IIMWV,266,R,06.4,N,A*13
$IIMWV,233,T,08.0,N,A*1F
$IIRMB,A,0.38,R,,VIDY,,,,,003.39,291,-03.7,V,A*54
$IIRMC,180246,A,4629.472,N,00641.137,E,04.7,154,260608,,,A*47
$IIVHW,,,157,M,04.4,N,,*67
$IIVWR,093,L,06.2,N,,,,*71
$IIDPT,061.6,-1.0,*41
$IIGLL,4629.472,N,00641.137,E,180246,A,A*57
$IIHDG,155,,,,*56
$IIMTW,+24.0,C*3E
$IIMWV,267,R,05.7,N,A*12
$IIMWV,233,T,07.7,N,A*17
$IIRMC,180248,A,4629.470,N,00641.139,E,04.7,155,260608,,,A*44
$IIVHW,,,155,M,04.4,N,,*65
$IIVWR,093,L,05.7,N,,,,*77
$IIDPT,065.8,-1.0,*4B
$IIGLL,4629.470,N,00641.139,E,180248,A,A*55
$IIHDG,158,,,,*5B
$IIMTW,+24.0,C*3E
$IIMWV,266,R,05.7,N,A*13
$IIMWV,231,T,07.3,N,A*11
$IIRMB,A,0.38,R,,VIDY,,,,,003.40,291,-03.4,V,A*59
$IIRMC,180248,A,4629.470,N,00641.139,E,04.7,155,260608,,,A*44
$IIVHW,,,158,M,04.3,N,,*6F
$IIVWR,094,L,05.9,N,,,,*7E
$IIDPT,065.1,-1.0,*42
$IIGLL,4629.468,N,00641.141,E,180250,A,A*5A
$IIHDG,155,,,,*56
$IIMTW,+24.5,C*3B
$IIMWV,266,R,05.9,N,A*1D
$IIMWV,230,T,07.3,N,A*10
$IIRMC,180250,A,4629.468,N,00641.141,E,04.7,155,260608,,,A*4B
$IIVHW,,,155,M,04.3,N,,*62
$IIVWR,097,L,05.8,N,,,,*7C
$IIDPT,065.1,-1.0,*42
$IIGLL,4629.468,N,00641.141,E,180250,A,A*5A
$IIHDG,155,,,,*56
$IIMTW,+24.5,C*3B
$IIMWV,263,R,05.8,N,A*19
$IIMWV,231,T,07.6,N,A*14
$IIRMB,A,0.38,R,,VIDY,,,,,003.40,291,-03.3,V,A*5E
$IIRMC,180252,A,4629.465,N,00641.142,E,04.7,153,260608,,,A*41
$IIVHW,,,155,M,04.2,N,,*63
$IIVWR,095,L,06.2,N,,,,*77
$IIDPT,065.1,-1.0,*42
$IIGLL,4629.465,N,00641.142,E,180252,A,A*56
$IIHDG,155,,,,*56
$IIMTW,+24.5,C*3B
$IIMWV,265,R,06.2,N,A*16
$IIMWV,232,T,07.8,N,A*19
$IIRMB,A,0.38,R,,VIDY,,,,,003.40,291,-03.3,V,A*5E
$IIRMC,180252,A,4629.465,N,00641.142,E,04.7,153,260608,,,A*41
$IIVHW,,,154,M,04.2,N,,*62
$IIVWR,094,L,06.0,N,,,,*74
$IIDPT,057.7,-1.0,*45
$IIGLL,4629.465,N,00641.142,E,180252,A,A*56
$IIHDG,152,,,,*51
$IIMTW,+24.5,C*3B
$IIMWV,269,R,05.7,N,A*1C
$IIMWV,232,T,07.2,N,A*13
$IIRMB,A,0.39,R,,VIDY,,,,,003.40,291,-03.5,V,A*59
$IIRMC,180254,A,4629.463,N,00641.144,E,04.6,151,260608,,,A*44
$IIVHW,,,152,M,04.1,N,,*67
$IIVWR,091,L,05.7,N,,,,*75
$IIDPT,055.7,-1.0,*47
$IIGLL,4629.461,N,00641.146,E,180256,A,A*52
$IIHDG,151,,,,*52
$IIMTW,+24.0,C*3E
$IIMWV,271,R,05.7,N,A*15
$IIMWV,233,T,07.1,N,A*11
$IIRMC,180256,A,4629.461,N,00641.146,E,04.6,149,260608,,,A*4F
$IIVHW,,,151,M,04.1,N,,*64
$IIVWR,090,L,05.7,N,,,,*74
$IIDPT,055.7,-1.0,*47
$IIGLL,4629.461,N,00641.146,E,180256,A,A*52
$IIHDG,151,,,,*52
$IIMTW,+24.0,C*3E
$IIMWV,270,R,05.7,N,A*14
$IIMWV,234,T,07.0,N,A*17
$IIRMB,A,0.39,R,,VIDY,,,,,003.40,291,-03.4,V,A*58
$IIRMC,180258,A,4629.459,N,00641.148,E,04.6,150,260608,,,A*4C
$IIVHW,,,151,M,04.1,N,,*64
$IIVWR,087,L,05.9,N,,,,*7C
$IIDPT,055.7,-1.0,*47
$IIGLL,4629.459,N,00641.148,E,180258,A,A*59
$IIHDG,151,,,,*52
$IIMTW,+24.0,C*3E
$IIMWV,273,R,05.9,N,A*19
$IIMWV,236,T,07.1,N,A*14
$IIRMB,A,0.39,R,,VIDY,,,,,003.40,291,-03.6,V,A*5A
$IIRMC,180258,A,4629.459,N,00641.148,E,04.6,150,260608,,,A*4C
$IIVHW,,,150,M,04.1,N,,*65
$IIVWR,086,L,05.9,N,,,,*7D
$IIDPT,055.7,-1.0,*47
$IIGLL,4629.459,N,00641.148,E,180258,A,A*59
$IIHDG,149,,,,*5B
$IIMTW,+24.0,C*3E
$IIMWV,276,R,06.0,N,A*16
$IIMWV,237,T,07.0,N,A*14
$IIRMC,180300,A,4629.457,N,00641.149,E,04.6,149,260608,,,A*47
$IIVHW,,,149,M,04.1,N,,*6D
$IIVWR,084,L,06.0,N,,,,*75
$IIDPT,055.7,-1.0,*47
$IIGLL,4629.457,N,00641.149,E,180300,A,A*5A
$IIHDG,149,,,,*5B
$IIMTW,+24.0,C*3E
$IIMWV,278,R,06.1,N,A*19
$IIMWV,239,T,06.9,N,A*12
$IIRMB,A,0.39,R,,VIDY,,,,,003.41,291,-03.6,V,A*5B
$IIRMC,180300,A,4629.457,N,00641.149,E,04.6,149,260608,,,A*47
$IIVHW,,,149,M,04.1,N,,*6D
$IIVWR,077,L,06.1,N,,,,*78
$IIDPT,055.7,-1.0,*47
$IIGLL,4629.454,N,00641.151,E,180302,A,A*52
$IIHDG,147,,,,*55
$IIMTW,+24.0,C*3E
$IIMWV,283,R,06.1,N,A*1D
$IIMWV,240,T,06.8,N,A*1D
$IIRMC,180302,A,4629.454,N,00641.151,E,04.6,146,260608,,,A*40
$IIVHW,,,146,M,04.1,N,,*62
$IIVWR,074,L,06.1,N,,,,*7B
$IIDPT,055.7,-1.0,*47
$IIGLL,4629.454,N,00641.151,E,180302,A,A*52
$IIHDG,146,,,,*54
$IIMTW,+24.0,C*3E
$IIMWV,286,R,06.1,N,A*18
$IIMWV,244,T,06.5,N,A*14
$IIRMB,A,0.39,R,,VIDY,,,,,003.41,291,-03.6,V,A*5B
$IIRMC,180302,A,4629.454,N,00641.151,E,04.6,146,260608,,,A*40
$IIVHW,,,145,M,04.1,N,,*61
$IIVWR,073,L,06.1,N,,,,*7C
$IIDPT,055.7,-1.0,*47
$IIGLL,4629.454,N,00641.151,E,180302,A,A*52
$IIHDG,145,,,,*57
$IIMTW,+24.0,C*3E
$IIMWV,287,R,06.1,N,A*19
$IIMWV,247,T,06.2,N,A*10
$IIRMB,A,0.40,R,,VIDY,,,,,003.41,291,-03.6,V,A*55
$IIRMC,180304,A,4629.452,N,00641.153,E,04.6,144,260608,,,A*40
$IIVHW,,,145,M,04.1,N,,*61
$IIVWR,070,L,06.1,N,,,,*7F
$IIDPT,055.7,-1.0,*47
$IIGLL,4629.452,N,00641.153,E,180304,A,A*50
$IIHDG,143,,,,*51
$IIMTW,+24.0,C*3E
$IIMWV,289,R,06.2,N,A*14
$IIMWV,250,T,06.0,N,A*14
$IIRMC,180306,A,4629.450,N,00641.156,E,04.6,143,260608,,,A*42
$IIVHW,,,143,M,04.1,N,,*67
$IIVWR,071,L,06.2,N,,,,*7D
$IIDPT,055.7,-1.0,*47
$IIGLL,4629.450,N,00641.156,E,180306,A,A*55
$IIHDG,140,,,,*52
$IIMTW,+24.0,C*3E
$IIMWV,290,R,06.3,N,A*1D
$IIMWV,250,T,06.1,N,A*15
$IIRMB,A,0.40,R,,VIDY,,,,,003.41,291,-03.9,V,A*5A
$IIRMC,180306,A,4629.450,N,00641.156,E,04.6,143,260608,,,A*42
$IIVHW,,,140,M,04.1,N,,*64
$IIVWR,068,L,06.5,N,,,,*72
$IIDPT,010.8,-1.0,*49
$IIGLL,4629.450,N,00641.156,E,180306,A,A*55
$IIHDG,138,,,,*5D
$IIMTW,+24.0,C*3E
$IIMWV,292,R,06.5,N,A*19
$IIMWV,251,T,06.2,N,A*17
$IIRMC,180306,A,4629.450,N,00641.156,E,04.6,143,260608,,,A*42
$IIVHW,,,133,M,04.1,N,,*60
$IIVWR,068,L,06.5,N,,,,*72
$IIDPT,010.7,-1.0,*46
$IIGLL,4629.448,N,00641.158,E,180308,A,A*5C
$IIHDG,133,,,,*56
$IIMTW,+24.5,C*3B
$IIMWV,292,R,06.5,N,A*19
$IIMWV,254,T,06.2,N,A*12
$IIRMB,A,0.40,R,,VIDY,,,,,003.42,291,-03.9,V,A*59
$IIRMC,180310,A,4629.447,N,00641.161,E,04.5,129,260608,,,A*48
$IIVHW,,,129,M,04.1,N,,*6B
$IIVWR,066,L,06.6,N,,,,*7F
$IIDPT,010.6,-1.0,*47
$IIGLL,4629.447,N,00641.161,E,180310,A,A*50
$IIHDG,129,,,,*5D
$IIMTW,+23.5,C*3C
$IIMWV,294,R,06.6,N,A*1C
$IIMWV,256,T,06.1,N,A*13
$IIRMB,A,0.40,R,,VIDY,,,,,003.42,291,-04.2,V,A*55
$IIRMC,180310,A,4629.447,N,00641.161,E,04.5,129,260608,,,A*48
$IIVHW,,,127,M,04.1,N,,*65
$IIVWR,065,L,06.9,N,,,,*73
$IIDPT,010.5,-1.0,*44
$IIGLL,4629.447,N,00641.161,E,180310,A,A*50
$IIHDG,126,,,,*52
$IIMTW,+23.5,C*3C
$IIMWV,297,R,07.0,N,A*18
$IIMWV,257,T,06.3,N,A*10
$IIRMC,180312,A,4629.445,N,00641.164,E,04.7,126,260608,,,A*40
$IIVHW,,,126,M,04.2,N,,*67
$IIVWR,063,L,07.0,N,,,,*7D
$IIDPT,010.5,-1.0,*44
$IIGLL,4629.445,N,00641.164,E,180312,A,A*55
$IIHDG,127,,,,*53
$IIMTW,+25.0,C*3F
$IIMWV,297,R,07.2,N,A*1A
$IIMWV,260,T,06.2,N,A*15
$IIRMB,A,0.40,R,,VIDY,,,,,003.42,291,-04.3,V,A*54
$IIRMC,180312,A,4629.445,N,00641.164,E,04.7,126,260608,,,A*40
$IIVHW,,,127,M,04.2,N,,*66
$IIVWR,063,L,07.3,N,,,,*7E
$IIDPT,010.4,-1.0,*45
$IIGLL,4629.444,N,00641.167,E,180314,A,A*51
$IIHDG,126,,,,*52
$IIMTW,+24.0,C*3E
$IIMWV,297,R,07.3,N,A*1B
$IIMWV,260,T,06.4,N,A*13
$IIRMC,180314,A,4629.444,N,00641.167,E,04.5,123,260608,,,A*43
$IIVHW,,,127,M,04.3,N,,*67
$IIVWR,065,L,07.3,N,,,,*78
$IIDPT,010.7,-1.0,*46
$IIGLL,4629.442,N,00641.170,E,180316,A,A*53
$IIHDG,127,,,,*53
$IIMTW,+24.0,C*3E
$IIMWV,295,R,07.3,N,A*19
$IIMWV,261,T,06.5,N,A*13
$IIRMB,A,0.40,R,,VIDY,,,,,003.42,291,-04.5,V,A*52
$IIRMC,180316,A,4629.442,N,00641.170,E,04.7,127,260608,,,A*47
$IIVHW,,,129,M,04.4,N,,*6E
$IIVWR,065,L,07.4,N,,,,*7F
$IIDPT,010.7,-1.0,*46
$IIGLL,4629.442,N,00641.170,E,180316,A,A*53
$IIHDG,129,,,,*5D
$IIMTW,+24.0,C*3E
$IIMWV,295,R,07.4,N,A*1E
$IIMWV,259,T,06.8,N,A*15
$IIRMB,A,0.40,R,,VIDY,,,,,003.43,291,-04.6,V,A*50
$IIRMC,180318,A,4629.440,N,00641.173,E,04.8,126,260608,,,A*46
$IIVHW,,,129,M,04.4,N,,*6E
$IIVWR,067,L,07.4,N,,,,*7D
$IIDPT,010.7,-1.0,*46
$IIGLL,4629.440,N,00641.173,E,180318,A,A*5C
$IIHDG,128,,,,*5C
$IIMTW,+24.0,C*3E
$IIMWV,290,R,07.5,N,A*1A
$IIMWV,256,T,07.0,N,A*13
$IIRMB,A,0.40,R,,VIDY,,,,,003.43,291,-04.6,V,A*50
$IIRMC,180318,A,4629.440,N,00641.173,E,04.8,126,260608,,,A*46
$IIVHW,,,128,M,04.4,N,,*6F
$IIVWR,070,L,07.5,N,,,,*7A
$IIDPT,010.7,-1.0,*46
$IIGLL,4629.440,N,00641.173,E,180318,A,A*5C
$IIHDG,128,,,,*5C
$IIMTW,+24.0,C*3E
$IIMWV,292,R,07.5,N,A*18
$IIMWV,254,T,07.2,N,A*13
$IIRMC,180318,A,4629.440,N,00641.173,E,04.8,126,260608,,,A*46
$IIVHW,,,128,M,04.5,N,,*6E
$IIVWR,069,L,07.8,N,,,,*7F
$IIDPT,010.6,-1.0,*47
$IIGLL,4629.439,N,00641.176,E,180320,A,A*5C
$IIHDG,126,,,,*52
$IIMTW,+24.0,C*3E
$IIMWV,291,R,07.8,N,A*16
$IIMWV,255,T,07.1,N,A*11
$IIRMB,A,0.40,R,,VIDY,,,,,003.43,291,-04.8,V,A*5E
$IIRMC,180320,A,4629.439,N,00641.176,E,04.9,127,260608,,,A*46
$IIVHW,,,127,M,04.6,N,,*62
$IIVWR,071,L,08.2,N,,,,*73
$IIDPT,010.6,-1.0,*47
$IIGLL,4629.439,N,00641.176,E,180320,A,A*5C
$IIHDG,127,,,,*53
$IIMTW,+24.0,C*3E
$IIMWV,289,R,08.2,N,A*1A
$IIMWV,256,T,07.9,N,A*1A
$IIRMB,A,0.41,R,,VIDY,,,,,003.43,291,-04.7,V,A*50
$IIRMC,180322,A,4629.437,N,00641.179,E,05.1,126,260608,,,A*4D
$IIVHW,,,127,M,04.6,N,,*62
$IIVWR,070,L,08.5,N,,,,*75
$IIDPT,010.6,-1.0,*47
$IIGLL,4629.437,N,00641.179,E,180322,A,A*5F
$IIHDG,127,,,,*53
$IIMTW,+24.0,C*3E
$IIMWV,291,R,08.5,N,A*14
$IIMWV,256,T,08.1,N,A*1D
$IIRMC,180322,A,4629.437,N,00641.179,E,05.1,126,260608,,,A*4D
$IIVHW,,,127,M,04.6,N,,*62
$IIVWR,069,L,08.5,N,,,,*7D
$IIDPT,010.6,-1.0,*47
$IIGLL,4629.435,N,00641.182,E,180324,A,A*5F
$IIHDG,127,,,,*53
$IIMTW,+24.0,C*3E
$IIMWV,291,R,08.6,N,A*17
$IIMWV,258,T,08.0,N,A*12
$IIRMB,A,0.41,R,,VIDY,,,,,003.44,291,-05.0,V,A*51
$IIRMC,180324,A,4629.435,N,00641.182,E,05.1,126,260608,,,A*4D
$IIVHW,,,127,M,04.7,N,,*63
$IIVWR,067,L,08.6,N,,,,*70
$IIDPT,010.6,-1.0,*47
$IIGLL,4629.435,N,00641.182,E,180324,A,A*5F
$IIHDG,126,,,,*52
$IIMTW,+24.0,C*3E
$IIMWV,293,R,08.6,N,A*15
$IIMWV,258,T,08.0,N,A*12
$IIRMC,180324,A,4629.435,N,00641.182,E,05.1,126,260608,,,A*4D
$IIVHW,,,127,M,04.7,N,,*63
$IIVWR,067,L,08.6,N,,,,*70
$IIDPT,010.6,-1.0,*47
$IIGLL,4629.434,N,00641.186,E,180326,A,A*58
$IIHDG,127,,,,*53
$IIMTW,+24.0,C*3E
$IIMWV,293,R,08.6,N,A*15
$IIMWV,260,T,08.0,N,A*19
$IIRMB,A,0.41,R,,VIDY,,,,,003.44,291,-05.0,V,A*51
$IIRMC,180328,A,4629.432,N,00641.189,E,05.4,129,260608,,,A*47
$IIVHW,,,127,M,04.8,N,,*6C
$IIVWR,067,L,08.6,N,,,,*70
$IIDPT,068.2,-1.0,*4C
$IIGLL,4629.432,N,00641.189,E,180328,A,A*5F
$IIHDG,127,,,,*53
$IIMTW,+24.0,C*3E
$IIMWV,293,R,08.6,N,A*15
$IIMWV,259,T,08.0,N,A*13
$IIRMB,A,0.41,R,,VIDY,,,,,003.44,291,-05.1,V,A*50
$IIRMC,180328,A,4629.432,N,00641.189,E,05.4,129,260608,,,A*47
$IIVHW,,,128,M,04.8,N,,*63
$IIVWR,067,L,08.6,N,,,,*70
$IIDPT,068.2,-1.0,*4C
$IIGLL,4629.432,N,00641.189,E,180328,A,A*5F
$IIHDG,129,,,,*5D
$IIMTW,+24.0,C*3E
$IIMWV,295,R,08.3,N,A*16
$IIMWV,259,T,08.0,N,A*13
$IIRMC,180328,A,4629.432,N,00641.189,E,05.4,129,260608,,,A*47
$IIVHW,,,129,M,04.8,N,,*62
$IIVWR,065,L,08.3,N,,,,*77
$IIDPT,063.2,-1.0,*47
$IIGLL,4629.430,N,00641.192,E,180330,A,A*5E
$IIHDG,129,,,,*5D
$IIMTW,+24.0,C*3E
$IIMWV,297,R,08.1,N,A*16
$IIMWV,259,T,07.6,N,A*1A
$IIRMB,A,0.41,R,,VIDY,,,,,003.44,291,-05.0,V,A*51
$IIRMC,180330,A,4629.430,N,00641.192,E,05.3,129,260608,,,A*41
$IIVHW,,,129,M,04.8,N,,*62
$IIVWR,061,L,08.0,N,,,,*70
$IIDPT,063.2,-1.0,*47
$IIGLL,4629.430,N,00641.192,E,180330,A,A*5E
$IIHDG,130,,,,*55
$IIMTW,+24.0,C*3E
$IIMWV,299,R,08.0,N,A*19
$IIMWV,260,T,07.3,N,A*15
$IIRMC,180330,A,4629.430,N,00641.192,E,05.3,129,260608,,,A*41
$IIVHW,,,130,M,04.8,N,,*6A
$IIVWR,057,L,08.1,N,,,,*74
$IIDPT,063.2,-1.0,*47
$IIGLL,4629.428,N,00641.196,E,180332,A,A*51
$IIHDG,130,,,,*55
$IIMTW,+24.0,C*3E
$IIMWV,303,R,08.1,N,A*1A
$IIMWV,261,T,06.9,N,A*1F
$IIRMB,A,0.41,R,,VIDY,,,,,003.45,291,-05.0,V,A*50
$IIRMC,180332,A,4629.428,N,00641.196,E,05.4,129,260608,,,A*49
$IIVHW,,,130,M,04.8,N,,*6A
$IIVWR,052,L,08.0,N,,,,*70
$IIDPT,063.2,-1.0,*47
$IIGLL,4629.428,N,00641.196,E,180332,A,A*51
$IIHDG,130,,,,*55
$IIMTW,+24.0,C*3E
$IIMWV,308,R,08.0,N,A*10
$IIMWV,270,T,06.3,N,A*15
$IIRMB,A,0.41,R,,VIDY,,,,,003.45,291,-05.1,V,A*51
$IIRMC,180334,A,4629.426,N,00641.199,E,05.2,131,260608,,,A*41
$IIVHW,,,131,M,04.8,N,,*6B
$IIVWR,054,L,07.8,N,,,,*71
$IIDPT,010.8,-1.0,*49
$IIGLL,4629.426,N,00641.199,E,180334,A,A*56
$IIHDG,132,,,,*57
$IIMTW,+24.0,C*3E
$IIMWV,303,R,07.8,N,A*1C
$IIMWV,267,T,06.3,N,A*13
$IIRMC,180334,A,4629.426,N,00641.199,E,05.2,131,260608,,,A*41
$IIVHW,,,132,M,04.8,N,,*68
$IIVWR,057,L,07.8,N,,,,*72
$IIDPT,010.8,-1.0,*49
$IIGLL,4629.424,N,00641.202,E,180336,A,A*57
$IIHDG,131,,,,*54
$IIMTW,+24.0,C*3E
$IIMWV,306,R,07.7,N,A*16
$IIMWV,265,T,06.5,N,A*17
$IIRMB,A,0.41,R,,VIDY,,,,,003.45,291,-04.8,V,A*59
$IIRMC,180336,A,4629.424,N,00641.202,E,05.1,130,260608,,,A*42
$IIVHW,,,131,M,04.7,N,,*64
$IIVWR,056,L,07.7,N,,,,*7C
$IIDPT,010.9,-1.0,*48
$IIGLL,4629.424,N,00641.202,E,180336,A,A*57
$IIHDG,131,,,,*54
$IIMTW,+24.0,C*3E
$IIMWV,304,R,07.7,N,A*14
$IIMWV,267,T,06.2,N,A*12
$IIRMC,180336,A,4629.424,N,00641.202,E,05.1,130,260608,,,A*42
$IIVHW,,,132,M,04.7,N,,*67
$IIVWR,060,L,08.2,N,,,,*73
$IIDPT,011.0,-1.0,*40
$IIGLL,4629.422,N,00641.205,E,180338,A,A*58
$IIHDG,132,,,,*57
$IIMTW,+24.0,C*3E
$IIMWV,300,R,08.2,N,A*1A
$IIMWV,265,T,06.3,N,A*11
$IIRMB,A,0.42,R,,VIDY,,,,,003.46,291,-04.6,V,A*57
$IIRMC,180338,A,4629.422,N,00641.205,E,05.0,132,260608,,,A*4E
$IIVHW,,,132,M,04.7,N,,*67
$IIVWR,060,L,08.3,N,,,,*72
$IIDPT,011.2,-1.0,*42
$IIGLL,4629.422,N,00641.205,E,180338,A,A*58
$IIHDG,132,,,,*57
$IIMTW,+24.0,C*3E
$IIMWV,300,R,08.3,N,A*1B
$IIMWV,265,T,07.2,N,A*11
$IIRMB,A,0.42,R,,VIDY,,,,,003.46,291,-04.7,V,A*56
$IIRMC,180340,A,4629.420,N,00641.208,E,05.0,132,260608,,,A*4E
$IIVHW,,,132,M,04.6,N,,*66
$IIVWR,061,L,08.1,N,,,,*71
$IIDPT,011.2,-1.0,*42
$IIGLL,4629.420,N,00641.208,E,180340,A,A*58
$IIHDG,132,,,,*57
$IIMTW,+24.0,C*3E
$IIMWV,298,R,08.6,N,A*1E
$IIMWV,263,T,07.0,N,A*15
$IIRMC,180340,A,4629.420,N,00641.208,E,05.0,132,260608,,,A*4E
$IIVHW,,,132,M,04.6,N,,*66
$IIVWR,062,L,08.6,N,,,,*75
$IIDPT,011.2,-1.0,*42
$IIGLL,4629.419,N,00641.211,E,180342,A,A*58
$IIHDG,132,,,,*57
$IIMTW,+24.0,C*3E
$IIMWV,295,R,08.6,N,A*13
$IIMWV,265,T,07.5,N,A*16
$IIRMB,A,0.42,R,,VIDY,,,,,003.46,291,-04.6,V,A*57
$IIRMC,180342,A,4629.419,N,00641.211,E,04.7,131,260608,,,A*4B
$IIVHW,,,132,M,04.7,N,,*67
$IIVWR,066,L,08.9,N,,,,*7E
$IIDPT,048.8,-1.0,*44
$IIGLL,4629.419,N,00641.211,E,180342,A,A*58
$IIHDG,132,,,,*57
$IIMTW,+24.0,C*3E
$IIMWV,294,R,08.9,N,A*1D
$IIMWV,262,T,07.8,N,A*1C
$IIRMC,180342,A,4629.419,N,00641.211,E,04.7,131,260608,,,A*4B
$IIVHW,,,130,M,04.7,N,,*65
$IIVWR,000,R,00.0,N,,,,*61
$IIDPT,048.8,-1.0,*44
$IIGLL,4629.417,N,00641.214,E,180344,A,A*55
$IIHDG,130,,,,*55
$IIMTW,+23.5,C*3C
$IIMWV,000,R,00.0,N,A*13
$IIMWV,262,T,08.0,N,A*1B
$IIRMB,A,0.42,R,,VIDY,,,,,003.46,291,-04.8,V,A*59
$IIRMC,180344,A,4629.417,N,00641.214,E,05.1,131,260608,,,A*41
$IIVHW,,,129,M,04.7,N,,*6D
$IIVWR,064,L,09.2,N,,,,*76
$IIDPT,048.8,-1.0,*44
$IIGLL,4629.417,N,00641.214,E,180344,A,A*55
$IIHDG,129,,,,*5D
$IIMTW,+24.0,C*3E
$IIMWV,296,R,09.2,N,A*15
$IIMWV,265,T,08.2,N,A*1E
$IIRMB,A,0.42,R,,VIDY,,,,,003.47,291,-04.8,V,A*58
$IIRMC,180346,A,4629.415,N,00641.217,E,05.2,129,260608,,,A*48
$IIVHW,,,130,M,04.7,N,,*65
$IIVWR,062,L,09.5,N,,,,*77
$IIDPT,048.8,-1.0,*44
$IIGLL,4629.415,N,00641.217,E,180346,A,A*56
$IIHDG,130,,,,*55
$IIMTW,+24.0,C*3E
$IIMWV,299,R,09.6,N,A*1E
$IIMWV,267,T,08.3,N,A*1D
$IIRMC,180346,A,4629.415,N,00641.217,E,05.2,129,260608,,,A*48
$IIVHW,,,130,M,04.8,N,,*6A
$IIVWR,061,L,09.6,N,,,,*77
$IIDPT,048.8,-1.0,*44
$IIGLL,4629.413,N,00641.220,E,180348,A,A*5A
$IIHDG,130,,,,*55
$IIMTW,+24.0,C*3E
$IIMWV,300,R,09.5,N,A*1C
$IIMWV,269,T,08.3,N,A*13
$IIRMB,A,0.42,R,,VIDY,,,,,003.47,291,-04.9,V,A*59
$IIRMC,180348,A,4629.413,N,00641.220,E,05.3,130,260608,,,A*4D
$IIVHW,,,130,M,04.8,N,,*6A
$IIVWR,062,L,09.8,N,,,,*7A
$IIDPT,036.9,-1.0,*4C
$IIGLL,4629.413,N,00641.220,E,180348,A,A*5A
$IIHDG,130,,,,*55
$IIMTW,+24.5,C*3B
$IIMWV,298,R,09.8,N,A*11
$IIMWV,269,T,08.2,N,A*12
$IIRMC,180348,A,4629.413,N,00641.220,E,05.3,130,260608,,,A*4D
$IIVHW,,,130,M,04.8,N,,*6A
$IIVWR,062,L,09.7,N,,,,*75
$IIDPT,036.9,-1.0,*4C
$IIGLL,4629.411,N,00641.223,E,180350,A,A*52
$IIHDG,130,,,,*55
$IIMTW,+24.0,C*3E
$IIMWV,298,R,09.7,N,A*1E
$IIMWV,268,T,08.6,N,A*17
$IIRMB,A,0.42,R,,VIDY,,,,,003.47,291,-05.0,V,A*51
$IIRMC,180350,A,4629.411,N,00641.223,E,05.3,130,260608,,,A*45
$IIVHW,,,129,M,04.9,N,,*63
$IIVWR,062,L,09.9,N,,,,*7B
$IIDPT,036.9,-1.0,*4C
$IIGLL,4629.411,N,00641.223,E,180350,A,A*52
$IIHDG,129,,,,*5D
$IIMTW,+24.0,C*3E
$IIMWV,298,R,09.9,N,A*10
$IIMWV,268,T,08.7,N,A*16
$IIRMB,A,0.42,R,,VIDY,,,,,003.47,291,-05.0,V,A*51
$IIRMC,180352,A,4629.409,N,00641.227,E,05.2,129,260608,,,A*43
$IIVHW,,,129,M,04.9,N,,*63
$IIVWR,062,L,09.8,N,,,,*7A
$IIDPT,010.8,-1.0,*49
$IIGLL,4629.409,N,00641.227,E,180352,A,A*5D
$IIHDG,129,,,,*5D
$IIMTW,+24.0,C*3E
$IIMWV,299,R,09.7,N,A*1F
$IIMWV,268,T,08.6,N,A*17
$IIRMC,180352,A,4629.409,N,00641.227,E,05.2,129,260608,,,A*43
$IIVHW,,,129,M,05.0,N,,*6B
$IIVWR,061,L,09.7,N,,,,*76
$IIDPT,010.8,-1.0,*49
$IIGLL,4629.407,N,00641.230,E,180354,A,A*53
$IIHDG,129,,,,*5D
$IIMTW,+23.5,C*3C
$IIMWV,298,R,09.6,N,A*1F
$IIMWV,267,T,08.4,N,A*1A
$IIRMB,A,0.43,R,,VIDY,,,,,003.48,291,-05.0,V,A*5F
$IIRMC,180354,A,4629.407,N,00641.230,E,05.6,129,260608,,,A*49
$IIVHW,,,129,M,05.0,N,,*6B
$IIVWR,063,L,09.3,N,,,,*70
$IIDPT,010.8,-1.0,*49
$IIGLL,4629.405,N,00641.233,E,180356,A,A*50
$IIHDG,129,,,,*5D
$IIMTW,+23.5,C*3C
$IIMWV,297,R,09.3,N,A*15
$IIMWV,266,T,08.4,N,A*1B
$IIRMC,180356,A,4629.405,N,00641.233,E,05.6,128,260608,,,A*4B
$IIVHW,,,131,M,05.0,N,,*62
$IIVWR,066,L,09.3,N,,,,*75
$IIDPT,010.8,-1.0,*49
$IIGLL,4629.405,N,00641.233,E,180356,A,A*50
$IIHDG,131,,,,*54
$IIMTW,+23.5,C*3C
$IIMWV,294,R,09.3,N,A*16
$IIMWV,263,T,08.2,N,A*18
$IIRMB,A,0.43,R,,VIDY,,,,,003.48,291,-05.3,V,A*5C
$IIRMC,180358,A,4629.403,N,00641.237,E,05.6,133,260608,,,A*4D
$IIVHW,,,133,M,05.1,N,,*61
$IIVWR,067,L,09.1,N,,,,*76
$IIDPT,049.9,-1.0,*44
$IIGLL,4629.403,N,00641.237,E,180358,A,A*5C
$IIHDG,133,,,,*56
$IIMTW,+23.5,C*3C
$IIMWV,293,R,09.1,N,A*13
$IIMWV,259,T,08.4,N,A*17
$IIRMB,A,0.43,R,,VIDY,,,,,003.48,291,-05.4,V,A*5B
$IIRMC,180358,A,4629.403,N,00641.237,E,05.6,133,260608,,,A*4D
$IIVHW,,,134,M,05.1,N,,*66
$IIVWR,067,L,09.2,N,,,,*75
$IIDPT,049.9,-1.0,*44
$IIGLL,4629.403,N,00641.237,E,180358,A,A*5C
$IIHDG,135,,,,*50
$IIMTW,+23.5,C*3C
$IIMWV,294,R,09.6,N,A*13
$IIMWV,258,T,08.5,N,A*17
$IIRMC,180400,A,4629.401,N,00641.240,E,05.9,136,260608,,,A*4F
$IIVHW,,,135,M,05.2,N,,*64
$IIVWR,066,L,09.6,N,,,,*70
$IIDPT,049.9,-1.0,*44
$IIGLL,4629.401,N,00641.240,E,180400,A,A*54
$IIHDG,134,,,,*51
$IIMTW,+23.5,C*3C
$IIMWV,294,R,09.8,N,A*1D
$IIMWV,261,T,08.7,N,A*1F
$IIRMB,A,0.43,R,,VIDY,,,,,003.49,291,-05.2,V,A*5C
$IIRMC,180400,A,4629.401,N,00641.240,E,05.9,136,260608,,,A*4F
$IIVHW,,,134,M,05.2,N,,*65
$IIVWR,068,L,10.1,N,,,,*71
$IIDPT,035.3,-1.0,*45
$IIGLL,4629.399,N,00641.243,E,180402,A,A*53
$IIHDG,134,,,,*51
$IIMTW,+23.5,C*3C
$IIMWV,292,R,10.1,N,A*1A
$IIMWV,262,T,08.9,N,A*12
$IIRMC,180402,A,4629.399,N,00641.243,E,05.7,131,260608,,,A*41
$IIVHW,,,132,M,05.2,N,,*63
$IIVWR,070,L,09.9,N,,,,*78
$IIDPT,035.3,-1.0,*45
$IIGLL,4629.399,N,00641.243,E,180402,A,A*53
$IIHDG,132,,,,*57
$IIMTW,+23.5,C*3C
$IIMWV,290,R,09.9,N,A*18
$IIMWV,260,T,09.4,N,A*1C
$IIRMB,A,0.43,R,,VIDY,,,,,003.49,291,-05.3,V,A*5D
$IIRMC,180404,A,4629.397,N,00641.247,E,05.8,134,260608,,,A*47
$IIVHW,,,134,M,05.3,N,,*64
$IIVWR,071,L,09.8,N,,,,*78
$IIDPT,035.3,-1.0,*45
$IIGLL,4629.397,N,00641.247,E,180404,A,A*5F
$IIHDG,134,,,,*51
$IIMTW,+23.5,C*3C
$IIMWV,289,R,09.8,N,A*11
$IIMWV,257,T,09.5,N,A*19
$IIRMB,A,0.43,R,,VIDY,,,,,003.49,291,-05.4,V,A*5A
$IIRMC,180404,A,4629.397,N,00641.247,E,05.8,134,260608,,,A*47
$IIVHW,,,135,M,05.3,N,,*65
$IIVWR,072,L,09.9,N,,,,*7A
$IIDPT,010.7,-1.0,*46
$IIGLL,4629.397,N,00641.247,E,180404,A,A*5F
$IIHDG,136,,,,*53
$IIMTW,+23.5,C*3C
$IIMWV,287,R,10.4,N,A*1B
$IIMWV,256,T,09.7,N,A*1A
$IIRMC,180406,A,4629.394,N,00641.250,E,06.2,136,260608,,,A*4B
$IIVHW,,,136,M,05.4,N,,*61
$IIVWR,073,L,10.4,N,,,,*7E
$IIDPT,010.7,-1.0,*46
$IIGLL,4629.394,N,00641.250,E,180406,A,A*58
$IIHDG,142,,,,*50
$IIMTW,+23.5,C*3C
$IIMWV,284,R,10.7,N,A*1B
$IIMWV,256,T,10.1,N,A*14
$IIRMB,A,0.43,R,,VIDY,,,,,003.49,291,-05.4,V,A*5A
$IIRMC,180406,A,4629.394,N,00641.250,E,06.2,136,260608,,,A*4B
$IIVHW,,,142,M,05.4,N,,*62
$IIVWR,079,L,10.9,N,,,,*79
$IIDPT,010.8,-1.0,*49
$IIGLL,4629.391,N,00641.253,E,180408,A,A*50
$IIHDG,153,,,,*50
$IIMTW,+23.5,C*3C
$IIMWV,281,R,10.9,N,A*10
$IIMWV,254,T,10.7,N,A*10
$IIRMC,180408,A,4629.391,N,00641.253,E,06.4,147,260608,,,A*43
$IIVHW,,,165,M,05.6,N,,*65
$IIVWR,086,L,11.3,N,,,,*72
$IIDPT,011.0,-1.0,*40
$IIGLL,4629.391,N,00641.253,E,180408,A,A*50
$IIHDG,165,,,,*55
$IIMTW,+23.5,C*3C
$IIMWV,274,R,11.3,N,A*11
$IIMWV,252,T,11.1,N,A*11
$IIRMB,A,0.44,R,,VIDY,,,,,003.50,291,-05.5,V,A*54
$IIRMC,180410,A,4629.388,N,00641.255,E,06.2,170,260608,,,A*46
$IIVHW,,,179,M,05.6,N,,*68
$IIVWR,094,L,11.1,N,,,,*73
$IIDPT,011.0,-1.0,*40
$IIGLL,4629.388,N,00641.255,E,180410,A,A*57
$IIHDG,179,,,,*58
$IIMTW,+23.5,C*3C
$IIMWV,266,R,11.1,N,A*10
$IIMWV,240,T,12.8,N,A*18
$IIRMB,A,0.44,R,,VIDY,,,,,003.50,291,-04.3,V,A*53
$IIRMC,180410,A,4629.388,N,00641.255,E,06.2,170,260608,,,A*46
$IIVHW,,,191,M,05.6,N,,*6E
$IIVWR,106,L,10.5,N,,,,*7C
$IIDPT,011.0,-1.0,*40
$IIGLL,4629.388,N,00641.255,E,180410,A,A*57
$IIHDG,204,,,,*51
$IIMTW,+23.5,C*3C
$IIMWV,239,R,09.9,N,A*1B
$IIMWV,229,T,13.1,N,A*1F
$IIRMC,180412,A,4629.385,N,00641.254,E,06.0,199,260608,,,A*4D
$IIVHW,,,204,M,05.6,N,,*61
$IIVWR,121,L,09.9,N,,,,*7D
$IIDPT,011.2,-1.0,*42
$IIGLL,4629.385,N,00641.254,E,180412,A,A*59
$IIHDG,217,,,,*53
$IIMTW,+23.5,C*3C
$IIMWV,218,R,08.6,N,A*16
$IIMWV,218,T,13.7,N,A*1B
$IIRMB,A,0.44,R,,VIDY,,,,,003.50,292,-02.0,V,A*55
$IIRMC,180412,A,4629.385,N,00641.254,E,06.0,199,260608,,,A*4D
$IIVHW,,,217,M,05.6,N,,*63
$IIVWR,169,L,07.4,N,,,,*72
$IIDPT,011.4,-1.0,*44
$IIGLL,4629.382,N,00641.251,E,180414,A,A*5D
$IIHDG,229,,,,*5E
$IIMTW,+23.5,C*3C
$IIMWV,191,R,07.4,N,A*19
$IIMWV,203,T,13.4,N,A*12
$IIRMC,180414,A,4629.382,N,00641.251,E,05.5,226,260608,,,A*48
$IIVHW,,,237,M,05.4,N,,*63
$IIVWR,160,R,07.1,N,,,,*60
$IIDPT,011.4,-1.0,*44
$IIGLL,4629.382,N,00641.251,E,180414,A,A*5D
$IIHDG,237,,,,*51
$IIMTW,+23.5,C*3C
$IIMWV,160,R,07.1,N,A*12
$IIMWV,186,T,12.8,N,A*11
$IIRMB,A,0.45,R,,VIDY,,,,,003.50,292,01.0,V,A*7A
$IIRMC,180416,A,4629.380,N,00641.248,E,05.0,248,260608,,,A*4D
$IIVHW,,,246,M,05.3,N,,*62
$IIVWR,136,R,06.9,N,,,,*6A
$IIDPT,011.4,-1.0,*44
$IIGLL,4629.380,N,00641.248,E,180416,A,A*55
$IIHDG,246,,,,*57
$IIMTW,+24.0,C*3E
$IIMWV,136,R,06.9,N,A*18
$IIMWV,155,T,11.3,N,A*17
$IIRMB,A,0.45,R,,VIDY,,,,,003.50,292,03.2,V,A*7A
$IIRMC,180416,A,4629.380,N,00641.248,E,05.0,248,260608,,,A*4D
$IIVHW,,,259,M,05.2,N,,*6D
$IIVWR,120,R,06.5,N,,,,*61
$IIDPT,011.4,-1.0,*44
$IIGLL,4629.380,N,00641.248,E,180416,A,A*55
$IIHDG,266,,,,*55
$IIMTW,+24.0,C*3E
$IIMWV,107,R,06.6,N,A*15
$IIMWV,147,T,10.1,N,A*17
$IIRMC,180418,A,4629.380,N,00641.243,E,04.3,265,260608,,,A*45
$IIVHW,,,266,M,05.1,N,,*62
$IIVWR,107,R,06.6,N,,,,*67
$IIDPT,011.4,-1.0,*44
$IIGLL,4629.380,N,00641.243,E,180418,A,A*50
$IIHDG,273,,,,*51
$IIMTW,+24.0,C*3E
$IIMWV,093,R,06.9,N,A*16
$IIMWV,138,T,09.4,N,A*12
$IIRMB,A,0.45,R,,VIDY,,,,,003.50,292,04.3,V,A*7C
$IIRMC,180418,A,4629.380,N,00641.243,E,04.3,265,260608,,,A*45
$IIVHW,,,273,M,05.1,N,,*66
$IIVWR,083,R,07.1,N,,,,*6C
$IIDPT,011.4,-1.0,*44
$IIGLL,4629.380,N,00641.240,E,180420,A,A*58
$IIHDG,279,,,,*5B
$IIMTW,+24.0,C*3E
$IIMWV,083,R,07.1,N,A*1E
$IIMWV,128,T,08.7,N,A*11
$IIRMC,180420,A,4629.380,N,00641.240,E,04.9,286,260608,,,A*4A
$IIVHW,,,284,M,05.0,N,,*6F
$IIVWR,077,R,07.6,N,,,,*60
$IIDPT,011.0,-1.0,*40
$IIGLL,4629.380,N,00641.240,E,180420,A,A*58
$IIHDG,284,,,,*59
$IIMTW,+24.0,C*3E
$IIMWV,077,R,07.6,N,A*12
$IIMWV,122,T,08.2,N,A*1E
$IIRMB,A,0.45,R,,VIDY,,,,,003.49,292,04.9,V,A*7E
$IIRMC,180422,A,4629.381,N,00641.236,E,05.1,296,260608,,,A*40
$IIVHW,,,289,M,05.0,N,,*62
$IIVWR,072,R,08.0,N,,,,*6C
$IIDPT,011.0,-1.0,*40
$IIGLL,4629.381,N,00641.236,E,180422,A,A*5A
$IIHDG,289,,,,*54
$IIMTW,+24.0,C*3E
$IIMWV,072,R,08.0,N,A*1E
$IIMWV,110,T,08.0,N,A*1D
$IIRMB,A,0.45,R,,VIDY,,,,,003.49,292,04.7,V,A*70
$IIRMC,180422,A,4629.381,N,00641.236,E,05.1,296,260608,,,A*40
$IIVHW,,,294,M,05.0,N,,*6E
$IIVWR,072,R,08.7,N,,,,*6B
$IIDPT,011.0,-1.0,*40
$IIGLL,4629.381,N,00641.236,E,180422,A,A*5A
$IIHDG,298,,,,*54
$IIMTW,+24.0,C*3E
$IIMWV,067,R,09.1,N,A*1A
$IIMWV,106,T,08.5,N,A*1F
$IIRMC,180424,A,4629.382,N,00641.233,E,04.8,295,260608,,,A*4B
$IIVHW,,,298,M,05.0,N,,*62
$IIVWR,067,R,09.1,N,,,,*68
$IIDPT,010.8,-1.0,*49
$IIGLL,4629.382,N,00641.233,E,180424,A,A*5A
$IIHDG,301,,,,*55
$IIMTW,+23.5,C*3C
$IIMWV,061,R,08.9,N,A*15
$IIMWV,100,T,08.4,N,A*18
$IIRMB,A,0.45,R,,VIDY,,,,,003.49,292,04.8,V,A*7F
$IIRMC,180424,A,4629.382,N,00641.233,E,04.8,295,260608,,,A*4B
$IIVHW,,,301,M,05.0,N,,*63
$IIVWR,000,R,00.0,N,,,,*61
$IIDPT,010.8,-1.0,*49
$IIGLL,4629.384,N,00641.229,E,180426,A,A*55
$IIHDG,303,,,,*57
$IIMTW,+23.5,C*3C
$IIMWV,000,R,00.0,N,A*13
$IIMWV,096,T,07.7,N,A*1A
$IIRMC,180426,A,4629.384,N,00641.229,E,05.0,309,260608,,,A*49
$IIVHW,,,304,M,05.0,N,,*66
$IIVWR,054,R,09.1,N,,,,*68
$IIDPT,010.8,-1.0,*49
$IIGLL,4629.384,N,00641.229,E,180426,A,A*55
$IIHDG,304,,,,*50
$IIMTW,+23.5,C*3C
$IIMWV,054,R,09.1,N,A*1A
$IIMWV,000,T,05.0,N,A*10
$IIRMB,A,0.45,R,,VIDY,,,,,003.48,292,04.6,V,A*70
$IIRMC,180428,A,4629.385,N,00641.226,E,05.1,306,260608,,,A*47
$IIVHW,,,306,M,04.9,N,,*6C
$IIVWR,054,R,09.6,N,,,,*6F
$IIDPT,010.8,-1.0,*49
$IIGLL,4629.385,N,00641.226,E,180428,A,A*55
$IIHDG,306,,,,*52
$IIMTW,+24.0,C*3E
$IIMWV,054,R,09.6,N,A*1D
$IIMWV,085,T,07.7,N,A*18
$IIRMB,A,0.45,R,,VIDY,,,,,003.48,292,05.0,V,A*77
$IIRMC,180428,A,4629.385,N,00641.226,E,05.1,306,260608,,,A*47
$IIVHW,,,310,M,04.9,N,,*6B
$IIVWR,053,R,10.0,N,,,,*66
$IIDPT,010.8,-1.0,*49
$IIGLL,4629.385,N,00641.226,E,180428,A,A*55
$IIHDG,308,,,,*5C
$IIMTW,+24.0,C*3E
$IIMWV,054,R,11.0,N,A*12
$IIMWV,083,T,08.0,N,A*16
$IIRMC,180430,A,4629.387,N,00641.223,E,04.8,310,260608,,,A*46
$IIVHW,,,308,M,04.9,N,,*62
$IIVWR,054,R,11.0,N,,,,*60
$IIDPT,010.8,-1.0,*49
$IIGLL,4629.387,N,00641.223,E,180430,A,A*5B
$IIHDG,308,,,,*5C
$IIMTW,+24.0,C*3E
$IIMWV,053,R,11.2,N,A*17
$IIMWV,081,T,09.0,N,A*15
$IIRMB,A,0.45,R,,VIDY,,,,,003.48,292,04.7,V,A*71
$IIRMC,180430,A,4629.387,N,00641.223,E,04.8,310,260608,,,A*46
$IIVHW,,,308,M,04.9,N,,*62
$IIVWR,054,R,12.0,N,,,,*63
$IIDPT,010.8,-1.0,*49
$IIGLL,4629.389,N,00641.220,E,180432,A,A*54
$IIHDG,307,,,,*53
$IIMTW,+24.0,C*3E
$IIMWV,054,R,12.0,N,A*11
$IIMWV,078,T,09.0,N,A*13
$IIRMC,180432,A,4629.389,N,00641.220,E,04.7,305,260608,,,A*42
$IIVHW,,,305,M,04.8,N,,*6E
$IIVWR,054,R,11.7,N,,,,*67
$IIDPT,010.8,-1.0,*49
$IIGLL,4629.389,N,00641.220,E,180432,A,A*54
$IIHDG,305,,,,*51
$IIMTW,+24.0,C*3E
$IIMWV,054,R,11.7,N,A*15
$IIMWV,078,T,09.9,N,A*1A
$IIRMB,A,0.45,R,,VIDY,,,,,003.48,292,04.6,V,A*70
$IIRMC,180434,A,4629.390,N,00641.217,E,04.6,300,260608,,,A*4C
$IIVHW,,,304,M,04.7,N,,*60
$IIVWR,053,R,11.5,N,,,,*62
$IIDPT,010.8,-1.0,*49
$IIGLL,4629.390,N,00641.217,E,180434,A,A*5E
$IIHDG,304,,,,*50
$IIMTW,+24.0,C*3E
$IIMWV,053,R,11.5,N,A*10
$IIMWV,077,T,09.4,N,A*18
$IIRMB,A,0.44,R,,VIDY,,,,,003.47,292,04.6,V,A*7E
$IIRMC,180434,A,4629.390,N,00641.217,E,04.6,300,260608,,,A*4C
$IIVHW,,,302,M,04.7,N,,*66
$IIVWR,051,R,11.1,N,,,,*64
$IIDPT,010.8,-1.0,*49
$IIGLL,4629.390,N,00641.217,E,180434,A,A*5E
$IIHDG,303,,,,*57
$IIMTW,+23.5,C*3C
$IIMWV,000,R,00.0,N,A*13
$IIMWV,076,T,08.8,N,A*14
$IIRMC,180436,A,4629.392,N,00641.214,E,04.6,304,260608,,,A*4B
$IIVHW,,,303,M,04.7,N,,*67
$IIVWR,000,R,00.0,N,,,,*61
$IIDPT,010.8,-1.0,*49
$IIGLL,4629.392,N,00641.214,E,180436,A,A*5D
$IIHDG,306,,,,*52
$IIMTW,+23.5,C*3C
$IIMWV,000,R,00.0,N,A*13
$IIMWV,000,T,04.7,N,A*16
$IIRMB,A,0.44,R,,VIDY,,,,,003.47,292,04.5,V,A*7D
$IIRMC,180436,A,4629.392,N,00641.214,E,04.6,304,260608,,,A*4B
$IIVHW,,,306,M,04.7,N,,*62
$IIVWR,053,R,11.3,N,,,,*64
$IIDPT,010.8,-1.0,*49
$IIGLL,4629.393,N,00641.211,E,180438,A,A*57
$IIHDG,304,,,,*50
$IIMTW,+23.5,C*3C
$IIMWV,053,R,11.3,N,A*16
$IIMWV,000,T,04.7,N,A*16
$IIRMC,180438,A,4629.393,N,00641.211,E,04.5,306,260608,,,A*40
$IIVHW,,,302,M,04.6,N,,*67
$IIVWR,000,R,00.0,N,,,,*61
$IIDPT,010.8,-1.0,*49
$IIGLL,4629.393,N,00641.211,E,180438,A,A*57
$IIHDG,302,,,,*56
$IIMTW,+23.5,C*3C
$IIMWV,000,R,00.0,N,A*13
$IIMWV,078,T,09.2,N,A*11
$IIRMC,180440,A,4629.395,N,00641.208,E,04.5,305,260608,,,A*42
$IIVHW,,,301,M,04.5,N,,*67
$IIVWR,054,R,11.5,N,,,,*65
$IIDPT,010.8,-1.0,*49
$IIGLL,4629.395,N,00641.208,E,180440,A,A*56
$IIHDG,301,,,,*55
$IIMTW,+24.5,C*3B
$IIMWV,054,R,11.5,N,A*17
$IIMWV,077,T,09.5,N,A*19
$IIRMB,A,0.44,R,,VIDY,,,,,003.47,292,04.4,V,A*7C
$IIRMC,180440,A,4629.395,N,00641.208,E,04.5,305,260608,,,A*42
$IIVHW,,,301,M,04.5,N,,*67
$IIVWR,053,R,11.4,N,,,,*63
$IIDPT,010.8,-1.0,*49
$IIGLL,4629.395,N,00641.208,E,180440,A,A*56
$IIHDG,301,,,,*55
$IIMTW,+24.5,C*3B
$IIMWV,054,R,11.4,N,A*16
$IIMWV,076,T,09.3,N,A*1E
$IIRMC,180442,A,4629.396,N,00641.205,E,04.4,304,260608,,,A*4E
$IIVHW,,,301,M,04.4,N,,*66
$IIVWR,054,R,11.4,N,,,,*64
$IIDPT,011.2,-1.0,*42
$IIGLL,4629.396,N,00641.205,E,180442,A,A*5A
$IIHDG,296,,,,*5A
$IIMTW,+24.5,C*3B
$IIMWV,055,R,11.3,N,A*10
$IIMWV,077,T,09.4,N,A*18
$IIRMB,A,0.44,R,,VIDY,,,,,003.46,292,04.3,V,A*7A
$IIRMC,180442,A,4629.396,N,00641.205,E,04.4,304,260608,,,A*4E
$IIVHW,,,296,M,04.3,N,,*6E
$IIVWR,055,R,11.1,N,,,,*60
$IIDPT,011.2,-1.0,*42
$IIGLL,4629.397,N,00641.202,E,180444,A,A*5A
$IIHDG,295,,,,*59
$IIMTW,+24.0,C*3E
$IIMWV,055,R,11.1,N,A*12
$IIMWV,078,T,09.4,N,A*17
$IIRMC,180444,A,4629.397,N,00641.202,E,04.7,317,260608,,,A*4F
$IIVHW,,,295,M,04.3,N,,*6D
$IIVWR,055,R,10.5,N,,,,*65
$IIDPT,011.2,-1.0,*42
$IIGLL,4629.397,N,00641.202,E,180444,A,A*5A
$IIHDG,295,,,,*59
$IIMTW,+24.0,C*3E
$IIMWV,055,R,10.5,N,A*17
$IIMWV,078,T,09.2,N,A*11
$IIRMB,A,0.44,R,,VIDY,,,,,003.46,292,04.4,V,A*7D
$IIRMC,180446,A,4629.399,N,00641.199,E,04.6,313,260608,,,A*47
$IIVHW,,,295,M,04.2,N,,*6C
$IIVWR,056,R,10.4,N,,,,*67
$IIDPT,011.4,-1.0,*44
$IIGLL,4629.399,N,00641.199,E,180446,A,A*57
$IIHDG,295,,,,*59
$IIMTW,+24.0,C*3E
$IIMWV,056,R,10.4,N,A*15
$IIMWV,080,T,08.7,N,A*12
$IIRMB,A,0.44,R,,VIDY,,,,,003.46,292,04.2,V,A*7B
$IIRMC,180446,A,4629.399,N,00641.199,E,04.6,313,260608,,,A*47
$IIVHW,,,295,M,04.2,N,,*6C
$IIVWR,058,R,10.2,N,,,,*6F
$IIDPT,011.4,-1.0,*44
$IIGLL,4629.399,N,00641.199,E,180446,A,A*57
$IIHDG,296,,,,*5A
$IIMTW,+24.0,C*3E
$IIMWV,058,R,09.9,N,A*1E
$IIMWV,082,T,08.6,N,A*11
$IIRMC,180448,A,4629.401,N,00641.197,E,04.6,313,260608,,,A*41
$IIVHW,,,296,M,04.2,N,,*6F
$IIVWR,058,R,09.9,N,,,,*6C
$IIDPT,011.4,-1.0,*44
$IIGLL,4629.401,N,00641.197,E,180448,A,A*51
$IIHDG,296,,,,*5A
$IIMTW,+24.0,C*3E
$IIMWV,058,R,09.5,N,A*12
$IIMWV,083,T,08.4,N,A*12
$IIRMB,A,0.44,R,,VIDY,,,,,003.46,292,04.3,V,A*7A
$IIRMC,180448,A,4629.401,N,00641.197,E,04.6,313,260608,,,A*41
$IIVHW,,,296,M,04.1,N,,*6C
$IIVWR,062,R,09.5,N,,,,*69
$IIDPT,011.3,-1.0,*43
$IIGLL,4629.403,N,00641.194,E,180450,A,A*59
$IIHDG,295,,,,*59
$IIMTW,+24.5,C*3B
$IIMWV,062,R,09.5,N,A*1B
$IIMWV,084,T,08.0,N,A*11
$IIRMC,180450,A,4629.403,N,00641.194,E,04.5,312,260608,,,A*4B
$IIVHW,,,296,M,04.1,N,,*6C
$IIVWR,063,R,09.5,N,,,,*68
$IIDPT,011.3,-1.0,*43
$IIGLL,4629.403,N,00641.194,E,180450,A,A*59
$IIHDG,296,,,,*5A
$IIMTW,+24.5,C*3B
$IIMWV,063,R,09.5,N,A*1A
$IIMWV,088,T,08.3,N,A*1E
$IIRMB,A,0.44,R,,VIDY,,,,,003.45,291,04.3,V,A*7A
$IIRMC,180450,A,4629.403,N,00641.194,E,04.5,312,260608,,,A*4B
$IIVHW,,,297,M,04.0,N,,*6C
$IIVWR,062,R,09.2,N,,,,*6E
$IIDPT,011.2,-1.0,*42
$IIGLL,4629.403,N,00641.194,E,180450,A,A*59
$IIHDG,297,,,,*5B
$IIMTW,+24.5,C*3B
$IIMWV,062,R,09.2,N,A*1C
$IIMWV,089,T,08.0,N,A*1C
$IIRMB,A,0.44,R,,VIDY,,,,,003.45,291,04.2,V,A*7B
$IIRMC,180452,A,4629.404,N,00641.191,E,04.5,312,260608,,,A*4B
$IIVHW,,,300,M,04.0,N,,*63
$IIVWR,061,R,09.0,N,,,,*6F
$IIDPT,011.2,-1.0,*42
$IIGLL,4629.404,N,00641.191,E,180452,A,A*59
$IIHDG,300,,,,*54
$IIMTW,+24.5,C*3B
$IIMWV,063,R,08.8,N,A*16
$IIMWV,088,T,07.8,N,A*1A
$IIRMC,180452,A,4629.404,N,00641.191,E,04.5,312,260608,,,A*4B
$IIVHW,,,300,M,04.0,N,,*63
$IIVWR,063,R,08.8,N,,,,*64
$IIDPT,011.2,-1.0,*42
$IIGLL,4629.406,N,00641.189,E,180454,A,A*54
$IIHDG,301,,,,*55
$IIMTW,+24.5,C*3B
$IIMWV,061,R,08.8,N,A*14
$IIMWV,091,T,07.8,N,A*12
$IIRMB,A,0.43,R,,VIDY,,,,,003.45,291,04.2,V,A*7C
$IIRMC,180454,A,4629.406,N,00641.189,E,04.3,309,260608,,,A*4A
$IIVHW,,,301,M,03.9,N,,*6C
$IIVWR,059,R,09.0,N,,,,*64
$IIDPT,011.3,-1.0,*43
$IIGLL,4629.406,N,00641.189,E,180454,A,A*54
$IIHDG,300,,,,*54
$IIMTW,+24.5,C*3B
$IIMWV,059,R,09.0,N,A*16
$IIMWV,089,T,07.6,N,A*15
$IIRMC,180454,A,4629.406,N,00641.189,E,04.3,309,260608,,,A*4A
$IIVHW,,,300,M,03.9,N,,*6D
$IIVWR,058,R,09.5,N,,,,*60
$IIDPT,011.2,-1.0,*42
$IIGLL,4629.407,N,00641.186,E,180456,A,A*58
$IIHDG,300,,,,*54
$IIMTW,+24.5,C*3B
$IIMWV,058,R,09.5,N,A*12
$IIMWV,085,T,07.7,N,A*18
$IIRMB,A,0.43,R,,VIDY,,,,,003.45,291,04.1,V,A*7F
$IIRMC,180458,A,4629.408,N,00641.183,E,03.8,298,260608,,,A*47
$IIVHW,,,299,M,03.9,N,,*6C
$IIVWR,060,R,09.5,N,,,,*6B
$IIDPT,011.2,-1.0,*42
$IIGLL,4629.408,N,00641.183,E,180458,A,A*5C
$IIHDG,299,,,,*55
$IIMTW,+24.0,C*3E
$IIMWV,060,R,09.5,N,A*19
$IIMWV,085,T,08.2,N,A*12
$IIRMB,A,0.43,R,,VIDY,,,,,003.45,291,03.8,V,A*71
