$IIGLL,4613.054,N,00610.017,E,163046,A,A*56
$IIHDG,279,,,01,E*1F
$IIMTW,+17.5,C*3B
$IIMWV,061,R,12.4,N,A*13
$IIMWV,082,T,10.1,N,A*1F
$IIRMC,163046,A,4613.054,N,00610.017,E,05.7,278,010714,01,E,A*07
$IIVHW,,,279,M,04.9,N,,*65
$IIVLW,53356,N,001.5,N*51
$IIVWR,061,R,12.4,N,,,,*61
$IIDPT,009.0,+0.7,*49
$IIGLL,4613.054,N,00610.014,E,163047,A,A*54
$IIHDG,277,,,01,E*11
$IIMTW,+17.5,C*3B
$IIMWV,063,R,11.7,N,A*11
$IIMWV,085,T,10.7,N,A*1E
$IIRMC,163047,A,4613.054,N,00610.014,E,05.3,276,010714,01,E,A*0F
$IIVHW,,,277,M,05.0,N,,*63
$IIVLW,53356,N,001.5,N*51
$IIVWR,064,R,11.9,N,,,,*6A
$IIDPT,009.0,+0.7,*49
$IIGLL,4613.054,N,00610.012,E,163048,A,A*5D
$IIHDG,276,,,01,E*10
$IIMTW,+17.5,C*3B
$IIMWV,064,R,11.9,N,A*18
$IIMWV,089,T,10.4,N,A*11
$IIRMC,163048,A,4613.054,N,00610.012,E,05.4,275,010714,01,E,A*02
$IIVHW,,,276,M,05.1,N,,*63
$IIVLW,53356,N,001.5,N*51
$IIVWR,067,R,11.4,N,,,,*64
$IIDPT,009.0,+0.7,*49
$IIGLL,4613.054,N,00610.010,E,163049,A,A*5E
$IIHDG,275,,,01,E*13
$IIMTW,+17.5,C*3B
$IIMWV,067,R,11.4,N,A*16
$IIMWV,090,T,10.7,N,A*1A
$IIRMC,163049,A,4613.054,N,00610.010,E,05.6,272,010714,01,E,A*04
$IIVHW,,,274,M,05.1,N,,*61
$IIVLW,53356,N,001.5,N*51
$IIVWR,067,R,11.9,N,,,,*69
$IIDPT,009.0,+0.7,*49
$IIGLL,4613.054,N,00610.008,E,163050,A,A*5F
$IIHDG,274,,,01,E*12
$IIMTW,+17.5,C*3B
$IIMWV,067,R,11.9,N,A*1B
$IIMWV,094,T,10.4,N,A*1D
$IIRMC,163051,A,4613.054,N,00610.005,E,05.9,270,010714,01,E,A*04
$IIVHW,,,274,M,05.1,N,,*61
$IIVLW,53356,N,001.5,N*51
$IIVWR,067,R,12.3,N,,,,*60
$IIDPT,009.0,+0.7,*49
$IIGLL,4613.054,N,00610.005,E,163051,A,A*53
$IIHDG,274,,,01,E*12
$IIMTW,+17.5,C*3B
$IIMWV,067,R,12.3,N,A*12
$IIMWV,090,T,11.4,N,A*18
$IIRMC,163054,A,4613.055,N,00609.999,E,05.8,273,010714,01,E,A*06
$IIVHW,,,275,M,05.2,N,,*63
$IIVLW,53356,N,001.5,N*51
$IIVWR,066,R,12.7,N,,,,*65
$IIDPT,009.0,+0.7,*49
$IIGLL,4613.055,N,00609.999,E,163054,A,A*53
$IIHDG,275,,,01,E*13
$IIMTW,+17.5,C*3B
$IIMWV,064,R,12.7,N,A*15
$IIMWV,090,T,11.5,N,A*19
$IIRMC,163055,A,4613.055,N,00609.997,E,05.8,275,010714,01,E,A*0F
$IIVHW,,,276,M,05.2,N,,*60
$IIVLW,53356,N,001.5,N*51
$IIVWR,064,R,12.7,N,,,,*67
$IIDPT,009.0,+0.7,*49
$IIGLL,4613.055,N,00609.997,E,163055,A,A*5C
$IIHDG,276,,,01,E*10
$IIMTW,+17.5,C*3B
$IIMWV,061,R,11.7,N,A*13
$IIMWV,089,T,11.4,N,A*10
$IIRMC,163056,A,4613.055,N,00609.995,E,05.8,278,010714,01,E,A*03
$IIVHW,,,280,M,05.2,N,,*69
$IIVLW,53356,N,001.5,N*51
$IIVWR,061,R,11.7,N,,,,*61
$IIDPT,009.0,+0.7,*49
$IIGLL,4613.055,N,00609.995,E,163056,A,A*5D
$IIHDG,282,,,01,E*1B
$IIMTW,+17.5,C*3B
$IIMWV,060,R,11.8,N,A*1D
$IIMWV,088,T,10.1,N,A*15
$IIRMC,163057,A,4613.055,N,00609.993,E,05.0,280,010714,01,E,A*0B
$IIVHW,,,282,M,05.2,N,,*6B
$IIVLW,53356,N,001.5,N*51
$IIVWR,060,R,11.8,N,,,,*6F
$IIDPT,009.0,+0.7,*49
$IIGLL,4613.056,N,00609.990,E,163058,A,A*55
$IIHDG,285,,,01,E*1C
$IIMTW,+17.5,C*3B
$IIMWV,058,R,13.1,N,A*1D
$IIMWV,087,T,10.2,N,A*19
$IIRMC,163058,A,4613.056,N,00609.990,E,05.4,284,010714,01,E,A*04
$IIVHW,,,285,M,05.2,N,,*6C
$IIVLW,53356,N,001.5,N*51
$IIVWR,058,R,13.1,N,,,,*6F
$IIDPT,009.0,+0.7,*49
$IIGLL,4613.056,N,00609.988,E,163059,A,A*5D
$IIHDG,287,,,01,E*1E
$IIMTW,+17.5,C*3B
$IIMWV,057,R,13.0,N,A*13
$IIMWV,081,T,11.2,N,A*1E
$IIRMC,163059,A,4613.056,N,00609.988,E,05.3,288,010714,01,E,A*07
$IIVHW,,,287,M,05.1,N,,*6D
$IIVLW,53356,N,001.5,N*51
$IIVWR,056,R,12.4,N,,,,*65
$IIDPT,009.0,+0.7,*49
$IIGLL,4613.057,N,00609.986,E,163100,A,A*5F
$IIHDG,289,,,01,E*10
$IIMTW,+17.5,C*3B
$IIMWV,056,R,12.4,N,A*17
$IIMWV,081,T,11.0,N,A*1C
$IIRMC,163100,A,4613.057,N,00609.986,E,05.3,289,010714,01,E,A*04
$IIVHW,,,289,M,05.1,N,,*63
$IIVLW,53356,N,001.5,N*51
$IIVWR,054,R,13.3,N,,,,*61
$IIDPT,009.0,+0.7,*49
$IIGLL,4613.057,N,00609.984,E,163101,A,A*5C
$IIHDG,290,,,01,E*18
$IIMTW,+17.5,C*3B
$IIMWV,054,R,13.3,N,A*13
$IIMWV,080,T,10.3,N,A*1F
$IIRMC,163101,A,4613.057,N,00609.984,E,05.3,289,010714,01,E,A*07
$IIVHW,,,291,M,05.0,N,,*6B
$IIVLW,53356,N,001.5,N*51
$IIVWR,056,R,13.6,N,,,,*66
$IIDPT,009.0,+0.7,*49
$IIGLL,4613.058,N,00609.982,E,163102,A,A*56
$IIHDG,291,,,01,E*19
$IIMTW,+17.5,C*3B
$IIMWV,056,R,13.6,N,A*14
$IIMWV,076,T,11.0,N,A*14
$IIRMC,163103,A,4613.058,N,00609.980,E,05.4,289,010714,01,E,A*09
$IIVHW,,,291,M,04.9,N,,*63
$IIVLW,53356,N,001.5,N*51
$IIVWR,054,R,12.8,N,,,,*6B
$IIDPT,009.0,+0.7,*49
$IIGLL,4613.058,N,00609.980,E,163103,A,A*55
$IIHDG,291,,,01,E*19
$IIMTW,+17.5,C*3B
$IIMWV,054,R,12.8,N,A*19
$IIMWV,076,T,10.5,N,A*10
$IIRMC,163104,A,4613.059,N,00609.978,E,05.4,291,010714,01,E,A*01
$IIVHW,,,292,M,04.9,N,,*60
$IIVLW,53356,N,001.5,N*51
$IIVWR,054,R,14.0,N,,,,*65
$IIDPT,009.0,+0.7,*49
$IIGLL,4613.059,N,00609.978,E,163104,A,A*54
$IIHDG,292,,,01,E*1A
$IIMTW,+17.5,C*3B
$IIMWV,054,R,13.9,N,A*19
$IIMWV,074,T,11.7,N,A*11
$IIRMC,163105,A,4613.059,N,00609.976,E,05.4,289,010714,01,E,A*07
$IIVHW,,,292,M,05.0,N,,*68
$IIVLW,53356,N,001.5,N*51
$IIVWR,054,R,13.9,N,,,,*6B
$IIDPT,009.0,+0.7,*49
$IIGLL,4613.059,N,00609.976,E,163105,A,A*5B
$IIHDG,292,,,01,E*1A
$IIMTW,+17.5,C*3B
$IIMWV,055,R,13.6,N,A*17
$IIMWV,074,T,11.6,N,A*10
$IIRMC,163106,A,4613.060,N,00609.974,E,05.4,293,010714,01,E,A*07
$IIVHW,,,291,M,05.0,N,,*6B
$IIVLW,53356,N,001.5,N*51
$IIVWR,055,R,13.6,N,,,,*65
$IIDPT,009.0,+0.7,*49
$IIGLL,4613.060,N,00609.974,E,163106,A,A*50
$IIHDG,290,,,01,E*18
$IIMTW,+17.5,C*3B
$IIMWV,055,R,13.6,N,A*17
$IIMWV,077,T,11.4,N,A*11
$IIRMC,163107,A,4613.061,N,00609.972,E,05.4,289,010714,01,E,A*0A
$IIVHW,,,290,M,05.0,N,,*6A
$IIVLW,53356,N,001.5,N*51
$IIVWR,055,R,13.6,N,,,,*65
$IIDPT,009.0,+0.7,*49
$IIGLL,4613.061,N,00609.970,E,163108,A,A*5B
$IIHDG,291,,,01,E*19
$IIMTW,+17.5,C*3B
$IIMWV,055,R,13.6,N,A*17
$IIMWV,077,T,11.4,N,A*11
$IIRMC,163108,A,4613.061,N,00609.970,E,05.4,288,010714,01,E,A*06
$IIVHW,,,291,M,05.0,N,,*6B
$IIVLW,53356,N,001.5,N*51
$IIVWR,055,R,13.6,N,,,,*65
$IIDPT,009.0,+0.7,*49
$IIGLL,4613.062,N,00609.968,E,163109,A,A*50
$IIHDG,291,,,01,E*19
$IIMTW,+17.5,C*3B
$IIMWV,055,R,13.5,N,A*14
$IIMWV,077,T,11.4,N,A*11
$IIRMC,163109,A,4613.062,N,00609.968,E,05.6,287,010714,01,E,A*00
$IIVHW,,,291,M,05.0,N,,*6B
$IIVLW,53356,N,001.5,N*51
$IIVWR,054,R,13.5,N,,,,*67
$IIDPT,009.0,+0.7,*49
$IIGLL,4613.062,N,00609.966,E,163110,A,A*56
$IIHDG,291,,,01,E*19
$IIMTW,+17.5,C*3B
$IIMWV,054,R,13.5,N,A*15
$IIMWV,077,T,11.2,N,A*17
$IIRMC,163110,A,4613.062,N,00609.966,E,05.3,289,010714,01,E,A*0D
$IIVHW,,,291,M,05.0,N,,*6B
$IIVLW,53356,N,001.5,N*51
$IIVWR,055,R,13.6,N,,,,*65
$IIDPT,009.0,+0.7,*49
$IIGLL,4613.063,N,00609.964,E,163111,A,A*54
$IIHDG,290,,,01,E*18
$IIMTW,+17.5,C*3B
$IIMWV,055,R,13.6,N,A*17
$IIMWV,075,T,11.2,N,A*15
$IIRMC,163111,A,4613.063,N,00609.964,E,05.3,289,010714,01,E,A*0F
$IIVHW,,,290,M,04.9,N,,*62
$IIVLW,53356,N,001.5,N*51
$IIVWR,055,R,13.6,N,,,,*65
$IIDPT,009.0,+0.7,*49
$IIGLL,4613.063,N,00609.962,E,163112,A,A*51
$IIHDG,290,,,01,E*18
$IIMTW,+17.5,C*3B
$IIMWV,055,R,13.6,N,A*17
$IIMWV,076,T,11.4,N,A*10
$IIRMC,163113,A,4613.064,N,00609.960,E,05.2,289,010714,01,E,A*0F
$IIVHW,,,290,M,04.9,N,,*62
$IIVLW,53356,N,001.5,N*51
$IIVWR,056,R,13.6,N,,,,*66
$IIDPT,009.0,+0.7,*49
$IIGLL,4613.064,N,00609.960,E,163113,A,A*55
$IIHDG,290,,,01,E*18
$IIMTW,+17.5,C*3B
$IIMWV,056,R,13.6,N,A*14
$IIMWV,077,T,11.4,N,A*11
$IIRMC,163113,A,4613.064,N,00609.960,E,05.2,289,010714,01,E,A*0F
$IIVHW,,,291,M,04.9,N,,*63
$IIVLW,53356,N,001.5,N*51
$IIVWR,055,R,13.5,N,,,,*66
$IIDPT,009.0,+0.7,*49
$IIGLL,4613.064,N,00609.960,E,163113,A,A*55
$IIHDG,291,,,01,E*19
$IIMTW,+17.5,C*3B
$IIMWV,056,R,13.5,N,A*17
$IIMWV,076,T,11.3,N,A*17
$IIRMC,163115,A,4613.065,N,00609.956,E,05.2,290,010714,01,E,A*05
$IIVHW,,,291,M,04.9,N,,*63
$IIVLW,53356,N,001.5,N*51
$IIVWR,056,R,13.5,N,,,,*65
$IIDPT,009.0,+0.7,*49
$IIGLL,4613.065,N,00609.956,E,163115,A,A*57
$IIHDG,291,,,01,E*19
$IIMTW,+17.5,C*3B
$IIMWV,055,R,13.3,N,A*12
$IIMWV,077,T,11.4,N,A*11
$IIRMC,163116,A,4613.065,N,00609.954,E,05.2,288,010714,01,E,A*0D
$IIVHW,,,290,M,04.8,N,,*63
$IIVLW,53356,N,001.5,N*51
$IIVWR,055,R,13.3,N,,,,*60
$IIDPT,009.0,+0.7,*49
$IIGLL,4613.065,N,00609.954,E,163116,A,A*56
$IIHDG,290,,,01,E*18
$IIMTW,+17.5,C*3B
$IIMWV,055,R,13.3,N,A*12
$IIMWV,077,T,11.2,N,A*17
$IIRMC,163117,A,4613.066,N,00609.952,E,05.1,288,010714,01,E,A*0A
$IIVHW,,,290,M,04.9,N,,*62
$IIVLW,53356,N,001.5,N*51
$IIVWR,055,R,13.3,N,,,,*60
$IIDPT,009.0,+0.7,*49
$IIGLL,4613.066,N,00609.951,E,163118,A,A*5E
$IIHDG,290,,,01,E*18
$IIMTW,+17.5,C*3B
$IIMWV,056,R,13.3,N,A*11
$IIMWV,077,T,11.2,N,A*17
$IIRMC,163118,A,4613.066,N,00609.951,E,05.1,287,010714,01,E,A*09
$IIVHW,,,290,M,04.9,N,,*62
$IIVLW,53356,N,001.5,N*51
$IIVWR,056,R,13.3,N,,,,*63
$IIDPT,009.0,+0.7,*49
$IIGLL,4613.067,N,00609.949,E,163119,A,A*57
$IIHDG,291,,,01,E*19
$IIMTW,+17.5,C*3B
$IIMWV,055,R,13.3,N,A*12
$IIMWV,077,T,11.2,N,A*17
$IIRMC,163119,A,4613.067,N,00609.949,E,05.2,288,010714,01,E,A*0C
$IIVHW,,,291,M,04.9,N,,*63
$IIVLW,53356,N,001.5,N*51
$IIVWR,054,R,13.2,N,,,,*60
$IIDPT,009.0,+0.7,*49
$IIGLL,4613.067,N,00609.947,E,163120,A,A*53
$IIHDG,293,,,01,E*1B
$IIMTW,+17.5,C*3B
$IIMWV,054,R,13.2,N,A*12
$IIMWV,077,T,11.2,N,A*17
$IIRMC,163120,A,4613.067,N,00609.947,E,05.1,290,010714,01,E,A*02
$IIVHW,,,293,M,04.8,N,,*60
$IIVLW,53356,N,001.5,N*51
$IIVWR,055,R,13.2,N,,,,*61
$IIDPT,009.0,+0.7,*49
$IIGLL,4613.068,N,00609.945,E,163121,A,A*5F
$IIHDG,293,,,01,E*1B
$IIMTW,+17.5,C*3B
$IIMWV,055,R,13.2,N,A*13
$IIMWV,075,T,10.9,N,A*1F
$IIRMC,163121,A,4613.068,N,00609.945,E,05.1,290,010714,01,E,A*0E
$IIVHW,,,293,M,04.8,N,,*60
$IIVLW,53356,N,001.5,N*51
$IIVWR,055,R,14.0,N,,,,*64
$IIDPT,009.0,+0.7,*49
$IIGLL,4613.069,N,00609.943,E,163122,A,A*5B
$IIHDG,293,,,01,E*1B
$IIMTW,+17.5,C*3B
$IIMWV,055,R,14.0,N,A*16
$IIMWV,076,T,11.1,N,A*15
$IIRMC,163123,A,4613.069,N,00609.941,E,04.9,292,010714,01,E,A*02
$IIVHW,,,293,M,04.8,N,,*60
$IIVLW,53356,N,001.5,N*51
$IIVWR,055,R,13.9,N,,,,*6A
$IIDPT,009.0,+0.7,*49
$IIGLL,4613.069,N,00609.941,E,163123,A,A*58
$IIHDG,293,,,01,E*1B
$IIMTW,+17.5,C*3B
$IIMWV,055,R,13.9,N,A*18
$IIMWV,075,T,11.7,N,A*10
$IIRMC,163124,A,4613.070,N,00609.939,E,04.9,292,010714,01,E,A*02
$IIVHW,,,293,M,04.8,N,,*60
$IIVLW,53356,N,001.5,N*51
$IIVWR,054,R,13.7,N,,,,*65
$IIDPT,009.0,+0.7,*49
$IIGLL,4613.070,N,00609.939,E,163124,A,A*58
$IIHDG,293,,,01,E*1B
$IIMTW,+17.5,C*3B
$IIMWV,055,R,13.1,N,A*10
$IIMWV,074,T,11.4,N,A*12
$IIRMC,163125,A,4613.070,N,00609.937,E,04.9,290,010714,01,E,A*0F
$IIVHW,,,292,M,04.7,N,,*6E
$IIVLW,53356,N,001.5,N*51
$IIVWR,055,R,13.1,N,,,,*62
$IIDPT,009.0,+0.7,*49
$IIGLL,4613.070,N,00609.937,E,163125,A,A*57
$IIHDG,292,,,01,E*1A
$IIMTW,+17.5,C*3B
$IIMWV,055,R,13.2,N,A*13
$IIMWV,076,T,11.0,N,A*14
$IIRMC,163126,A,4613.071,N,00609.935,E,04.8,289,010714,01,E,A*06
$IIVHW,,,291,M,04.7,N,,*6D
$IIVLW,53356,N,001.5,N*51
$IIVWR,055,R,13.2,N,,,,*61
$IIDPT,009.0,+0.7,*49
$IIGLL,4613.071,N,00609.935,E,163126,A,A*57
$IIHDG,291,,,01,E*19
$IIMTW,+17.5,C*3B
$IIMWV,055,R,13.3,N,A*12
$IIMWV,075,T,11.1,N,A*16
$IIRMC,163127,A,4613.071,N,00609.933,E,04.9,289,010714,01,E,A*00
$IIVHW,,,291,M,04.6,N,,*6C
$IIVLW,53356,N,001.5,N*51
$IIVWR,055,R,13.3,N,,,,*60
$IIDPT,009.0,+0.7,*49
$IIGLL,4613.072,N,00609.932,E,163128,A,A*5D
$IIHDG,291,,,01,E*19
$IIMTW,+17.5,C*3B
$IIMWV,055,R,12.8,N,A*18
$IIMWV,075,T,11.2,N,A*15
$IIRMC,163128,A,4613.072,N,00609.932,E,04.9,290,010714,01,E,A*05
$IIVHW,,,291,M,04.6,N,,*6C
$IIVLW,53356,N,001.5,N*51
$IIVWR,055,R,12.8,N,,,,*6A
$IIDPT,009.0,+0.7,*49
$IIGLL,4613.072,N,00609.930,E,163129,A,A*5E
$IIHDG,291,,,01,E*19
$IIMTW,+17.5,C*3B
$IIMWV,055,R,13.1,N,A*10
$IIMWV,076,T,10.6,N,A*13
$IIRMC,163129,A,4613.072,N,00609.930,E,04.8,289,010714,01,E,A*0F
$IIVHW,,,291,M,04.6,N,,*6C
$IIVLW,53356,N,001.5,N*51
$IIVWR,056,R,13.2,N,,,,*62
$IIDPT,009.0,+0.7,*49
$IIGLL,4613.073,N,00609.928,E,163130,A,A*5E
$IIHDG,291,,,01,E*19
$IIMTW,+17.5,C*3B
$IIMWV,056,R,13.2,N,A*10
$IIMWV,076,T,11.0,N,A*14
$IIRMC,163130,A,4613.073,N,00609.928,E,04.8,288,010714,01,E,A*0E
$IIVHW,,,291,M,04.6,N,,*6C
$IIVLW,53356,N,001.5,N*51
$IIVWR,056,R,13.0,N,,,,*60
$IIDPT,009.0,+0.7,*49
$IIGLL,4613.073,N,00609.926,E,163131,A,A*51
$IIHDG,290,,,01,E*18
$IIMTW,+17.5,C*3B
$IIMWV,056,R,13.0,N,A*12
$IIMWV,076,T,11.2,N,A*16
$IIRMC,163131,A,4613.073,N,00609.926,E,04.8,287,010714,01,E,A*0E
$IIVHW,,,291,M,04.6,N,,*6C
$IIVLW,53356,N,001.5,N*51
$IIVWR,055,R,13.1,N,,,,*62
$IIDPT,009.0,+0.7,*49
$IIGLL,4613.074,N,00609.924,E,163132,A,A*57
$IIHDG,291,,,01,E*19
$IIMTW,+17.5,C*3B
$IIMWV,055,R,13.1,N,A*10
$IIMWV,076,T,11.0,N,A*14
$IIRMC,163133,A,4613.074,N,00609.922,E,04.8,290,010714,01,E,A*09
$IIVHW,,,291,M,04.6,N,,*6C
$IIVLW,53356,N,001.5,N*51
$IIVWR,055,R,13.2,N,,,,*61
$IIDPT,009.0,+0.7,*49
$IIGLL,4613.074,N,00609.922,E,163133,A,A*50
$IIHDG,291,,,01,E*19
$IIMTW,+17.5,C*3B
$IIMWV,055,R,13.2,N,A*13
$IIMWV,076,T,11.3,N,A*17
$IIRMC,163135,A,4613.075,N,00609.919,E,04.8,290,010714,01,E,A*06
$IIVHW,,,291,M,04.5,N,,*6F
$IIVLW,53356,N,001.5,N*51
$IIVWR,056,R,13.5,N,,,,*65
$IIDPT,009.0,+0.7,*49
$IIGLL,4613.075,N,00609.919,E,163135,A,A*5F
$IIHDG,291,,,01,E*19
$IIMTW,+17.5,C*3B
$IIMWV,055,R,13.5,N,A*14
$IIMWV,075,T,11.5,N,A*12
$IIRMC,163135,A,4613.075,N,00609.919,E,04.8,290,010714,01,E,A*06
$IIVHW,,,292,M,04.5,N,,*6C
$IIVLW,53356,N,001.5,N*51
$IIVWR,055,R,13.5,N,,,,*66
$IIDPT,009.0,+0.7,*49
$IIGLL,4613.075,N,00609.919,E,163135,A,A*5F
$IIHDG,292,,,01,E*1A
$IIMTW,+17.5,C*3B
$IIMWV,055,R,13.5,N,A*14
$IIMWV,074,T,11.4,N,A*12
$IIRMC,163137,A,4613.076,N,00609.916,E,04.8,291,010714,01,E,A*09
$IIVHW,,,293,M,04.5,N,,*6D
$IIVLW,53356,N,001.5,N*51
$IIVWR,055,R,13.5,N,,,,*66
$IIDPT,009.0,+0.7,*49
$IIGLL,4613.076,N,00609.916,E,163137,A,A*51
$IIHDG,292,,,01,E*1A
$IIMTW,+17.5,C*3B
$IIMWV,055,R,13.1,N,A*10
$IIMWV,075,T,11.4,N,A*13
$IIRMC,163138,A,4613.077,N,00609.914,E,04.7,291,010714,01,E,A*0A
$IIVHW,,,292,M,04.5,N,,*6C
$IIVLW,53356,N,001.5,N*51
$IIVWR,055,R,13.1,N,,,,*62
$IIDPT,009.0,+0.7,*49
$IIGLL,4613.077,N,00609.912,E,163139,A,A*5A
$IIHDG,292,,,01,E*1A
$IIMTW,+17.5,C*3B
$IIMWV,056,R,13.2,N,A*10
$IIMWV,075,T,11.0,N,A*17
$IIRMC,163139,A,4613.077,N,00609.912,E,04.8,287,010714,01,E,A*05
$IIVHW,,,292,M,04.5,N,,*6C
$IIVLW,53356,N,001.5,N*51
$IIVWR,056,R,13.2,N,,,,*62
$IIDPT,009.0,+0.7,*49
$IIGLL,4613.077,N,00609.912,E,163139,A,A*5A
$IIHDG,291,,,01,E*19
$IIMTW,+17.5,C*3B
$IIMWV,056,R,13.3,N,A*11
$IIMWV,075,T,11.2,N,A*15
$IIRMC,163139,A,4613.077,N,00609.912,E,04.8,287,010714,01,E,A*05
$IIVHW,,,291,M,04.4,N,,*6E
$IIVLW,53356,N,001.5,N*51
$IIVWR,056,R,13.0,N,,,,*60
$IIDPT,009.0,+0.7,*49
$IIGLL,4613.078,N,00609.909,E,163141,A,A*50
$IIHDG,291,,,01,E*19
$IIMTW,+17.5,C*3B
$IIMWV,056,R,13.0,N,A*12
$IIMWV,075,T,11.3,N,A*14
$IIRMC,163141,A,4613.078,N,00609.909,E,04.8,289,010714,01,E,A*01
$IIVHW,,,291,M,04.4,N,,*6E
$IIVLW,53356,N,001.5,N*51
$IIVWR,055,R,13.1,N,,,,*62
$IIDPT,009.0,+0.7,*49
$IIGLL,4613.078,N,00609.907,E,163142,A,A*5D
$IIHDG,291,,,01,E*19
$IIMTW,+17.5,C*3B
$IIMWV,055,R,13.1,N,A*10
$IIMWV,076,T,11.0,N,A*14
$IIRMC,163142,A,4613.078,N,00609.907,E,04.8,288,010714,01,E,A*0D
$IIVHW,,,291,M,04.4,N,,*6E
$IIVLW,53356,N,001.5,N*51
$IIVWR,056,R,13.2,N,,,,*62
$IIDPT,009.0,+0.7,*49
$IIGLL,4613.079,N,00609.905,E,163143,A,A*5F
$IIHDG,291,,,01,E*19
$IIMTW,+17.5,C*3B
$IIMWV,056,R,13.2,N,A*10
$IIMWV,075,T,11.0,N,A*17
$IIRMC,163144,A,4613.079,N,00609.903,E,04.7,289,010714,01,E,A*00
$IIVHW,,,292,M,04.4,N,,*6D
$IIVLW,53356,N,001.5,N*51
$IIVWR,056,R,13.5,N,,,,*65
$IIDPT,009.0,+0.7,*49
$IIGLL,4613.079,N,00609.903,E,163144,A,A*5E
$IIHDG,292,,,01,E*1A
$IIMTW,+17.5,C*3B
$IIMWV,056,R,13.5,N,A*17
$IIMWV,075,T,11.6,N,A*11
$IIRMC,163145,A,4613.080,N,00609.902,E,04.7,289,010714,01,E,A*06
$IIVHW,,,293,M,04.4,N,,*6C
$IIVLW,53356,N,001.5,N*51
$IIVWR,056,R,13.0,N,,,,*60
$IIDPT,009.0,+0.7,*49
$IIGLL,4613.080,N,00609.902,E,163145,A,A*58
$IIHDG,293,,,01,E*1B
$IIMTW,+17.5,C*3B
$IIMWV,056,R,13.2,N,A*10
$IIMWV,075,T,11.0,N,A*17
$IIRMC,163146,A,4613.080,N,00609.900,E,04.7,289,010714,01,E,A*07
$IIVHW,,,292,M,04.4,N,,*6D
$IIVLW,53356,N,001.5,N*51
$IIVWR,056,R,13.2,N,,,,*62
$IIDPT,009.0,+0.7,*49
$IIGLL,4613.080,N,00609.900,E,163146,A,A*59
$IIHDG,292,,,01,E*1A
$IIMTW,+17.5,C*3B
$IIMWV,057,R,12.7,N,A*15
$IIMWV,075,T,11.2,N,A*15
$IIRMC,163147,A,4613.081,N,00609.898,E,04.6,289,010714,01,E,A*06
$IIVHW,,,292,M,04.4,N,,*6D
$IIVLW,53356,N,001.5,N*51
$IIVWR,057,R,12.7,N,,,,*67
$IIDPT,009.0,+0.7,*49
$IIGLL,4613.081,N,00609.898,E,163147,A,A*59
$IIHDG,291,,,01,E*19
$IIMTW,+17.5,C*3B
$IIMWV,057,R,13.0,N,A*13
$IIMWV,077,T,10.8,N,A*1C
$IIRMC,163148,A,4613.081,N,00609.897,E,04.6,289,010714,01,E,A*06
$IIVHW,,,291,M,04.4,N,,*6E
$IIVLW,53356,N,001.5,N*51
$IIVWR,057,R,13.0,N,,,,*61
$IIDPT,009.0,+0.7,*49
$IIGLL,4613.082,N,00609.895,E,163149,A,A*59
$IIHDG,291,,,01,E*19
$IIMTW,+17.5,C*3B
$IIMWV,057,R,13.2,N,A*11
$IIMWV,077,T,11.2,N,A*17
$IIRMC,163149,A,4613.082,N,00609.895,E,04.6,290,010714,01,E,A*0E
$IIVHW,,,291,M,04.3,N,,*69
$IIVLW,53356,N,001.5,N*51
$IIVWR,057,R,13.2,N,,,,*63
$IIDPT,009.0,+0.7,*49
$IIGLL,4613.082,N,00609.893,E,163150,A,A*57
$IIHDG,292,,,01,E*1A
$IIMTW,+17.5,C*3B
$IIMWV,056,R,13.0,N,A*12
$IIMWV,076,T,11.3,N,A*17
$IIRMC,163150,A,4613.082,N,00609.893,E,04.6,289,010714,01,E,A*08
$IIVHW,,,292,M,04.3,N,,*6A
$IIVLW,53356,N,001.5,N*51
$IIVWR,056,R,13.1,N,,,,*61
$IIDPT,009.0,+0.7,*49
$IIGLL,4613.082,N,00609.891,E,163151,A,A*54
$IIHDG,292,,,01,E*1A
$IIMTW,+17.5,C*3B
$IIMWV,056,R,13.1,N,A*13
$IIMWV,075,T,11.0,N,A*17
$IIRMC,163151,A,4613.082,N,00609.891,E,04.6,288,010714,01,E,A*0A
$IIVHW,,,292,M,04.2,N,,*6B
$IIVLW,53356,N,001.5,N*51
$IIVWR,057,R,13.2,N,,,,*63
$IIDPT,009.0,+0.7,*49
$IIGLL,4613.083,N,00609.890,E,163152,A,A*57
$IIHDG,291,,,01,E*19
$IIMTW,+17.5,C*3B
$IIMWV,057,R,13.2,N,A*11
$IIMWV,075,T,11.2,N,A*15
$IIRMC,163152,A,4613.083,N,00609.890,E,04.6,288,010714,01,E,A*09
$IIVHW,,,289,M,04.2,N,,*61
$IIVLW,53356,N,001.5,N*51
$IIVWR,058,R,13.0,N,,,,*6E
$IIDPT,009.0,+0.7,*49
$IIGLL,4613.083,N,00609.888,E,163153,A,A*5F
$IIHDG,289,,,01,E*10
$IIMTW,+17.5,C*3B
$IIMWV,058,R,13.0,N,A*1C
$IIMWV,076,T,11.3,N,A*17
$IIRMC,163154,A,4613.083,N,00609.886,E,04.4,285,010714,01,E,A*07
$IIVHW,,,287,M,04.2,N,,*6F
$IIVLW,53356,N,001.5,N*51
$IIVWR,058,R,13.1,N,,,,*6F
$IIDPT,009.0,+0.7,*49
$IIGLL,4613.083,N,00609.886,E,163154,A,A*56
$IIHDG,287,,,01,E*1E
$IIMTW,+17.5,C*3B
$IIMWV,058,R,13.1,N,A*1D
$IIMWV,077,T,11.4,N,A*11
$IIRMC,163155,A,4613.084,N,00609.885,E,04.4,283,010714,01,E,A*04
$IIVHW,,,286,M,04.2,N,,*6E
$IIVLW,53356,N,001.5,N*51
$IIVWR,060,R,13.0,N,,,,*65
$IIDPT,009.0,+0.7,*49
$IIGLL,4613.084,N,00609.885,E,163155,A,A*53
$IIHDG,286,,,01,E*1F
$IIMTW,+17.5,C*3B
$IIMWV,060,R,12.7,N,A*11
$IIMWV,079,T,11.5,N,A*1E
$IIRMC,163156,A,4613.084,N,00609.883,E,04.5,285,010714,01,E,A*06
$IIVHW,,,285,M,04.3,N,,*6C
$IIVLW,53356,N,001.5,N*51
$IIVWR,060,R,12.7,N,,,,*63
$IIDPT,009.0,+0.7,*49
$IIGLL,4613.084,N,00609.883,E,163156,A,A*56
$IIHDG,285,,,01,E*1C
$IIMTW,+17.5,C*3B
$IIMWV,061,R,12.6,N,A*11
$IIMWV,080,T,11.1,N,A*1C
$IIRMC,163157,A,4613.084,N,00609.882,E,04.4,284,010714,01,E,A*06
$IIVHW,,,284,M,04.3,N,,*6D
$IIVLW,53356,N,001.5,N*51
$IIVWR,061,R,12.6,N,,,,*63
$IIDPT,009.0,+0.7,*49
$IIGLL,4613.084,N,00609.882,E,163157,A,A*56
$IIHDG,283,,,01,E*1A
$IIMTW,+17.5,C*3B
$IIMWV,061,R,12.8,N,A*1F
$IIMWV,081,T,11.0,N,A*1C
$IIRMC,163158,A,4613.085,N,00609.880,E,04.4,284,010714,01,E,A*0A
$IIVHW,,,283,M,04.3,N,,*6A
$IIVLW,53356,N,001.5,N*51
$IIVWR,061,R,12.8,N,,,,*6D
$IIDPT,009.0,+0.7,*49
$IIGLL,4613.085,N,00609.878,E,163159,A,A*5C
$IIHDG,282,,,01,E*1B
$IIMTW,+17.5,C*3B
$IIMWV,061,R,12.7,N,A*10
$IIMWV,081,T,11.2,N,A*1E
$IIRMC,163159,A,4613.085,N,00609.878,E,04.6,284,010714,01,E,A*0E
$IIVHW,,,282,M,04.4,N,,*6C
$IIVLW,53356,N,001.5,N*51
$IIVWR,061,R,12.7,N,,,,*62
$IIDPT,009.0,+0.7,*49
$IIGLL,4613.085,N,00609.876,E,163200,A,A*5D
$IIHDG,282,,,01,E*1B
$IIMTW,+17.5,C*3B
$IIMWV,061,R,12.8,N,A*1F
$IIMWV,082,T,11.1,N,A*1E
$IIRMC,163200,A,4613.085,N,00609.876,E,04.7,281,010714,01,E,A*0B
$IIVHW,,,282,M,04.4,N,,*6C
$IIVLW,53356,N,001.6,N*52
$IIVWR,061,R,12.8,N,,,,*6D
$IIDPT,009.0,+0.7,*49
$IIGLL,4613.085,N,00609.874,E,163201,A,A*5E
$IIHDG,282,,,01,E*1B
$IIMTW,+17.5,C*3B
$IIMWV,061,R,12.8,N,A*1F
$IIMWV,081,T,11.2,N,A*1E
$IIRMC,163201,A,4613.085,N,00609.874,E,04.9,280,010714,01,E,A*07
$IIVHW,,,282,M,04.4,N,,*6C
$IIVLW,53356,N,001.6,N*52
$IIVWR,062,R,12.6,N,,,,*60
$IIDPT,009.0,+0.7,*49
$IIGLL,4613.086,N,00609.872,E,163202,A,A*58
$IIHDG,282,,,01,E*1B
$IIMTW,+17.5,C*3B
$IIMWV,062,R,12.6,N,A*12
$IIMWV,082,T,11.2,N,A*1D
$IIRMC,163202,A,4613.086,N,00609.872,E,04.6,280,010714,01,E,A*0E
$IIVHW,,,282,M,04.5,N,,*6D
$IIVLW,53356,N,001.6,N*52
$IIVWR,062,R,12.4,N,,,,*62
$IIDPT,009.0,+0.7,*49
$IIGLL,4613.086,N,00609.870,E,163203,A,A*5B
$IIHDG,282,,,01,E*1B
$IIMTW,+17.5,C*3B
$IIMWV,062,R,12.4,N,A*10
$IIMWV,083,T,11.0,N,A*1E
$IIRMC,163204,A,4613.086,N,00609.868,E,05.2,280,010714,01,E,A*06
$IIVHW,,,282,M,04.6,N,,*6E
$IIVLW,53356,N,001.6,N*52
$IIVWR,061,R,12.7,N,,,,*62
$IIDPT,009.0,+0.7,*49
$IIGLL,4613.086,N,00609.868,E,163204,A,A*55
$IIHDG,282,,,01,E*1B
$IIMTW,+17.5,C*3B
$IIMWV,061,R,12.7,N,A*10
$IIMWV,083,T,11.0,N,A*1E
$IIRMC,163205,A,4613.086,N,00609.866,E,05.2,278,010714,01,E,A*0E
$IIVHW,,,282,M,04.6,N,,*6E
$IIVLW,53356,N,001.6,N*52
$IIVWR,062,R,12.7,N,,,,*61
$IIDPT,009.0,+0.7,*49
$IIGLL,4613.086,N,00609.866,E,163205,A,A*5A
$IIHDG,282,,,01,E*1B
$IIMTW,+17.5,C*3B
$IIMWV,061,R,12.8,N,A*1F
$IIMWV,083,T,11.1,N,A*1F
$IIRMC,163206,A,4613.087,N,00609.864,E,05.4,277,010714,01,E,A*07
$IIVHW,,,282,M,04.6,N,,*6E
$IIVLW,53356,N,001.6,N*52
$IIVWR,061,R,12.8,N,,,,*6D
$IIDPT,009.0,+0.7,*49
$IIGLL,4613.087,N,00609.864,E,163206,A,A*5A
$IIHDG,282,,,01,E*1B
$IIMTW,+17.5,C*3B
$IIMWV,061,R,12.8,N,A*1F
$IIMWV,083,T,11.1,N,A*1F
$IIRMC,163207,A,4613.087,N,00609.862,E,05.0,281,010714,01,E,A*0D
$IIVHW,,,283,M,04.7,N,,*6E
$IIVLW,53356,N,001.6,N*52
$IIVWR,061,R,12.8,N,,,,*6D
$IIDPT,009.0,+0.7,*49
$IIGLL,4613.087,N,00609.862,E,163207,A,A*5D
$IIHDG,283,,,01,E*1A
$IIMTW,+17.5,C*3B
$IIMWV,061,R,13.0,N,A*16
$IIMWV,083,T,11.1,N,A*1F
$IIRMC,163208,A,4613.087,N,00609.860,E,05.0,282,010714,01,E,A*03
$IIVHW,,,283,M,04.7,N,,*6E
$IIVLW,53356,N,001.6,N*52
$IIVWR,061,R,13.0,N,,,,*64
$IIDPT,009.0,+0.7,*49
$IIGLL,4613.087,N,00609.859,E,163209,A,A*5B
$IIHDG,283,,,01,E*1A
$IIMTW,+17.5,C*3B
$IIMWV,060,R,13.1,N,A*16
$IIMWV,082,T,11.3,N,A*1C
$IIRMC,163209,A,4613.087,N,00609.859,E,05.0,282,010714,01,E,A*08
$IIVHW,,,283,M,04.7,N,,*6E
$IIVLW,53356,N,001.6,N*52
$IIVWR,060,R,13.1,N,,,,*64
$IIDPT,008.9,+0.7,*41
$IIGLL,4613.088,N,00609.857,E,163210,A,A*52
$IIHDG,284,,,01,E*1D
$IIMTW,+17.5,C*3B
$IIMWV,060,R,13.2,N,A*15
$IIMWV,081,T,11.4,N,A*18
$IIRMC,163210,A,4613.088,N,00609.857,E,04.8,286,010714,01,E,A*0C
$IIVHW,,,284,M,04.7,N,,*69
$IIVLW,53356,N,001.6,N*52
$IIVWR,058,R,13.1,N,,,,*6F
$IIDPT,008.9,+0.7,*41
$IIGLL,4613.088,N,00609.855,E,163211,A,A*51
$IIHDG,284,,,01,E*1D
$IIMTW,+17.5,C*3B
$IIMWV,058,R,13.1,N,A*1D
$IIMWV,081,T,11.5,N,A*19
$IIRMC,163211,A,4613.088,N,00609.855,E,04.1,285,010714,01,E,A*05
$IIVHW,,,284,M,04.7,N,,*69
$IIVLW,53356,N,001.6,N*52
$IIVWR,058,R,13.2,N,,,,*6C
$IIDPT,008.9,+0.7,*41
$IIGLL,4613.088,N,00609.853,E,163212,A,A*54
$IIHDG,285,,,01,E*1C
$IIMTW,+17.5,C*3B
$IIMWV,058,R,13.2,N,A*1E
$IIMWV,079,T,11.3,N,A*18
$IIRMC,163212,A,4613.088,N,00609.853,E,04.6,285,010714,01,E,A*07
$IIVHW,,,285,M,04.6,N,,*69
$IIVLW,53356,N,001.6,N*52
$IIVWR,058,R,13.2,N,,,,*6C
$IIDPT,008.9,+0.7,*41
$IIGLL,4613.089,N,00609.851,E,163213,A,A*56
$IIHDG,285,,,01,E*1C
$IIMTW,+17.5,C*3B
$IIMWV,058,R,13.2,N,A*1E
$IIMWV,079,T,11.4,N,A*1F
$IIRMC,163214,A,4613.089,N,00609.849,E,03.9,285,010714,01,E,A*03
$IIVHW,,,285,M,04.5,N,,*6A
$IIVLW,53356,N,001.6,N*52
$IIVWR,058,R,13.3,N,,,,*6D
$IIDPT,008.8,+0.7,*40
$IIGLL,4613.089,N,00609.849,E,163214,A,A*58
$IIHDG,285,,,01,E*1C
$IIMTW,+17.5,C*3B
$IIMWV,058,R,13.3,N,A*1F
$IIMWV,078,T,11.5,N,A*1F
$IIRMC,163215,A,4613.090,N,00609.847,E,05.1,288,010714,01,E,A*07
$IIVHW,,,285,M,04.5,N,,*6A
$IIVLW,53356,N,001.6,N*52
$IIVWR,058,R,13.3,N,,,,*6D
$IIDPT,008.8,+0.7,*40
$IIGLL,4613.090,N,00609.847,E,163215,A,A*5F
$IIHDG,285,,,01,E*1C
$IIMTW,+17.5,C*3B
$IIMWV,058,R,13.3,N,A*1F
$IIMWV,078,T,11.5,N,A*1F
$IIRMC,163216,A,4613.090,N,00609.845,E,05.1,287,010714,01,E,A*09
$IIVHW,,,284,M,04.5,N,,*6B
$IIVLW,53356,N,001.6,N*52
$IIVWR,058,R,13.3,N,,,,*6D
$IIDPT,008.8,+0.7,*40
$IIGLL,4613.090,N,00609.845,E,163216,A,A*5E
$IIHDG,284,,,01,E*1D
$IIMTW,+17.5,C*3B
$IIMWV,056,R,13.1,N,A*13
$IIMWV,078,T,11.5,N,A*1F
$IIRMC,163217,A,4613.090,N,00609.843,E,04.7,283,010714,01,E,A*0D
$IIVHW,,,283,M,04.4,N,,*6D
$IIVLW,53356,N,001.6,N*52
$IIVWR,056,R,13.1,N,,,,*61
$IIDPT,008.8,+0.7,*40
$IIGLL,4613.090,N,00609.843,E,163217,A,A*59
$IIHDG,283,,,01,E*1A
$IIMTW,+17.5,C*3B
$IIMWV,056,R,13.1,N,A*13
$IIMWV,075,T,11.1,N,A*16
$IIRMC,163218,A,4613.091,N,00609.841,E,04.5,283,010714,01,E,A*03
$IIVHW,,,283,M,04.4,N,,*6D
$IIVLW,53356,N,001.6,N*52
$IIVWR,056,R,13.1,N,,,,*61
$IIDPT,008.8,+0.7,*40
$IIGLL,4613.091,N,00609.838,E,163219,A,A*5A
$IIHDG,284,,,01,E*1D
$IIMTW,+17.5,C*3B
$IIMWV,055,R,12.8,N,A*18
$IIMWV,075,T,11.1,N,A*16
$IIRMC,163219,A,4613.091,N,00609.838,E,04.4,278,010714,01,E,A*09
$IIVHW,,,284,M,04.4,N,,*6A
$IIVLW,53356,N,001.6,N*52
$IIVWR,055,R,12.8,N,,,,*6A
$IIDPT,008.8,+0.7,*40
$IIGLL,4613.091,N,00609.837,E,163220,A,A*5F
$IIHDG,285,,,01,E*1C
$IIMTW,+17.5,C*3B
$IIMWV,054,R,13.1,N,A*11
$IIMWV,075,T,10.7,N,A*11
$IIRMC,163220,A,4613.091,N,00609.837,E,04.3,277,010714,01,E,A*04
$IIVHW,,,285,M,04.4,N,,*6B
$IIVLW,53356,N,001.6,N*52
$IIVWR,054,R,12.8,N,,,,*6B
$IIDPT,008.8,+0.7,*40
$IIGLL,4613.091,N,00609.835,E,163221,A,A*5C
$IIHDG,285,,,01,E*1C
$IIMTW,+17.5,C*3B
$IIMWV,054,R,12.8,N,A*19
$IIMWV,073,T,11.1,N,A*10
$IIRMC,163221,A,4613.091,N,00609.835,E,04.0,279,010714,01,E,A*0A
$IIVHW,,,285,M,04.3,N,,*6C
$IIVLW,53356,N,001.6,N*52
$IIVWR,053,R,12.6,N,,,,*62
$IIDPT,008.8,+0.7,*40
$IIGLL,4613.091,N,00609.834,E,163222,A,A*5E
$IIHDG,287,,,01,E*1E
$IIMTW,+17.5,C*3B
$IIMWV,053,R,12.6,N,A*10
$IIMWV,073,T,10.7,N,A*17
$IIRMC,163222,A,4613.091,N,00609.834,E,04.3,281,010714,01,E,A*0C
$IIVHW,,,288,M,04.2,N,,*60
$IIVLW,53356,N,001.6,N*52
$IIVWR,053,R,12.6,N,,,,*62
$IIDPT,008.7,+0.7,*4F
$IIGLL,4613.092,N,00609.832,E,163223,A,A*5A
$IIHDG,288,,,01,E*11
$IIMTW,+17.5,C*3B
$IIMWV,053,R,12.6,N,A*10
$IIMWV,072,T,10.4,N,A*15
$IIRMC,163224,A,4613.092,N,00609.830,E,04.2,285,010714,01,E,A*08
$IIVHW,,,289,M,04.1,N,,*62
$IIVLW,53356,N,001.6,N*52
$IIVWR,054,R,12.4,N,,,,*67
$IIDPT,008.7,+0.7,*4F
$IIGLL,4613.092,N,00609.830,E,163224,A,A*5F
$IIHDG,289,,,01,E*10
$IIMTW,+17.5,C*3B
$IIMWV,054,R,12.4,N,A*15
$IIMWV,072,T,10.4,N,A*15
$IIRMC,163225,A,4613.093,N,00609.828,E,04.2,284,010714,01,E,A*00
$IIVHW,,,289,M,04.0,N,,*63
$IIVLW,53356,N,001.6,N*52
$IIVWR,056,R,12.8,N,,,,*69
$IIDPT,008.7,+0.7,*4F
$IIGLL,4613.093,N,00609.828,E,163225,A,A*56
$IIHDG,289,,,01,E*10
$IIMTW,+17.5,C*3B
$IIMWV,055,R,12.6,N,A*16
$IIMWV,074,T,11.0,N,A*16
$IIRMC,163226,A,4613.093,N,00609.827,E,04.2,287,010714,01,E,A*0F
$IIVHW,,,290,M,04.0,N,,*6B
$IIVLW,53356,N,001.6,N*52
$IIVWR,055,R,12.6,N,,,,*64
$IIDPT,008.6,+0.7,*4E
$IIGLL,4613.093,N,00609.827,E,163226,A,A*5A
$IIHDG,290,,,01,E*18
$IIMTW,+17.5,C*3B
$IIMWV,055,R,13.0,N,A*11
$IIMWV,073,T,10.7,N,A*17
$IIRMC,163227,A,4613.093,N,00609.826,E,04.2,287,010714,01,E,A*0F
$IIVHW,,,290,M,03.9,N,,*65
$IIVLW,53356,N,001.6,N*52
$IIVWR,055,R,13.0,N,,,,*63
$IIDPT,008.6,+0.7,*4E
$IIGLL,4613.093,N,00609.826,E,163227,A,A*5A
$IIHDG,291,,,01,E*19
$IIMTW,+17.5,C*3B
$IIMWV,054,R,13.2,N,A*12
$IIMWV,072,T,11.1,N,A*11
$IIRMC,163228,A,4613.094,N,00609.824,E,04.2,288,010714,01,E,A*0A
$IIVHW,,,291,M,03.9,N,,*64
$IIVLW,53356,N,001.6,N*52
$IIVWR,054,R,13.2,N,,,,*60
$IIDPT,008.6,+0.7,*4E
$IIGLL,4613.094,N,00609.823,E,163229,A,A*56
$IIHDG,293,,,01,E*1B
$IIMTW,+17.5,C*3B
$IIMWV,054,R,13.3,N,A*13
$IIMWV,071,T,11.2,N,A*11
$IIRMC,163229,A,4613.094,N,00609.823,E,04.2,289,010714,01,E,A*0D
$IIVHW,,,293,M,03.9,N,,*66
$IIVLW,53356,N,001.6,N*52
$IIVWR,054,R,13.3,N,,,,*61
$IIDPT,008.6,+0.7,*4E
$IIGLL,4613.094,N,00609.821,E,163230,A,A*5C
$IIHDG,293,,,01,E*1B
$IIMTW,+17.5,C*3B
$IIMWV,055,R,13.5,N,A*14
$IIMWV,070,T,11.3,N,A*11
$IIRMC,163230,A,4613.094,N,00609.821,E,04.2,289,010714,01,E,A*07
$IIVHW,,,293,M,03.8,N,,*67
$IIVLW,53356,N,001.6,N*52
$IIVWR,055,R,13.1,N,,,,*62
$IIDPT,008.6,+0.7,*4E
$IIGLL,4613.095,N,00609.820,E,163231,A,A*5D
$IIHDG,293,,,01,E*1B
$IIMTW,+17.5,C*3B
$IIMWV,055,R,13.1,N,A*10
$IIMWV,071,T,11.6,N,A*15
$IIRMC,163231,A,4613.095,N,00609.820,E,04.2,290,010714,01,E,A*0E
$IIVHW,,,293,M,03.9,N,,*66
$IIVLW,53356,N,001.6,N*52
$IIVWR,056,R,13.1,N,,,,*61
$IIDPT,008.6,+0.7,*4E
$IIGLL,4613.095,N,00609.818,E,163232,A,A*55
$IIHDG,294,,,01,E*1C
$IIMTW,+17.5,C*3B
$IIMWV,056,R,13.1,N,A*13
$IIMWV,072,T,11.2,N,A*12
$IIRMC,163232,A,4613.095,N,00609.818,E,04.2,288,010714,01,E,A*0F
$IIVHW,,,297,M,03.7,N,,*6C
$IIVLW,53356,N,001.6,N*52
$IIVWR,055,R,13.2,N,,,,*61
$IIDPT,008.6,+0.7,*4E
$IIGLL,4613.095,N,00609.817,E,163233,A,A*5B
$IIHDG,297,,,01,E*1F
$IIMTW,+17.5,C*3B
$IIMWV,055,R,13.2,N,A*13
$IIMWV,072,T,11.3,N,A*13
$IIRMC,163234,A,4613.096,N,00609.816,E,03.9,302,010714,01,E,A*0B
$IIVHW,,,303,M,03.7,N,,*60
$IIVLW,53356,N,001.6,N*52
$IIVWR,051,R,13.3,N,,,,*64
$IIDPT,008.6,+0.7,*4E
$IIGLL,4613.096,N,00609.816,E,163234,A,A*5E
$IIHDG,303,,,01,E*13
$IIMTW,+17.5,C*3B
$IIMWV,051,R,13.3,N,A*16
$IIMWV,063,T,10.4,N,A*15
$IIRMC,163236,A,4613.098,N,00609.814,E,03.4,311,010714,01,E,A*0A
$IIVHW,,,311,M,03.5,N,,*61
$IIVLW,53356,N,001.6,N*52
$IIVWR,046,R,13.1,N,,,,*60
$IIDPT,008.6,+0.7,*4E
$IIGLL,4613.098,N,00609.814,E,163236,A,A*50
$IIHDG,311,,,01,E*10
$IIMTW,+17.5,C*3B
$IIMWV,045,R,13.7,N,A*17
$IIMWV,060,T,10.8,N,A*1A
$IIRMC,163237,A,4613.099,N,00609.813,E,03.8,325,010714,01,E,A*06
$IIVHW,,,314,M,03.4,N,,*65
$IIVLW,53356,N,001.6,N*52
$IIVWR,045,R,13.7,N,,,,*65
$IIDPT,008.6,+0.7,*4E
$IIGLL,4613.099,N,00609.813,E,163237,A,A*57
$IIHDG,314,,,01,E*15
$IIMTW,+17.5,C*3B
$IIMWV,045,R,13.0,N,A*10
$IIMWV,057,T,11.5,N,A*12
$IIRMC,163238,A,4613.100,N,00609.812,E,03.0,313,010714,01,E,A*04
$IIVHW,,,314,M,03.2,N,,*63
$IIVLW,53356,N,001.6,N*52
$IIVWR,045,R,13.0,N,,,,*62
$IIDPT,008.6,+0.7,*4E
$IIGLL,4613.100,N,00609.812,E,163238,A,A*58
$IIHDG,314,,,01,E*15
$IIMTW,+17.5,C*3B
$IIMWV,043,R,13.7,N,A*11
$IIMWV,057,T,10.9,N,A*1F
$IIRMC,163239,A,4613.100,N,00609.811,E,02.7,321,010714,01,E,A*01
$IIVHW,,,314,M,03.1,N,,*60
$IIVLW,53356,N,001.6,N*52
$IIVWR,043,R,13.7,N,,,,*63
$IIDPT,008.6,+0.7,*4E
$IIGLL,4613.101,N,00609.811,E,163240,A,A*55
$IIHDG,313,,,01,E*12
$IIMTW,+17.5,C*3B
$IIMWV,044,R,13.0,N,A*11
$IIMWV,054,T,11.5,N,A*11
$IIRMC,163240,A,4613.101,N,00609.811,E,03.0,319,010714,01,E,A*03
$IIVHW,,,313,M,02.9,N,,*6E
$IIVLW,53356,N,001.6,N*52
$IIVWR,044,R,13.0,N,,,,*63
$IIDPT,008.6,+0.7,*4E
$IIGLL,4613.102,N,00609.810,E,163241,A,A*56
$IIHDG,315,,,01,E*14
$IIMTW,+17.5,C*3B
$IIMWV,043,R,13.1,N,A*17
$IIMWV,055,T,10.9,N,A*1D
$IIRMC,163241,A,4613.102,N,00609.810,E,02.9,321,010714,01,E,A*03
$IIVHW,,,315,M,02.8,N,,*69
$IIVLW,53356,N,001.6,N*52
$IIVWR,046,R,13.2,N,,,,*63
$IIDPT,008.6,+0.7,*4E
$IIGLL,4613.102,N,00609.810,E,163242,A,A*55
$IIHDG,314,,,01,E*15
$IIMTW,+17.5,C*3B
$IIMWV,046,R,13.2,N,A*11
$IIMWV,053,T,11.1,N,A*12
$IIRMC,163242,A,4613.102,N,00609.810,E,02.5,315,010714,01,E,A*0B
$IIVHW,,,314,M,02.6,N,,*66
$IIVLW,53356,N,001.6,N*52
$IIVWR,044,R,13.5,N,,,,*66
$IIDPT,008.6,+0.7,*4E
$IIGLL,4613.102,N,00609.809,E,163243,A,A*5C
$IIHDG,315,,,01,E*14
$IIMTW,+17.5,C*3B
$IIMWV,044,R,13.5,N,A*14
$IIMWV,056,T,11.4,N,A*12
$IIRMC,163243,A,4613.102,N,00609.809,E,02.5,319,010714,01,E,A*0E
$IIVHW,,,315,M,02.4,N,,*65
$IIVLW,53356,N,001.6,N*52
$IIVWR,044,R,12.8,N,,,,*6A
$IIDPT,008.6,+0.7,*4E
$IIGLL,4613.103,N,00609.808,E,163244,A,A*5B
$IIHDG,315,,,01,E*14
$IIMTW,+17.5,C*3B
$IIMWV,044,R,12.8,N,A*18
$IIMWV,053,T,11.7,N,A*14
$IIRMC,163245,A,4613.103,N,00609.807,E,02.4,311,010714,01,E,A*0E
$IIVHW,,,315,M,02.3,N,,*62
$IIVLW,53356,N,001.6,N*52
$IIVWR,043,R,13.2,N,,,,*66
$IIDPT,008.6,+0.7,*4E
$IIGLL,4613.103,N,00609.807,E,163245,A,A*55
$IIHDG,315,,,01,E*14
$IIMTW,+17.5,C*3B
$IIMWV,043,R,13.2,N,A*14
$IIMWV,051,T,11.5,N,A*14
$IIRMC,163246,A,4613.104,N,00609.807,E,02.2,311,010714,01,E,A*0C
$IIVHW,,,316,M,02.2,N,,*60
$IIVLW,53356,N,001.6,N*52
$IIVWR,042,R,12.8,N,,,,*6C
$IIDPT,008.6,+0.7,*4E
$IIGLL,4613.104,N,00609.807,E,163246,A,A*51
$IIHDG,316,,,01,E*17
$IIMTW,+17.5,C*3B
$IIMWV,042,R,12.7,N,A*11
$IIMWV,050,T,11.1,N,A*11
$IIRMC,163247,A,4613.104,N,00609.806,E,02.2,311,010714,01,E,A*0C
$IIVHW,,,316,M,02.1,N,,*63
$IIVLW,53356,N,001.6,N*52
$IIVWR,042,R,12.7,N,,,,*63
$IIDPT,008.6,+0.7,*4E
$IIGLL,4613.104,N,00609.806,E,163247,A,A*51
$IIHDG,316,,,01,E*17
$IIMTW,+17.5,C*3B
$IIMWV,042,R,12.6,N,A*10
$IIMWV,050,T,11.0,N,A*10
$IIRMC,163248,A,4613.105,N,00609.806,E,02.0,311,010714,01,E,A*00
$IIVHW,,,318,M,02.0,N,,*6C
$IIVLW,53356,N,001.6,N*52
$IIVWR,042,R,12.6,N,,,,*62
$IIDPT,008.6,+0.7,*4E
$IIGLL,4613.105,N,00609.806,E,163248,A,A*5F
$IIHDG,319,,,01,E*18
$IIMTW,+17.5,C*3B
$IIMWV,041,R,12.6,N,A*13
$IIMWV,049,T,11.0,N,A*18
$IIRMC,163249,A,4613.105,N,00609.805,E,02.0,311,010714,01,E,A*02
$IIVHW,,,319,M,01.9,N,,*67
$IIVLW,53356,N,001.6,N*52
$IIVWR,041,R,12.6,N,,,,*61
$IIDPT,008.6,+0.7,*4E
$IIGLL,4613.106,N,00609.804,E,163250,A,A*57
$IIHDG,321,,,01,E*13
$IIMTW,+17.5,C*3B
$IIMWV,038,R,11.8,N,A*10
$IIMWV,048,T,11.1,N,A*18
$IIRMC,163250,A,4613.106,N,00609.804,E,02.0,311,010714,01,E,A*08
$IIVHW,,,321,M,01.8,N,,*6D
$IIVLW,53356,N,001.6,N*52
$IIVWR,038,R,11.8,N,,,,*62
$IIDPT,008.6,+0.7,*4E
$IIGLL,4613.106,N,00609.804,E,163251,A,A*56
$IIHDG,321,,,01,E*13
$IIMTW,+17.5,C*3B
$IIMWV,040,R,11.9,N,A*1E
$IIMWV,045,T,10.3,N,A*16
$IIRMC,163251,A,4613.106,N,00609.804,E,01.8,311,010714,01,E,A*02
$IIVHW,,,321,M,01.7,N,,*62
$IIVLW,53356,N,001.6,N*52
$IIVWR,038,R,12.0,N,,,,*69
$IIDPT,008.6,+0.7,*4E
$IIGLL,4613.107,N,00609.804,E,163252,A,A*54
$IIHDG,322,,,01,E*10
$IIMTW,+17.5,C*3B
$IIMWV,038,R,12.0,N,A*1B
$IIMWV,046,T,10.6,N,A*10
$IIRMC,163252,A,4613.107,N,00609.804,E,01.7,311,010714,01,E,A*0F
$IIVHW,,,322,M,01.6,N,,*60
$IIVLW,53356,N,001.6,N*52
$IIVWR,039,R,12.2,N,,,,*6A
$IIDPT,008.6,+0.7,*4E
$IIGLL,4613.107,N,00609.803,E,163253,A,A*52
$IIHDG,322,,,01,E*10
$IIMTW,+17.5,C*3B
$IIMWV,039,R,12.2,N,A*18
$IIMWV,043,T,10.7,N,A*14
$IIRMC,163253,A,4613.107,N,00609.803,E,01.5,311,010714,01,E,A*0B
$IIVHW,,,322,M,01.4,N,,*62
$IIVLW,53356,N,001.6,N*52
$IIVWR,038,R,12.3,N,,,,*6A
$IIDPT,008.6,+0.7,*4E
$IIGLL,4613.107,N,00609.803,E,163253,A,A*52
$IIHDG,322,,,01,E*10
$IIMTW,+17.5,C*3B
$IIMWV,038,R,12.3,N,A*18
$IIMWV,044,T,11.0,N,A*15
$IIRMC,163255,A,4613.108,N,00609.803,E,01.3,311,010714,01,E,A*04
$IIVHW,,,319,M,01.3,N,,*6D
$IIVLW,53356,N,001.6,N*52
$IIVWR,040,R,11.7,N,,,,*62
$IIDPT,008.6,+0.7,*4E
$IIGLL,4613.108,N,00609.803,E,163255,A,A*5B
$IIHDG,319,,,01,E*18
$IIMTW,+17.5,C*3B
$IIMWV,040,R,11.7,N,A*10
$IIMWV,044,T,10.6,N,A*12
$IIRMC,163256,A,4613.108,N,00609.802,E,01.3,311,010714,01,E,A*06
$IIVHW,,,317,M,01.3,N,,*63
$IIVLW,53356,N,001.6,N*52
$IIVWR,041,R,11.4,N,,,,*60
$IIDPT,008.6,+0.7,*4E
$IIGLL,4613.108,N,00609.802,E,163256,A,A*59
$IIHDG,317,,,01,E*16
$IIMTW,+17.5,C*3B
$IIMWV,043,R,11.9,N,A*1D
$IIMWV,046,T,10.3,N,A*15
$IIRMC,163257,A,4613.109,N,00609.802,E,01.2,311,010714,01,E,A*07
$IIVHW,,,315,M,01.2,N,,*60
$IIVLW,53356,N,001.6,N*52
$IIVWR,043,R,11.9,N,,,,*6F
$IIDPT,008.6,+0.7,*4E
$IIGLL,4613.109,N,00609.802,E,163257,A,A*59
$IIHDG,315,,,01,E*14
$IIMTW,+17.5,C*3B
$IIMWV,047,R,11.4,N,A*14
$IIMWV,047,T,10.8,N,A*1F
$IIRMC,163258,A,4613.109,N,00609.801,E,01.2,311,010714,01,E,A*0B
$IIVHW,,,314,M,01.1,N,,*62
$IIVLW,53356,N,001.6,N*52
$IIVWR,047,R,11.4,N,,,,*66
$IIDPT,008.6,+0.7,*4E
$IIGLL,4613.109,N,00609.801,E,163258,A,A*55
$IIHDG,312,,,01,E*13
$IIMTW,+17.5,C*3B
$IIMWV,044,R,11.3,N,A*10
$IIMWV,052,T,10.5,N,A*16
$IIRMC,163259,A,4613.109,N,00609.801,E,01.1,311,010714,01,E,A*09
$IIVHW,,,312,M,01.1,N,,*64
$IIVLW,53356,N,001.6,N*52
$IIVWR,044,R,11.3,N,,,,*62
$IIDPT,008.6,+0.7,*4E
$IIGLL,4613.109,N,00609.801,E,163300,A,A*59
$IIHDG,311,,,01,E*10
$IIMTW,+17.5,C*3B
$IIMWV,048,R,11.1,N,A*1E
$IIMWV,048,T,10.4,N,A*1C
$IIRMC,163300,A,4613.109,N,00609.801,E,01.1,311,010714,01,E,A*04
$IIVHW,,,311,M,01.0,N,,*66
$IIVLW,53356,N,001.6,N*52
$IIVWR,048,R,11.1,N,,,,*6C
$IIDPT,008.6,+0.7,*4E
$IIGLL,4613.109,N,00609.800,E,163301,A,A*59
$IIHDG,310,,,01,E*11
$IIMTW,+17.5,C*3B
$IIMWV,048,R,11.1,N,A*1E
$IIMWV,052,T,10.3,N,A*10
$IIRMC,163301,A,4613.109,N,00609.800,E,01.3,311,010714,01,E,A*06
$IIVHW,,,310,M,01.0,N,,*67
$IIVLW,53356,N,001.6,N*52
$IIVWR,051,R,12.0,N,,,,*66
$IIDPT,008.6,+0.7,*4E
$IIGLL,4613.109,N,00609.800,E,163302,A,A*5A
$IIHDG,310,,,01,E*11
$IIMTW,+17.5,C*3B
$IIMWV,051,R,12.0,N,A*14
$IIMWV,052,T,10.4,N,A*17
$IIRMC,163302,A,4613.109,N,00609.800,E,01.4,311,010714,01,E,A*02
$IIVHW,,,310,M,00.0,N,,*66
$IIVLW,53356,N,001.6,N*52
$IIVWR,048,R,11.8,N,,,,*65
$IIDPT,008.6,+0.7,*4E
$IIGLL,4613.109,N,00609.799,E,163303,A,A*54
$IIHDG,310,,,01,E*11
$IIMTW,+17.5,C*3B
$IIMWV,048,R,11.8,N,A*17
$IIMWV,051,T,12.0,N,A*12
$IIRMC,163303,A,4613.109,N,00609.799,E,01.1,311,010714,01,E,A*09
$IIVHW,,,310,M,00.0,N,,*66
$IIVLW,53356,N,001.6,N*52
$IIVWR,051,R,11.4,N,,,,*61
$IIDPT,008.6,+0.7,*4E
$IIGLL,4613.109,N,00609.799,E,163304,A,A*53
$IIHDG,310,,,01,E*11
$IIMTW,+17.5,C*3B
$IIMWV,051,R,11.4,N,A*13
$IIMWV,048,T,11.8,N,A*11
$IIRMC,163305,A,4613.110,N,00609.798,E,01.1,311,010714,01,E,A*06
$IIVHW,,,310,M,00.0,N,,*66
$IIVLW,53356,N,001.6,N*52
$IIVWR,049,R,11.3,N,,,,*6F
$IIDPT,008.6,+0.7,*4E
$IIGLL,4613.110,N,00609.798,E,163305,A,A*5B
$IIHDG,310,,,01,E*11
$IIMTW,+17.5,C*3B
$IIMWV,049,R,11.3,N,A*1D
$IIMWV,049,T,11.3,N,A*1B
$IIRMC,163306,A,4613.110,N,00609.798,E,01.0,311,010714,01,E,A*04
$IIVHW,,,311,M,00.0,N,,*67
$IIVLW,53356,N,001.6,N*52
$IIVWR,051,R,11.1,N,,,,*64
$IIDPT,008.6,+0.7,*4E
$IIGLL,4613.110,N,00609.798,E,163306,A,A*58
$IIHDG,311,,,01,E*10
$IIMTW,+17.5,C*3B
$IIMWV,050,R,11.9,N,A*1F
$IIMWV,051,T,11.1,N,A*10
$IIRMC,163307,A,4613.110,N,00609.798,E,01.0,311,010714,01,E,A*05
$IIVHW,,,310,M,00.0,N,,*66
$IIVLW,53356,N,001.6,N*52
$IIVWR,050,R,11.9,N,,,,*6D
$IIDPT,008.6,+0.7,*4E
$IIGLL,4613.110,N,00609.798,E,163307,A,A*59
$IIHDG,310,,,01,E*11
$IIMTW,+17.5,C*3B
$IIMWV,050,R,11.5,N,A*13
$IIMWV,050,T,11.9,N,A*19
$IIRMC,163308,A,4613.110,N,00609.797,E,01.0,311,010714,01,E,A*05
$IIVHW,,,310,M,00.0,N,,*66
$IIVLW,53356,N,001.6,N*52
$IIVWR,050,R,11.5,N,,,,*61
$IIDPT,008.6,+0.7,*4E
$IIGLL,4613.110,N,00609.797,E,163308,A,A*59
$IIHDG,310,,,01,E*11
$IIMTW,+17.5,C*3B
$IIMWV,050,R,11.3,N,A*15
$IIMWV,050,T,11.5,N,A*15
$IIRMC,163309,A,4613.110,N,00609.797,E,01.0,311,010714,01,E,A*04
$IIVHW,,,310,M,00.0,N,,*66
$IIVLW,53356,N,001.6,N*52
$IIVWR,050,R,11.3,N,,,,*67
$IIDPT,008.6,+0.7,*4E
$IIGLL,4613.110,N,00609.797,E,163310,A,A*50
$IIHDG,311,,,01,E*10
$IIMTW,+17.5,C*3B
$IIMWV,051,R,11.1,N,A*16
$IIMWV,050,T,11.3,N,A*13
$IIRMC,163310,A,4613.110,N,00609.797,E,01.0,311,010714,01,E,A*0C
$IIVHW,,,311,M,00.0,N,,*67
$IIVLW,53356,N,001.6,N*52
$IIVWR,051,R,11.1,N,,,,*64
$IIDPT,008.6,+0.7,*4E
$IIGLL,4613.110,N,00609.796,E,163311,A,A*50
$IIHDG,310,,,01,E*11
$IIMTW,+17.5,C*3B
$IIMWV,049,R,11.1,N,A*1F
$IIMWV,051,T,11.1,N,A*10
$IIRMC,163311,A,4613.110,N,00609.796,E,01.0,311,010714,01,E,A*0C
$IIVHW,,,310,M,00.0,N,,*66
$IIVLW,53356,N,001.6,N*52
$IIVWR,049,R,11.1,N,,,,*6D
$IIDPT,008.6,+0.7,*4E
$IIGLL,4613.110,N,00609.796,E,163312,A,A*53
$IIHDG,311,,,01,E*10
$IIMTW,+17.5,C*3B
$IIMWV,049,R,11.1,N,A*1F
$IIMWV,049,T,11.1,N,A*19
$IIRMC,163312,A,4613.110,N,00609.796,E,00.9,311,010714,01,E,A*07
$IIVHW,,,311,M,00.0,N,,*67
$IIVLW,53356,N,001.6,N*52
$IIVWR,051,R,11.7,N,,,,*62
$IIDPT,008.6,+0.7,*4E
$IIGLL,4613.111,N,00609.796,E,163313,A,A*53
$IIHDG,311,,,01,E*10
$IIMTW,+17.5,C*3B
$IIMWV,051,R,11.7,N,A*10
$IIMWV,049,T,11.1,N,A*19
$IIRMC,163313,A,4613.111,N,00609.796,E,00.9,311,010714,01,E,A*07
$IIVHW,,,308,M,00.0,N,,*6F
$IIVLW,53356,N,001.6,N*52
$IIVWR,051,R,11.4,N,,,,*61
$IIDPT,008.6,+0.7,*4E
$IIGLL,4613.111,N,00609.795,E,163314,A,A*57
$IIHDG,308,,,01,E*18
$IIMTW,+17.5,C*3B
$IIMWV,051,R,11.4,N,A*13
$IIMWV,051,T,11.7,N,A*16
$IIRMC,163315,A,4613.111,N,00609.795,E,00.8,311,010714,01,E,A*03
$IIVHW,,,307,M,00.0,N,,*60
$IIVLW,53356,N,001.6,N*52
$IIVWR,051,R,11.3,N,,,,*66
$IIDPT,008.6,+0.7,*4E
$IIGLL,4613.111,N,00609.795,E,163315,A,A*56
$IIHDG,307,,,01,E*17
$IIMTW,+17.5,C*3B
$IIMWV,051,R,11.3,N,A*14
$IIMWV,051,T,11.3,N,A*12
$IIRMC,163316,A,4613.111,N,00609.795,E,00.8,311,010714,01,E,A*00
$IIVHW,,,306,M,00.0,N,,*61
$IIVLW,53356,N,001.6,N*52
$IIVWR,052,R,11.3,N,,,,*65
$IIDPT,008.6,+0.7,*4E
$IIGLL,4613.111,N,00609.795,E,163316,A,A*55
$IIHDG,306,,,01,E*16
$IIMTW,+17.5,C*3B
$IIMWV,054,R,10.6,N,A*15
$IIMWV,052,T,11.3,N,A*11
$IIRMC,163317,A,4613.111,N,00609.794,E,00.9,311,010714,01,E,A*01
$IIVHW,,,305,M,00.0,N,,*62
$IIVLW,53356,N,001.6,N*52
$IIVWR,054,R,10.6,N,,,,*67
$IIDPT,008.6,+0.7,*4E
$IIGLL,4613.111,N,00609.794,E,163317,A,A*55
$IIHDG,305,,,01,E*15
$IIMTW,+17.5,C*3B
$IIMWV,055,R,10.9,N,A*1B
$IIMWV,054,T,10.6,N,A*13
$IIRMC,163318,A,4613.111,N,00609.794,E,00.9,311,010714,01,E,A*0E
$IIVHW,,,304,M,00.0,N,,*63
$IIVLW,53356,N,001.6,N*52
$IIVWR,055,R,10.9,N,,,,*69
$IIDPT,008.6,+0.7,*4E
$IIGLL,4613.111,N,00609.794,E,163318,A,A*5A
$IIHDG,303,,,01,E*13
$IIMTW,+17.5,C*3B
$IIMWV,054,R,11.0,N,A*12
$IIMWV,055,T,10.9,N,A*1D
$IIRMC,163319,A,4613.111,N,00609.794,E,00.9,311,010714,01,E,A*0F
$IIVHW,,,303,M,00.0,N,,*64
$IIVLW,53356,N,001.6,N*52
$IIVWR,054,R,11.0,N,,,,*60
$IIDPT,008.6,+0.7,*4E
$IIGLL,4613.111,N,00609.793,E,163320,A,A*56
$IIHDG,303,,,01,E*13
$IIMTW,+17.5,C*3B
$IIMWV,055,R,11.0,N,A*13
$IIMWV,054,T,11.0,N,A*14
$IIRMC,163320,A,4613.111,N,00609.793,E,01.0,311,010714,01,E,A*0A
$IIVHW,,,303,M,00.0,N,,*64
$IIVLW,53356,N,001.6,N*52
$IIVWR,055,R,11.0,N,,,,*61
$IIDPT,008.6,+0.7,*4E
$IIGLL,4613.111,N,00609.793,E,163321,A,A*57
$IIHDG,302,,,01,E*12
$IIMTW,+17.5,C*3B
$IIMWV,054,R,11.1,N,A*13
$IIMWV,055,T,11.0,N,A*15
$IIRMC,163321,A,4613.111,N,00609.793,E,01.0,311,010714,01,E,A*0B
$IIVHW,,,302,M,00.0,N,,*65
$IIVLW,53356,N,001.6,N*52
$IIVWR,055,R,11.1,N,,,,*60
$IIDPT,008.6,+0.7,*4E
$IIGLL,4613.111,N,00609.792,E,163322,A,A*55
$IIHDG,302,,,01,E*12
$IIMTW,+17.5,C*3B
$IIMWV,055,R,11.1,N,A*12
$IIMWV,054,T,11.1,N,A*15
$IIRMC,163322,A,4613.111,N,00609.792,E,00.9,311,010714,01,E,A*01
$IIVHW,,,302,M,00.0,N,,*65
$IIVLW,53356,N,001.6,N*52
$IIVWR,056,R,11.1,N,,,,*63
$IIDPT,008.6,+0.7,*4E
$IIGLL,4613.111,N,00609.792,E,163323,A,A*54
$IIHDG,301,,,01,E*11
$IIMTW,+17.5,C*3B
$IIMWV,056,R,11.1,N,A*11
$IIMWV,055,T,11.1,N,A*14
$IIRMC,163323,A,4613.111,N,00609.792,E,01.1,311,010714,01,E,A*09
$IIVHW,,,300,M,00.0,N,,*67
$IIVLW,53356,N,001.6,N*52
$IIVWR,057,R,11.5,N,,,,*66
$IIDPT,008.6,+0.7,*4E
$IIGLL,4613.111,N,00609.792,E,163324,A,A*53
$IIHDG,300,,,01,E*10
$IIMTW,+17.5,C*3B
$IIMWV,057,R,11.5,N,A*14
$IIMWV,056,T,11.1,N,A*17
$IIRMC,163324,A,4613.111,N,00609.792,E,01.1,311,010714,01,E,A*0E
$IIVHW,,,299,M,00.0,N,,*66
$IIVLW,53356,N,001.6,N*52
$IIVWR,056,R,10.9,N,,,,*6A
$IIDPT,008.6,+0.7,*4E
$IIGLL,4613.111,N,00609.792,E,163324,A,A*53
$IIHDG,299,,,01,E*11
$IIMTW,+17.5,C*3B
$IIMWV,056,R,10.9,N,A*18
$IIMWV,056,T,10.9,N,A*1E
$IIRMC,163326,A,4613.111,N,00609.791,E,01.2,311,010714,01,E,A*0C
$IIVHW,,,299,M,00.0,N,,*66
$IIVLW,53356,N,001.6,N*52
$IIVWR,057,R,10.9,N,,,,*6B
$IIDPT,008.6,+0.7,*4E
$IIGLL,4613.111,N,00609.791,E,163326,A,A*52
$IIHDG,299,,,01,E*11
$IIMTW,+17.5,C*3B
$IIMWV,056,R,11.0,N,A*10
$IIMWV,057,T,10.9,N,A*1F
$IIRMC,163327,A,4613.111,N,00609.790,E,01.1,311,010714,01,E,A*0F
$IIVHW,,,298,M,00.0,N,,*67
$IIVLW,53356,N,001.6,N*52
$IIVWR,056,R,11.0,N,,,,*62
$IIDPT,008.6,+0.7,*4E
$IIGLL,4613.111,N,00609.790,E,163327,A,A*52
$IIHDG,298,,,01,E*10
$IIMTW,+17.5,C*3B
$IIMWV,057,R,11.0,N,A*11
$IIMWV,056,T,11.0,N,A*16
$IIRMC,163328,A,4613.111,N,00609.790,E,01.0,311,010714,01,E,A*01
$IIVHW,,,298,M,00.0,N,,*67
$IIVLW,53356,N,001.6,N*52
$IIVWR,057,R,11.0,N,,,,*63
$IIDPT,008.6,+0.7,*4E
$IIGLL,4613.111,N,00609.790,E,163328,A,A*5D
$IIHDG,297,,,01,E*1F
$IIMTW,+17.5,C*3B
$IIMWV,056,R,11.0,N,A*10
$IIMWV,057,T,11.0,N,A*17
$IIRMC,163329,A,4613.111,N,00609.789,E,01.1,311,010714,01,E,A*09
$IIVHW,,,297,M,00.0,N,,*68
$IIVLW,53356,N,001.6,N*52
$IIVWR,056,R,11.0,N,,,,*62
$IIDPT,008.6,+0.7,*4E
$IIGLL,4613.111,N,00609.789,E,163330,A,A*5C
$IIHDG,298,,,01,E*10
$IIMTW,+17.5,C*3B
$IIMWV,056,R,10.9,N,A*18
$IIMWV,056,T,11.0,N,A*16
$IIRMC,163330,A,4613.111,N,00609.789,E,01.0,311,010714,01,E,A*00
$IIVHW,,,298,M,00.0,N,,*67
$IIVLW,53356,N,001.6,N*52
$IIVWR,056,R,10.9,N,,,,*6A
$IIDPT,008.6,+0.7,*4E
$IIGLL,4613.111,N,00609.789,E,163331,A,A*5D
$IIHDG,297,,,01,E*1F
$IIMTW,+17.5,C*3B
$IIMWV,056,R,10.9,N,A*18
$IIMWV,056,T,10.9,N,A*1E
$IIRMC,163331,A,4613.111,N,00609.789,E,01.1,311,010714,01,E,A*00
$IIVHW,,,297,M,00.0,N,,*68
$IIVLW,53356,N,001.6,N*52
$IIVWR,055,R,10.9,N,,,,*69
$IIDPT,008.6,+0.7,*4E
$IIGLL,4613.111,N,00609.788,E,163332,A,A*5F
$IIHDG,297,,,01,E*1F
$IIMTW,+17.5,C*3B
$IIMWV,055,R,10.9,N,A*1B
$IIMWV,056,T,10.9,N,A*1E
$IIRMC,163332,A,4613.111,N,00609.788,E,01.0,311,010714,01,E,A*03
$IIVHW,,,297,M,00.0,N,,*68
$IIVLW,53356,N,001.6,N*52
$IIVWR,056,R,10.9,N,,,,*6A
$IIDPT,008.6,+0.7,*4E
$IIGLL,4613.112,N,00609.788,E,163333,A,A*5D
$IIHDG,298,,,01,E*10
$IIMTW,+17.5,C*3B
$IIMWV,056,R,10.9,N,A*18
$IIMWV,055,T,10.9,N,A*1D
$IIRMC,163333,A,4613.112,N,00609.788,E,01.1,311,010714,01,E,A*00
$IIVHW,,,299,M,00.0,N,,*66
$IIVLW,53356,N,001.6,N*52
$IIVWR,056,R,11.0,N,,,,*62
$IIDPT,008.6,+0.7,*4E
$IIGLL,4613.112,N,00609.787,E,163334,A,A*55
$IIHDG,299,,,01,E*11
$IIMTW,+17.5,C*3B
$IIMWV,056,R,11.0,N,A*10
$IIMWV,056,T,10.9,N,A*1E
$IIRMC,163335,A,4613.112,N,00609.787,E,01.4,311,010714,01,E,A*0C
$IIVHW,,,300,M,00.0,N,,*67
$IIVLW,53356,N,001.6,N*52
$IIVWR,057,R,11.3,N,,,,*60
$IIDPT,008.6,+0.7,*4E
$IIGLL,4613.112,N,00609.787,E,163335,A,A*54
$IIHDG,300,,,01,E*10
$IIMTW,+17.5,C*3B
$IIMWV,057,R,11.3,N,A*12
$IIMWV,057,T,11.3,N,A*14
$IIRMC,163336,A,4613.112,N,00609.786,E,01.2,311,010714,01,E,A*08
$IIVHW,,,301,M,00.0,N,,*66
$IIVLW,53356,N,001.6,N*52
$IIVWR,057,R,11.9,N,,,,*6A
$IIDPT,008.6,+0.7,*4E
$IIGLL,4613.112,N,00609.786,E,163336,A,A*56
$IIHDG,301,,,01,E*11
$IIMTW,+17.5,C*3B
$IIMWV,056,R,12.0,N,A*13
$IIMWV,057,T,11.9,N,A*1E
$IIRMC,163337,A,4613.112,N,00609.786,E,01.0,311,010714,01,E,A*0B
$IIVHW,,,303,M,00.0,N,,*64
$IIVLW,53356,N,001.6,N*52
$IIVWR,056,R,12.0,N,,,,*61
$IIDPT,008.6,+0.7,*4E
$IIGLL,4613.112,N,00609.786,E,163337,A,A*57
$IIHDG,303,,,01,E*13
$IIMTW,+17.5,C*3B
$IIMWV,056,R,12.0,N,A*13
$IIMWV,056,T,12.0,N,A*15
$IIRMC,163338,A,4613.112,N,00609.785,E,01.3,311,010714,01,E,A*04
$IIVHW,,,303,M,00.0,N,,*64
$IIVLW,53356,N,001.6,N*52
$IIVWR,056,R,12.0,N,,,,*61
$IIDPT,008.6,+0.7,*4E
$IIGLL,4613.112,N,00609.785,E,163338,A,A*5B
$IIHDG,305,,,01,E*15
$IIMTW,+17.5,C*3B
$IIMWV,056,R,12.2,N,A*11
$IIMWV,056,T,12.0,N,A*15
$IIRMC,163339,A,4613.112,N,00609.785,E,01.1,311,010714,01,E,A*07
$IIVHW,,,305,M,00.0,N,,*62
$IIVLW,53356,N,001.6,N*52
$IIVWR,056,R,12.2,N,,,,*63
$IIDPT,008.6,+0.7,*4E
$IIGLL,4613.112,N,00609.785,E,163340,A,A*54
$IIHDG,307,,,01,E*17
$IIMTW,+17.5,C*3B
$IIMWV,054,R,11.9,N,A*1B
$IIMWV,056,T,12.2,N,A*17
$IIRMC,163340,A,4613.112,N,00609.785,E,01.1,311,010714,01,E,A*09
$IIVHW,,,307,M,00.0,N,,*60
$IIVLW,53356,N,001.6,N*52
$IIVWR,054,R,11.9,N,,,,*69
$IIDPT,008.6,+0.7,*4E
$IIGLL,4613.112,N,00609.784,E,163341,A,A*54
$IIHDG,308,,,01,E*18
$IIMTW,+17.5,C*3B
$IIMWV,051,R,12.0,N,A*14
$IIMWV,054,T,11.9,N,A*1D
$IIRMC,163341,A,4613.112,N,00609.784,E,01.0,311,010714,01,E,A*08
$IIVHW,,,308,M,00.0,N,,*6F
$IIVLW,53356,N,001.6,N*52
$IIVWR,051,R,11.8,N,,,,*6D
$IIDPT,008.6,+0.7,*4E
$IIGLL,4613.112,N,00609.784,E,163342,A,A*57
$IIHDG,310,,,01,E*11
$IIMTW,+17.5,C*3B
$IIMWV,051,R,11.8,N,A*1F
$IIMWV,051,T,12.0,N,A*12
$IIRMC,163342,A,4613.112,N,00609.784,E,01.0,311,010714,01,E,A*0B
$IIVHW,,,310,M,00.0,N,,*66
$IIVLW,53356,N,001.6,N*52
$IIVWR,050,R,11.9,N,,,,*6D
$IIDPT,008.6,+0.7,*4E
$IIGLL,4613.112,N,00609.783,E,163343,A,A*51
$IIHDG,313,,,01,E*12
$IIMTW,+17.5,C*3B
$IIMWV,050,R,11.9,N,A*1F
$IIMWV,051,T,11.8,N,A*19
$IIRMC,163343,A,4613.112,N,00609.783,E,01.1,311,010714,01,E,A*0C
$IIVHW,,,316,M,00.0,N,,*60
$IIVLW,53356,N,001.6,N*52
$IIVWR,048,R,12.0,N,,,,*6E
$IIDPT,008.6,+0.7,*4E
$IIGLL,4613.112,N,00609.783,E,163344,A,A*56
$IIHDG,316,,,01,E*17
$IIMTW,+17.5,C*3B
$IIMWV,048,R,12.0,N,A*1C
$IIMWV,050,T,11.9,N,A*19
$IIRMC,163345,A,4613.113,N,00609.783,E,01.0,311,010714,01,E,A*0A
$IIVHW,,,318,M,00.0,N,,*6E
$IIVLW,53356,N,001.6,N*52
$IIVWR,046,R,12.0,N,,,,*60
$IIDPT,008.6,+0.7,*4E
$IIGLL,4613.113,N,00609.783,E,163345,A,A*56
$IIHDG,318,,,01,E*19
$IIMTW,+17.5,C*3B
$IIMWV,046,R,12.0,N,A*12
$IIMWV,046,T,12.0,N,A*14
$IIRMC,163346,A,4613.113,N,00609.782,E,01.0,311,010714,01,E,A*08
$IIVHW,,,319,M,00.0,N,,*6F
$IIVLW,53356,N,001.6,N*52
$IIVWR,046,R,12.0,N,,,,*60
$IIDPT,008.6,+0.7,*4E
$IIGLL,4613.113,N,00609.782,E,163346,A,A*54
$IIHDG,319,,,01,E*18
$IIMTW,+17.5,C*3B
$IIMWV,043,R,11.9,N,A*1D
$IIMWV,046,T,12.0,N,A*14
$IIRMC,163347,A,4613.113,N,00609.782,E,00.9,311,010714,01,E,A*01
$IIVHW,,,321,M,00.0,N,,*64
$IIVLW,53356,N,001.6,N*52
$IIVWR,043,R,11.9,N,,,,*6F
$IIDPT,008.6,+0.7,*4E
$IIGLL,4613.113,N,00609.782,E,163347,A,A*55
$IIHDG,321,,,01,E*13
$IIMTW,+17.5,C*3B
$IIMWV,041,R,11.7,N,A*11
$IIMWV,043,T,11.9,N,A*1B
$IIRMC,163348,A,4613.113,N,00609.782,E,00.0,311,010714,01,E,A*07
$IIVHW,,,322,M,00.0,N,,*67
$IIVLW,53356,N,001.6,N*52
$IIVWR,041,R,11.7,N,,,,*63
$IIDPT,008.6,+0.7,*4E
$IIGLL,4613.113,N,00609.782,E,163348,A,A*5A
$IIHDG,324,,,01,E*16
$IIMTW,+17.5,C*3B
$IIMWV,041,R,11.8,N,A*1E
$IIMWV,041,T,11.7,N,A*17
$IIRMC,163349,A,4613.113,N,00609.782,E,00.7,311,010714,01,E,A*01
$IIVHW,,,324,M,00.0,N,,*61
$IIVLW,53356,N,001.6,N*52
$IIVWR,041,R,11.8,N,,,,*6C
$IIDPT,008.6,+0.7,*4E
$IIGLL,4613.114,N,00609.782,E,163350,A,A*54
$IIHDG,324,,,01,E*16
$IIMTW,+17.5,C*3B
$IIMWV,038,R,11.7,N,A*1F
$IIMWV,041,T,11.8,N,A*18
$IIRMC,163350,A,4613.114,N,00609.782,E,00.9,311,010714,01,E,A*00
$IIVHW,,,324,M,00.0,N,,*61
$IIVLW,53356,N,001.6,N*52
$IIVWR,038,R,11.7,N,,,,*6D
$IIDPT,008.6,+0.7,*4E
$IIGLL,4613.114,N,00609.781,E,163351,A,A*56
$IIHDG,324,,,01,E*16
$IIMTW,+17.5,C*3B
$IIMWV,039,R,11.5,N,A*1C
$IIMWV,038,T,11.7,N,A*19
$IIRMC,163351,A,4613.114,N,00609.781,E,00.5,311,010714,01,E,A*0E
$IIVHW,,,324,M,00.0,N,,*61
$IIVLW,53356,N,001.6,N*52
$IIVWR,037,R,11.4,N,,,,*61
$IIDPT,008.6,+0.7,*4E
$IIGLL,4613.114,N,00609.781,E,163352,A,A*55
$IIHDG,327,,,01,E*15
$IIMTW,+17.5,C*3B
$IIMWV,037,R,11.4,N,A*13
$IIMWV,039,T,11.5,N,A*1A
$IIRMC,163352,A,4613.114,N,00609.781,E,00.5,311,010714,01,E,A*0D
$IIVHW,,,327,M,00.0,N,,*62
$IIVLW,53356,N,001.6,N*52
$IIVWR,038,R,11.7,N,,,,*6D
$IIDPT,008.6,+0.7,*4E
$IIGLL,4613.114,N,00609.781,E,163353,A,A*54
$IIHDG,327,,,01,E*15
$IIMTW,+17.5,C*3B
$IIMWV,038,R,11.7,N,A*1F
$IIMWV,037,T,11.4,N,A*15
$IIRMC,163353,A,4613.114,N,00609.781,E,00.4,311,010714,01,E,A*0D
$IIVHW,,,328,M,00.0,N,,*6D
$IIVLW,53356,N,001.6,N*52
$IIVWR,037,R,11.5,N,,,,*60
$IIDPT,008.6,+0.7,*4E
$IIGLL,4613.114,N,00609.781,E,163354,A,A*53
$IIHDG,328,,,01,E*1A
$IIMTW,+17.5,C*3B
$IIMWV,037,R,11.5,N,A*12
$IIMWV,038,T,11.7,N,A*19
$IIRMC,163355,A,4613.114,N,00609.781,E,00.0,311,010714,01,E,A*0F
$IIVHW,,,328,M,00.0,N,,*6D
$IIVLW,53356,N,001.6,N*52
$IIVWR,036,R,11.4,N,,,,*60
$IIDPT,008.6,+0.7,*4E
$IIGLL,4613.114,N,00609.781,E,163355,A,A*52
$IIHDG,328,,,01,E*1A
$IIMTW,+17.5,C*3B
$IIMWV,036,R,11.4,N,A*12
$IIMWV,036,T,11.4,N,A*14
$IIRMC,163356,A,4613.114,N,00609.781,E,00.0,311,010714,01,E,A*0C
$IIVHW,,,328,M,00.0,N,,*6D
$IIVLW,53356,N,001.6,N*52
$IIVWR,037,R,11.3,N,,,,*66
$IIDPT,008.6,+0.7,*4E
$IIGLL,4613.114,N,00609.781,E,163356,A,A*51
$IIHDG,328,,,01,E*1A
$IIMTW,+17.5,C*3B
$IIMWV,036,R,11.3,N,A*15
$IIMWV,037,T,11.3,N,A*12
$IIRMC,163357,A,4613.114,N,00609.781,E,00.0,311,010714,01,E,A*0D
$IIVHW,,,328,M,00.0,N,,*6D
$IIVLW,53356,N,001.6,N*52
$IIVWR,036,R,11.3,N,,,,*67
$IIDPT,008.6,+0.7,*4E
$IIGLL,4613.114,N,00609.781,E,163357,A,A*50
$IIHDG,328,,,01,E*1A
$IIMTW,+17.5,C*3B
$IIMWV,035,R,10.9,N,A*1D
$IIMWV,036,T,11.3,N,A*13
$IIRMC,163358,A,4613.114,N,00609.781,E,00.0,311,010714,01,E,A*02
$IIVHW,,,326,M,00.0,N,,*63
$IIVLW,53356,N,001.6,N*52
$IIVWR,035,R,10.9,N,,,,*6F
$IIDPT,008.6,+0.7,*4E
$IIGLL,4613.114,N,00609.781,E,163358,A,A*5F
$IIHDG,325,,,01,E*17
$IIMTW,+17.5,C*3B
$IIMWV,035,R,10.6,N,A*12
$IIMWV,035,T,10.9,N,A*1B
$IIRMC,163359,A,4613.114,N,00609.781,E,00.0,311,010714,01,E,A*03
$IIVHW,,,325,M,00.0,N,,*60
$IIVLW,53356,N,001.6,N*52
$IIVWR,035,R,10.6,N,,,,*60
$IIDPT,008.6,+0.7,*4E
$IIGLL,4613.114,N,00609.781,E,163400,A,A*55
$IIHDG,322,,,01,E*10
$IIMTW,+17.5,C*3B
$IIMWV,037,R,10.6,N,A*10
$IIMWV,035,T,10.6,N,A*14
$IIRMC,163400,A,4613.114,N,00609.781,E,00.0,311,010714,01,E,A*08
$IIVHW,,,322,M,00.0,N,,*67
$IIVLW,53356,N,001.6,N*52
$IIVWR,037,R,10.6,N,,,,*62
$IIDPT,008.6,+0.7,*4E
$IIGLL,4613.114,N,00609.781,E,163401,A,A*54
$IIHDG,323,,,01,E*11
$IIMTW,+17.5,C*3B
$IIMWV,041,R,10.7,N,A*10
$IIMWV,037,T,10.6,N,A*16
$IIRMC,163401,A,4613.114,N,00609.781,E,00.0,311,010714,01,E,A*09
$IIVHW,,,323,M,00.0,N,,*66
$IIVLW,53356,N,001.6,N*52
$IIVWR,042,R,10.9,N,,,,*6F
$IIDPT,008.6,+0.7,*4E
$IIGLL,4613.114,N,00609.781,E,163402,A,A*57
$IIHDG,320,,,01,E*12
$IIMTW,+17.5,C*3B
$IIMWV,042,R,10.9,N,A*1D
$IIMWV,041,T,10.7,N,A*16
$IIRMC,163402,A,4613.114,N,00609.781,E,00.0,311,010714,01,E,A*0A
$IIVHW,,,320,M,00.0,N,,*65
$IIVLW,53356,N,001.6,N*52
$IIVWR,043,R,11.0,N,,,,*66
$IIDPT,008.6,+0.7,*4E
$IIGLL,4613.114,N,00609.781,E,163403,A,A*56
$IIHDG,322,,,01,E*10
$IIMTW,+17.5,C*3B
$IIMWV,043,R,11.0,N,A*14
$IIMWV,042,T,10.9,N,A*1B
$IIRMC,163403,A,4613.114,N,00609.781,E,00.0,311,010714,01,E,A*0B
$IIVHW,,,316,M,00.0,N,,*60
$IIVLW,53356,N,001.6,N*52
$IIVWR,043,R,10.7,N,,,,*60
$IIDPT,008.6,+0.7,*4E
$IIGLL,4613.114,N,00609.781,E,163404,A,A*51
$IIHDG,316,,,01,E*17
$IIMTW,+17.5,C*3B
$IIMWV,043,R,10.7,N,A*12
$IIMWV,043,T,11.0,N,A*12
$IIRMC,163405,A,4613.114,N,00609.781,E,00.0,311,010714,01,E,A*0D
$IIVHW,,,318,M,00.0,N,,*6E
$IIVLW,53356,N,001.6,N*52
$IIVWR,045,R,10.7,N,,,,*66
$IIDPT,008.6,+0.7,*4E
$IIGLL,4613.114,N,00609.781,E,163405,A,A*50
$IIHDG,318,,,01,E*19
$IIMTW,+17.5,C*3B
$IIMWV,045,R,10.7,N,A*14
$IIMWV,045,T,10.7,N,A*12
$IIRMC,163406,A,4613.114,N,00609.781,E,00.0,311,010714,01,E,A*0E
$IIVHW,,,314,M,00.0,N,,*62
$IIVLW,53356,N,001.6,N*52
$IIVWR,045,R,10.9,N,,,,*68
$IIDPT,008.6,+0.7,*4E
$IIGLL,4613.114,N,00609.781,E,163406,A,A*53
$IIHDG,314,,,01,E*15
$IIMTW,+17.5,C*3B
$IIMWV,047,R,10.9,N,A*18
$IIMWV,045,T,10.9,N,A*1C
$IIRMC,163407,A,4613.114,N,00609.781,E,00.0,311,010714,01,E,A*0F
$IIVHW,,,314,M,00.0,N,,*62
$IIVLW,53356,N,001.6,N*52
$IIVWR,047,R,10.9,N,,,,*6A
$IIDPT,008.6,+0.7,*4E
$IIGLL,4613.114,N,00609.781,E,163407,A,A*52
$IIHDG,314,,,01,E*15
$IIMTW,+17.5,C*3B
$IIMWV,047,R,10.7,N,A*16
$IIMWV,047,T,10.9,N,A*1E
$IIRMC,163408,A,4613.114,N,00609.781,E,00.0,311,010714,01,E,A*00
$IIVHW,,,311,M,00.0,N,,*67
$IIVLW,53356,N,001.6,N*52
$IIVWR,047,R,10.7,N,,,,*64
$IIDPT,008.6,+0.7,*4E
$IIGLL,4613.114,N,00609.781,E,163408,A,A*5D
$IIHDG,310,,,01,E*11
$IIMTW,+17.5,C*3B
$IIMWV,050,R,10.7,N,A*10
$IIMWV,047,T,10.7,N,A*10
$IIRMC,163409,A,4613.114,N,00609.781,E,00.5,311,010714,01,E,A*04
$IIVHW,,,310,M,00.0,N,,*66
$IIVLW,53356,N,001.6,N*52
$IIVWR,050,R,10.7,N,,,,*62
$IIDPT,008.6,+0.7,*4E
$IIGLL,4613.114,N,00609.781,E,163410,A,A*54
$IIHDG,307,,,01,E*17
$IIMTW,+17.5,C*3B
$IIMWV,051,R,10.6,N,A*10
$IIMWV,050,T,10.7,N,A*16
$IIRMC,163410,A,4613.114,N,00609.781,E,00.6,311,010714,01,E,A*0F
$IIVHW,,,307,M,00.0,N,,*60
$IIVLW,53356,N,001.6,N*52
$IIVWR,051,R,10.6,N,,,,*62
$IIDPT,008.6,+0.7,*4E
$IIGLL,4613.114,N,00609.781,E,163411,A,A*55
$IIHDG,306,,,01,E*16
$IIMTW,+17.5,C*3B
$IIMWV,053,R,10.6,N,A*12
$IIMWV,051,T,10.6,N,A*16
$IIRMC,163411,A,4613.114,N,00609.781,E,00.0,311,010714,01,E,A*08
$IIVHW,,,306,M,00.0,N,,*61
$IIVLW,53356,N,001.6,N*52
$IIVWR,056,R,10.5,N,,,,*66
$IIDPT,008.6,+0.7,*4E
$IIGLL,4613.114,N,00609.780,E,163412,A,A*57
$IIHDG,303,,,01,E*13
$IIMTW,+17.5,C*3B
$IIMWV,056,R,10.5,N,A*14
$IIMWV,053,T,10.6,N,A*14
$IIRMC,163412,A,4613.114,N,00609.780,E,00.0,311,010714,01,E,A*0A
$IIVHW,,,303,M,00.0,N,,*64
$IIVLW,53356,N,001.6,N*52
$IIVWR,056,R,10.6,N,,,,*65
$IIDPT,008.6,+0.7,*4E
$IIGLL,4613.114,N,00609.780,E,163413,A,A*56
$IIHDG,302,,,01,E*12
$IIMTW,+17.5,C*3B
$IIMWV,056,R,10.6,N,A*17
$IIMWV,056,T,10.5,N,A*12
$IIRMC,163413,A,4613.114,N,00609.780,E,00.0,311,010714,01,E,A*0B
$IIVHW,,,302,M,00.0,N,,*65
$IIVLW,53356,N,001.6,N*52
$IIVWR,060,R,10.7,N,,,,*61
$IIDPT,008.6,+0.7,*4E
$IIGLL,4613.113,N,00609.780,E,163414,A,A*56
$IIHDG,302,,,01,E*12
$IIMTW,+17.5,C*3B
$IIMWV,060,R,10.7,N,A*13
$IIMWV,056,T,10.6,N,A*11
$IIRMC,163415,A,4613.114,N,00609.780,E,00.0,311,010714,01,E,A*0D
$IIVHW,,,302,M,00.0,N,,*65
$IIVLW,53356,N,001.6,N*52
$IIVWR,061,R,11.1,N,,,,*67
$IIDPT,008.6,+0.7,*4E
$IIGLL,4613.114,N,00609.780,E,163415,A,A*50
$IIHDG,302,,,01,E*12
$IIMTW,+17.5,C*3B
$IIMWV,061,R,11.1,N,A*15
$IIMWV,061,T,11.1,N,A*13
$IIRMC,163416,A,4613.114,N,00609.780,E,00.0,311,010714,01,E,A*0E
$IIVHW,,,303,M,00.0,N,,*64
$IIVLW,53356,N,001.6,N*52
$IIVWR,061,R,11.1,N,,,,*67
$IIDPT,008.6,+0.7,*4E
$IIGLL,4613.114,N,00609.780,E,163416,A,A*53
$IIHDG,303,,,01,E*13
$IIMTW,+17.5,C*3B
$IIMWV,062,R,11.1,N,A*16
$IIMWV,061,T,11.1,N,A*13
$IIRMC,163417,A,4613.114,N,00609.780,E,00.0,311,010714,01,E,A*0F
$IIVHW,,,303,M,00.0,N,,*64
$IIVLW,53356,N,001.6,N*52
$IIVWR,062,R,11.1,N,,,,*64
$IIDPT,008.6,+0.7,*4E
$IIGLL,4613.114,N,00609.780,E,163417,A,A*52
$IIHDG,303,,,01,E*13
$IIMTW,+17.5,C*3B
$IIMWV,061,R,10.9,N,A*1C
$IIMWV,062,T,11.1,N,A*10
$IIRMC,163418,A,4613.114,N,00609.780,E,00.0,311,010714,01,E,A*00
$IIVHW,,,303,M,00.0,N,,*64
$IIVLW,53356,N,001.6,N*52
$IIVWR,061,R,10.9,N,,,,*6E
$IIDPT,008.6,+0.7,*4E
$IIGLL,4613.114,N,00609.780,E,163418,A,A*5D
$IIHDG,303,,,01,E*13
$IIMTW,+17.5,C*3B
$IIMWV,061,R,10.9,N,A*1C
$IIMWV,061,T,10.9,N,A*1A
$IIRMC,163419,A,4613.113,N,00609.780,E,00.0,311,010714,01,E,A*06
$IIVHW,,,303,M,00.0,N,,*64
$IIVLW,53356,N,001.6,N*52
$IIVWR,061,R,10.9,N,,,,*6E
$IIDPT,008.6,+0.7,*4E
$IIGLL,4613.113,N,00609.780,E,163420,A,A*51
$IIHDG,303,,,01,E*13
$IIMTW,+17.5,C*3B
$IIMWV,061,R,10.9,N,A*1C
$IIMWV,061,T,10.9,N,A*1A
$IIRMC,163420,A,4613.113,N,00609.780,E,00.0,311,010714,01,E,A*0C
$IIVHW,,,303,M,00.0,N,,*64
$IIVLW,53356,N,001.6,N*52
$IIVWR,061,R,10.9,N,,,,*6E
$IIDPT,008.6,+0.7,*4E
$IIGLL,4613.113,N,00609.780,E,163421,A,A*50
$IIHDG,302,,,01,E*12
$IIMTW,+17.5,C*3B
$IIMWV,060,R,10.7,N,A*13
$IIMWV,061,T,10.9,N,A*1A
$IIRMC,163421,A,4613.113,N,00609.780,E,00.7,311,010714,01,E,A*0A
$IIVHW,,,302,M,00.0,N,,*65
$IIVLW,53356,N,001.6,N*52
$IIVWR,061,R,10.7,N,,,,*60
$IIDPT,008.6,+0.7,*4E
$IIGLL,4613.113,N,00609.780,E,163422,A,A*53
$IIHDG,302,,,01,E*12
$IIMTW,+17.5,C*3B
$IIMWV,061,R,10.7,N,A*12
$IIMWV,060,T,10.7,N,A*15
$IIRMC,163422,A,4613.113,N,00609.780,E,00.0,311,010714,01,E,A*0E
$IIVHW,,,302,M,00.0,N,,*65
$IIVLW,53356,N,001.6,N*52
$IIVWR,059,R,10.4,N,,,,*68
$IIDPT,008.6,+0.7,*4E
$IIGLL,4613.113,N,00609.780,E,163423,A,A*52
$IIHDG,301,,,01,E*11
$IIMTW,+17.5,C*3B
$IIMWV,059,R,10.4,N,A*1A
$IIMWV,061,T,10.7,N,A*14
$IIRMC,163423,A,4613.113,N,00609.780,E,00.0,311,010714,01,E,A*0F
$IIVHW,,,300,M,00.0,N,,*67
$IIVLW,53356,N,001.6,N*52
$IIVWR,059,R,10.1,N,,,,*6D
$IIDPT,008.6,+0.7,*4E
$IIGLL,4613.113,N,00609.780,E,163424,A,A*55
$IIHDG,300,,,01,E*10
$IIMTW,+17.5,C*3B
$IIMWV,059,R,10.1,N,A*1F
$IIMWV,059,T,10.4,N,A*1C
$IIRMC,163425,A,4613.113,N,00609.780,E,00.8,311,010714,01,E,A*01
$IIVHW,,,298,M,00.0,N,,*67
$IIVLW,53356,N,001.6,N*52
$IIVWR,062,R,10.1,N,,,,*65
$IIDPT,008.6,+0.7,*4E
$IIGLL,4613.113,N,00609.780,E,163425,A,A*54
$IIHDG,298,,,01,E*10
$IIMTW,+17.5,C*3B
$IIMWV,062,R,10.1,N,A*17
$IIMWV,062,T,10.1,N,A*11
$IIRMC,163426,A,4613.113,N,00609.779,E,00.0,311,010714,01,E,A*0C
$IIVHW,,,297,M,00.0,N,,*68
$IIVLW,53356,N,001.6,N*52
$IIVWR,062,R,10.2,N,,,,*66
$IIDPT,008.6,+0.7,*4E
$IIGLL,4613.113,N,00609.779,E,163426,A,A*51
$IIHDG,297,,,01,E*1F
$IIMTW,+17.5,C*3B
$IIMWV,064,R,10.5,N,A*15
$IIMWV,062,T,10.2,N,A*12
$IIRMC,163427,A,4613.112,N,00609.779,E,01.3,311,010714,01,E,A*0E
$IIVHW,,,294,M,00.0,N,,*6B
$IIVLW,53356,N,001.6,N*52
$IIVWR,064,R,10.5,N,,,,*67
$IIDPT,008.6,+0.7,*4E
$IIGLL,4613.112,N,00609.779,E,163427,A,A*51
$IIHDG,294,,,01,E*1C
$IIMTW,+17.5,C*3B
$IIMWV,064,R,10.4,N,A*14
$IIMWV,064,T,10.5,N,A*13
$IIRMC,163428,A,4613.112,N,00609.779,E,01.6,311,010714,01,E,A*04
$IIVHW,,,292,M,00.0,N,,*6D
$IIVLW,53356,N,001.6,N*52
$IIVWR,064,R,10.4,N,,,,*66
$IIDPT,008.6,+0.7,*4E
$IIGLL,4613.112,N,00609.779,E,163428,A,A*5E
$IIHDG,291,,,01,E*19
$IIMTW,+17.5,C*3B
$IIMWV,064,R,10.2,N,A*12
$IIMWV,064,T,10.4,N,A*12
$IIRMC,163429,A,4613.112,N,00609.778,E,02.0,311,010714,01,E,A*01
$IIVHW,,,291,M,01.0,N,,*6F
$IIVLW,53356,N,001.6,N*52
$IIVWR,064,R,10.2,N,,,,*60
$IIDPT,008.6,+0.7,*4E
$IIGLL,4613.112,N,00609.777,E,163430,A,A*59
$IIHDG,291,,,01,E*19
$IIMTW,+17.5,C*3B
$IIMWV,064,R,10.4,N,A*14
$IIMWV,070,T,09.7,N,A*1C
$IIRMC,163430,A,4613.112,N,00609.777,E,01.9,262,010714,01,E,A*09
$IIVHW,,,291,M,01.2,N,,*6D
$IIVLW,53356,N,001.6,N*52
$IIVWR,064,R,10.4,N,,,,*66
$IIDPT,008.6,+0.7,*4E
$IIGLL,4613.111,N,00609.776,E,163431,A,A*5A
$IIHDG,291,,,01,E*19
$IIMTW,+17.5,C*3B
$IIMWV,062,R,10.6,N,A*10
$IIMWV,070,T,09.8,N,A*13
$IIRMC,163431,A,4613.111,N,00609.776,E,01.9,267,010714,01,E,A*0F
$IIVHW,,,291,M,01.5,N,,*6A
$IIVLW,53356,N,001.6,N*52
$IIVWR,061,R,10.7,N,,,,*60
$IIDPT,008.6,+0.7,*4E
