$IIGLL,4612.972,N,00609.780,E,164001,A,A*5F
$IIHDG,316,,,01,E*17
$IIMTW,+18.0,C*31
$IIMWV,035,R,26.5,N,A*14
$IIMWV,048,T,20.6,N,A*1D
$IIRMC,164001,A,4612.972,N,00609.780,E,08.5,306,020714,01,E,A*0A
$IIVHW,,,316,M,07.4,N,,*63
$IIVLW,53364,N,001.6,N*53
$IIVWR,035,R,26.5,N,,,,*66
$IIDPT,007.0,+0.7,*47
$IIGLL,4612.972,N,00609.780,E,164001,A,A*5F
$IIHDG,318,,,01,E*19
$IIMTW,+18.0,C*31
$IIMWV,035,R,26.0,N,A*11
$IIMWV,047,T,20.7,N,A*13
$IIRMC,164001,A,4612.972,N,00609.780,E,08.5,306,020714,01,E,A*0A
$IIVHW,,,318,M,07.4,N,,*6D
$IIVLW,53364,N,001.6,N*53
$IIVWR,034,R,25.7,N,,,,*66
$IIDPT,007.0,+0.7,*47
$IIGLL,4612.975,N,00609.776,E,164003,A,A*53
$IIHDG,317,,,01,E*16
$IIMTW,+18.0,C*31
$IIMWV,034,R,25.7,N,A*14
$IIMWV,047,T,20.2,N,A*16
$IIRMC,164003,A,4612.975,N,00609.776,E,08.1,319,020714,01,E,A*0C
$IIVHW,,,317,M,07.4,N,,*62
$IIVLW,53364,N,001.6,N*53
$IIVWR,033,R,25.6,N,,,,*60
$IIDPT,006.8,+0.7,*4E
$IIGLL,4612.975,N,00609.776,E,164003,A,A*53
$IIHDG,317,,,01,E*16
$IIMTW,+18.0,C*31
$IIMWV,033,R,25.6,N,A*12
$IIMWV,046,T,19.8,N,A*17
$IIRMC,164003,A,4612.975,N,00609.776,E,08.1,319,020714,01,E,A*0C
$IIVHW,,,318,M,07.5,N,,*6C
$IIVLW,53364,N,001.6,N*53
$IIVWR,032,R,25.6,N,,,,*61
$IIDPT,006.8,+0.7,*4E
$IIGLL,4612.977,N,00609.773,E,164004,A,A*53
$IIHDG,318,,,01,E*19
$IIMTW,+18.0,C*31
$IIMWV,032,R,25.6,N,A*13
$IIMWV,045,T,19.5,N,A*19
$IIRMC,164005,A,4612.978,N,00609.771,E,07.8,316,020714,01,E,A*09
$IIVHW,,,320,M,07.4,N,,*66
$IIVLW,53364,N,001.6,N*53
$IIVWR,032,R,26.2,N,,,,*66
$IIDPT,006.8,+0.7,*4E
$IIGLL,4612.978,N,00609.771,E,164005,A,A*5F
$IIHDG,320,,,01,E*12
$IIMTW,+18.0,C*31
$IIMWV,032,R,26.2,N,A*14
$IIMWV,043,T,20.1,N,A*11
$IIRMC,164007,A,4612.982,N,00609.768,E,07.2,328,020714,01,E,A*01
$IIVHW,,,324,M,07.3,N,,*65
$IIVLW,53364,N,001.6,N*53
$IIVWR,033,R,26.5,N,,,,*60
$IIDPT,006.8,+0.7,*4E
$IIGLL,4612.982,N,00609.768,E,164007,A,A*50
$IIHDG,324,,,01,E*16
$IIMTW,+18.0,C*31
$IIMWV,033,R,26.7,N,A*10
$IIMWV,044,T,20.5,N,A*12
$IIRMC,164007,A,4612.982,N,00609.768,E,07.2,328,020714,01,E,A*01
$IIVHW,,,326,M,07.2,N,,*66
$IIVLW,53364,N,001.6,N*53
$IIVWR,033,R,26.7,N,,,,*62
$IIDPT,007.1,+0.7,*46
$IIGLL,4612.982,N,00609.768,E,164007,A,A*50
$IIHDG,326,,,01,E*14
$IIMTW,+18.0,C*31
$IIMWV,032,R,26.1,N,A*17
$IIMWV,044,T,20.8,N,A*1F
$IIRMC,164008,A,4612.984,N,00609.766,E,07.2,327,020714,01,E,A*09
$IIVHW,,,327,M,07.1,N,,*64
$IIVLW,53364,N,001.6,N*53
$IIVWR,032,R,26.1,N,,,,*65
$IIDPT,007.1,+0.7,*46
$IIGLL,4612.984,N,00609.766,E,164008,A,A*57
$IIHDG,329,,,01,E*1B
$IIMTW,+18.0,C*31
$IIMWV,031,R,26.3,N,A*16
$IIMWV,043,T,20.3,N,A*13
$IIRMC,164009,A,4612.986,N,00609.765,E,05.8,338,020714,01,E,A*0F
$IIVHW,,,329,M,06.9,N,,*63
$IIVLW,53364,N,001.6,N*53
$IIVWR,031,R,26.3,N,,,,*64
$IIDPT,007.1,+0.7,*46
$IIGLL,4612.987,N,00609.764,E,164010,A,A*5F
$IIHDG,333,,,01,E*10
$IIMTW,+18.0,C*31
$IIMWV,031,R,26.5,N,A*10
$IIMWV,041,T,20.7,N,A*15
$IIRMC,164010,A,4612.987,N,00609.764,E,07.4,328,020714,01,E,A*08
$IIVHW,,,333,M,06.7,N,,*66
$IIVLW,53364,N,001.6,N*53
$IIVWR,031,R,26.5,N,,,,*62
$IIDPT,007.1,+0.7,*46
$IIGLL,4612.989,N,00609.762,E,164011,A,A*56
$IIHDG,337,,,01,E*14
$IIMTW,+18.0,C*31
$IIMWV,027,R,25.7,N,A*16
$IIMWV,041,T,21.0,N,A*13
$IIRMC,164011,A,4612.989,N,00609.762,E,06.5,336,020714,01,E,A*0E
$IIVHW,,,337,M,06.4,N,,*61
$IIVLW,53364,N,001.6,N*53
$IIVWR,021,R,25.6,N,,,,*63
$IIDPT,007.1,+0.7,*46
$IIGLL,4612.993,N,00609.761,E,164013,A,A*5C
$IIHDG,343,,,01,E*17
$IIMTW,+18.0,C*31
$IIMWV,021,R,25.6,N,A*11
$IIMWV,035,T,19.9,N,A*12
$IIRMC,164013,A,4612.993,N,00609.761,E,06.5,358,020714,01,E,A*0C
$IIVHW,,,343,M,06.2,N,,*64
$IIVLW,53364,N,001.7,N*52
$IIVWR,012,R,25.4,N,,,,*61
$IIDPT,007.1,+0.7,*46
$IIGLL,4612.995,N,00609.761,E,164014,A,A*5D
$IIHDG,351,,,01,E*14
$IIMTW,+18.0,C*31
$IIMWV,012,R,25.4,N,A*13
$IIMWV,027,T,19.8,N,A*10
$IIRMC,164014,A,4612.995,N,00609.761,E,06.1,006,020714,01,E,A*01
$IIVHW,,,001,M,05.5,N,,*65
$IIVLW,53364,N,001.7,N*52
$IIVWR,003,R,24.3,N,,,,*67
$IIDPT,007.1,+0.7,*46
$IIGLL,4612.995,N,00609.761,E,164014,A,A*5D
$IIHDG,001,,,01,E*12
$IIMTW,+18.0,C*31
$IIMWV,003,R,24.3,N,A*15
$IIMWV,016,T,19.6,N,A*1C
$IIRMC,164015,A,4612.997,N,00609.762,E,04.2,011,020714,01,E,A*06
$IIVHW,,,011,M,05.1,N,,*60
$IIVLW,53364,N,001.7,N*52
$IIVWR,004,L,23.6,N,,,,*7C
$IIDPT,007.2,+0.7,*45
$IIGLL,4612.997,N,00609.762,E,164015,A,A*5D
$IIHDG,011,,,01,E*13
$IIMTW,+18.0,C*31
$IIMWV,356,R,23.6,N,A*14
$IIMWV,355,T,18.4,N,A*1B
$IIRMC,164016,A,4612.998,N,00609.762,E,03.9,025,020714,01,E,A*01
$IIVHW,,,011,M,05.1,N,,*60
$IIVLW,53364,N,001.7,N*52
$IIVWR,008,L,22.2,N,,,,*75
$IIDPT,007.2,+0.7,*45
$IIGLL,4612.998,N,00609.762,E,164016,A,A*51
$IIHDG,011,,,01,E*13
$IIMTW,+18.0,C*31
$IIMWV,346,R,21.8,N,A*19
$IIMWV,349,T,16.9,N,A*15
$IIRMC,164017,A,4612.998,N,00609.763,E,02.0,025,020714,01,E,A*09
$IIVHW,,,011,M,05.1,N,,*60
$IIVLW,53364,N,001.7,N*52
$IIVWR,014,L,21.8,N,,,,*71
$IIDPT,007.2,+0.7,*45
$IIGLL,4612.998,N,00609.763,E,164017,A,A*51
$IIHDG,011,,,01,E*13
$IIMTW,+18.0,C*31
$IIMWV,345,R,20.6,N,A*15
$IIMWV,342,T,16.7,N,A*10
$IIRMC,164017,A,4612.998,N,00609.763,E,02.0,025,020714,01,E,A*09
$IIVHW,,,011,M,05.1,N,,*60
$IIVLW,53364,N,001.7,N*52
$IIVWR,015,L,20.6,N,,,,*7F
$IIDPT,007.2,+0.7,*45
$IIGLL,4612.998,N,00609.763,E,164017,A,A*51
$IIHDG,011,,,01,E*13
$IIMTW,+18.0,C*31
$IIMWV,338,R,17.8,N,A*15
$IIMWV,340,T,15.6,N,A*10
$IIRMC,164019,A,4612.999,N,00609.765,E,03.5,068,020714,01,E,A*0D
$IIVHW,,,011,M,05.1,N,,*60
$IIVLW,53364,N,001.7,N*52
$IIVWR,022,L,17.8,N,,,,*71
$IIDPT,007.2,+0.7,*45
$IIGLL,4612.999,N,00609.767,E,164020,A,A*50
$IIHDG,011,,,01,E*13
$IIMTW,+18.0,C*31
$IIMWV,323,R,16.6,N,A*10
$IIMWV,330,T,13.0,N,A*17
$IIRMC,164020,A,4612.999,N,00609.767,E,03.9,079,020714,01,E,A*09
$IIVHW,,,011,M,05.1,N,,*60
$IIVLW,53364,N,001.7,N*52
$IIVWR,037,L,16.6,N,,,,*7A
$IIDPT,007.2,+0.7,*45
$IIGLL,4613.000,N,00609.768,E,164021,A,A*56
$IIHDG,011,,,01,E*13
$IIMTW,+18.0,C*31
$IIMWV,314,R,18.2,N,A*1E
$IIMWV,309,T,12.7,N,A*1B
$IIRMC,164021,A,4613.000,N,00609.768,E,03.1,089,020714,01,E,A*08
$IIVHW,,,011,M,05.1,N,,*60
$IIVLW,53364,N,001.7,N*52
$IIVWR,056,L,18.9,N,,,,*7C
$IIDPT,007.2,+0.7,*45
$IIGLL,4613.000,N,00609.770,E,164022,A,A*5C
$IIHDG,011,,,01,E*13
$IIMTW,+18.0,C*31
$IIMWV,304,R,18.9,N,A*14
$IIMWV,299,T,14.9,N,A*1B
$IIRMC,164022,A,4613.000,N,00609.770,E,04.1,084,020714,01,E,A*08
$IIVHW,,,011,M,05.1,N,,*60
$IIVLW,53364,N,001.7,N*52
$IIVWR,061,L,19.2,N,,,,*72
$IIGLL,4613.000,N,00609.772,E,164023,A,A*5F
$IIMWV,299,R,19.2,N,A*1B
$IIMWV,289,T,16.4,N,A*15
$IIRMC,164023,A,4613.000,N,00609.772,E,04.9,100,020714,01,E,A*0E
$IIVLW,53364,N,001.7,N*52
$IIVWR,072,L,17.9,N,,,,*75
$IIDPT,007.4,+0.7,*43
$IIGLL,4613.000,N,00609.774,E,164024,A,A*5E
$IIHDG,092,,,01,E*18
$IIMTW,+18.0,C*31
$IIMWV,288,R,17.9,N,A*1E
$IIMWV,283,T,17.1,N,A*1B
$IIRMC,164024,A,4613.000,N,00609.774,E,05.0,093,020714,01,E,A*0C
$IIVHW,,,102,M,04.4,N,,*67
$IIVLW,53364,N,001.7,N*52
$IIVWR,081,L,17.6,N,,,,*76
$IIDPT,007.4,+0.7,*43
$IIGLL,4612.999,N,00609.778,E,164026,A,A*58
$IIHDG,102,,,01,E*10
$IIMTW,+18.0,C*31
$IIMWV,279,R,17.6,N,A*1F
$IIMWV,275,T,17.0,N,A*13
$IIRMC,164026,A,4612.999,N,00609.778,E,06.8,113,020714,01,E,A*08
$IIVHW,,,112,M,04.9,N,,*6B
$IIVLW,53364,N,001.7,N*52
$IIVWR,092,L,18.3,N,,,,*7E
$IIDPT,007.4,+0.7,*43
$IIGLL,4612.999,N,00609.778,E,164026,A,A*58
$IIHDG,112,,,01,E*11
$IIMTW,+18.0,C*31
$IIMWV,268,R,18.3,N,A*15
$IIMWV,254,T,19.0,N,A*1E
$IIRMC,164028,A,4612.997,N,00609.783,E,07.7,127,020714,01,E,A*05
$IIVHW,,,122,M,05.4,N,,*64
$IIVLW,53364,N,001.7,N*52
$IIVWR,098,L,19.8,N,,,,*7E
$IIDPT,007.4,+0.7,*43
$IIGLL,4612.997,N,00609.783,E,164028,A,A*5C
$IIHDG,122,,,01,E*12
$IIMTW,+18.0,C*31
$IIMWV,262,R,21.1,N,A*17
$IIMWV,247,T,21.2,N,A*15
$IIRMC,164028,A,4612.997,N,00609.783,E,07.7,127,020714,01,E,A*05
$IIVHW,,,132,M,06.2,N,,*60
$IIVLW,53364,N,001.7,N*52
$IIVWR,098,L,21.1,N,,,,*7C
$IIDPT,007.4,+0.7,*43
$IIGLL,4612.997,N,00609.783,E,164028,A,A*5C
$IIHDG,132,,,01,E*13
$IIMTW,+18.0,C*31
$IIMWV,255,R,18.7,N,A*1F
$IIMWV,246,T,22.7,N,A*12
$IIRMC,164029,A,4612.995,N,00609.785,E,09.1,138,020714,01,E,A*06
$IIVHW,,,140,M,07.0,N,,*66
$IIVLW,53364,N,001.7,N*52
$IIVWR,105,L,18.7,N,,,,*75
$IIDPT,007.4,+0.7,*43
$IIGLL,4612.995,N,00609.785,E,164029,A,A*59
$IIHDG,146,,,01,E*10
$IIMTW,+18.0,C*31
$IIMWV,252,R,16.7,N,A*16
$IIMWV,237,T,21.6,N,A*16
$IIRMC,164030,A,4612.993,N,00609.788,E,09.2,140,020714,01,E,A*09
$IIVHW,,,146,M,07.6,N,,*66
$IIVLW,53364,N,001.7,N*52
$IIVWR,108,L,16.7,N,,,,*76
$IIDPT,007.4,+0.7,*43
$IIGLL,4612.991,N,00609.790,E,164031,A,A*50
$IIHDG,148,,,01,E*1E
$IIMTW,+18.0,C*31
$IIMWV,251,R,14.3,N,A*13
$IIMWV,231,T,20.3,N,A*14
$IIRMC,164031,A,4612.991,N,00609.790,E,09.2,145,020714,01,E,A*06
$IIVHW,,,148,M,08.1,N,,*60
$IIVLW,53364,N,001.7,N*52
$IIVWR,109,L,14.3,N,,,,*71
$IIDPT,007.4,+0.7,*43
$IIGLL,4612.988,N,00609.792,E,164032,A,A*59
$IIHDG,151,,,01,E*16
$IIMTW,+18.0,C*31
$IIMWV,252,R,13.5,N,A*11
$IIMWV,227,T,18.6,N,A*1D
$IIRMC,164032,A,4612.988,N,00609.792,E,09.1,151,020714,01,E,A*09
$IIVHW,,,151,M,08.5,N,,*6C
$IIVLW,53364,N,001.7,N*52
$IIVWR,110,L,12.6,N,,,,*7A
$IIDPT,007.4,+0.7,*43
$IIGLL,4612.986,N,00609.794,E,164033,A,A*50
$IIHDG,150,,,01,E*17
$IIMTW,+18.0,C*31
$IIMWV,250,R,12.6,N,A*11
$IIMWV,225,T,17.9,N,A*1F
$IIRMC,164033,A,4612.986,N,00609.794,E,09.2,148,020714,01,E,A*0B
$IIVHW,,,150,M,08.7,N,,*6F
$IIVLW,53364,N,001.7,N*52
$IIVWR,116,L,13.2,N,,,,*79
$IIDPT,007.4,+0.7,*43
$IIGLL,4612.982,N,00609.797,E,164035,A,A*51
$IIHDG,151,,,01,E*16
$IIMTW,+18.0,C*31
$IIMWV,244,R,13.2,N,A*11
$IIMWV,222,T,17.4,N,A*15
$IIRMC,164035,A,4612.982,N,00609.797,E,08.3,153,020714,01,E,A*00
$IIVHW,,,149,M,08.2,N,,*62
$IIVLW,53364,N,001.7,N*52
$IIVWR,114,L,12.4,N,,,,*7C
$IIDPT,007.4,+0.7,*43
$IIGLL,4612.982,N,00609.797,E,164035,A,A*51
$IIHDG,149,,,01,E*1F
$IIMTW,+18.0,C*31
$IIMWV,246,R,12.4,N,A*14
$IIMWV,219,T,18.6,N,A*10
$IIRMC,164035,A,4612.982,N,00609.797,E,08.3,153,020714,01,E,A*00
$IIVHW,,,149,M,08.0,N,,*60
$IIVLW,53364,N,001.7,N*52
$IIVWR,113,L,13.9,N,,,,*77
$IIDPT,007.4,+0.7,*43
$IIGLL,4612.982,N,00609.797,E,164035,A,A*51
$IIHDG,149,,,01,E*1F
$IIMTW,+18.0,C*31
$IIMWV,247,R,13.9,N,A*19
$IIMWV,223,T,18.5,N,A*1A
$IIRMC,164038,A,4612.975,N,00609.802,E,08.2,151,020714,01,E,A*05
$IIVHW,,,149,M,07.9,N,,*66
$IIVLW,53364,N,001.7,N*52
$IIVWR,113,L,14.3,N,,,,*7A
$IIDPT,007.4,+0.7,*43
$IIGLL,4612.975,N,00609.802,E,164038,A,A*57
$IIHDG,149,,,01,E*1F
$IIMTW,+18.0,C*31
$IIMWV,254,R,13.9,N,A*1B
$IIMWV,224,T,18.8,N,A*10
$IIRMC,164038,A,4612.975,N,00609.802,E,08.2,151,020714,01,E,A*05
$IIVHW,,,148,M,07.8,N,,*66
$IIVLW,53364,N,001.7,N*52
$IIVWR,106,L,13.9,N,,,,*73
$IIDPT,007.3,+0.7,*44
$IIGLL,4612.975,N,00609.802,E,164038,A,A*57
$IIHDG,148,,,01,E*1E
$IIMTW,+18.0,C*31
$IIMWV,258,R,12.7,N,A*18
$IIMWV,229,T,17.6,N,A*1C
$IIRMC,164038,A,4612.975,N,00609.802,E,08.2,151,020714,01,E,A*05
$IIVHW,,,147,M,07.6,N,,*67
$IIVLW,53364,N,001.7,N*52
$IIVWR,102,L,12.7,N,,,,*78
$IIDPT,007.3,+0.7,*44
$IIGLL,4612.975,N,00609.802,E,164038,A,A*57
$IIHDG,146,,,01,E*10
$IIMTW,+18.0,C*31
$IIMWV,258,R,13.2,N,A*1C
$IIMWV,231,T,16.0,N,A*12
$IIRMC,164040,A,4612.972,N,00609.805,E,08.0,148,020714,01,E,A*00
$IIVHW,,,146,M,07.5,N,,*65
$IIVLW,53364,N,001.7,N*52
$IIVWR,102,L,13.2,N,,,,*7C
$IIDPT,007.2,+0.7,*45
$IIGLL,4612.968,N,00609.809,E,164042,A,A*5D
$IIHDG,146,,,01,E*10
$IIMTW,+18.0,C*31
$IIMWV,250,R,13.3,N,A*15
$IIMWV,231,T,16.9,N,A*1B
$IIRMC,164042,A,4612.968,N,00609.809,E,08.0,149,020714,01,E,A*04
$IIVHW,,,146,M,07.3,N,,*63
$IIVLW,53364,N,001.7,N*52
$IIVWR,110,L,13.3,N,,,,*7E
$IIDPT,007.1,+0.7,*46
$IIGLL,4612.966,N,00609.810,E,164043,A,A*5A
$IIHDG,146,,,01,E*10
$IIMTW,+18.0,C*31
$IIMWV,248,R,13.2,N,A*1D
$IIMWV,226,T,17.2,N,A*17
$IIRMC,164043,A,4612.966,N,00609.810,E,08.4,151,020714,01,E,A*0E
$IIVHW,,,146,M,07.2,N,,*62
$IIVLW,53364,N,001.7,N*52
$IIVWR,115,L,12.4,N,,,,*7D
$IIDPT,007.0,+0.7,*47
$IIGLL,4612.964,N,00609.812,E,164044,A,A*5D
$IIHDG,145,,,01,E*13
$IIMTW,+18.0,C*31
$IIMWV,245,R,12.4,N,A*17
$IIMWV,225,T,17.1,N,A*17
$IIRMC,164044,A,4612.964,N,00609.812,E,07.5,146,020714,01,E,A*01
$IIVHW,,,145,M,07.1,N,,*62
$IIVWR,115,L,13.0,N,,,,*78
$IIDPT,006.9,+0.7,*4F
$IIGLL,4612.962,N,00609.813,E,164045,A,A*5B
$IIHDG,144,,,01,E*12
$IIMTW,+18.0,C*31
$IIMWV,245,R,13.0,N,A*12
$IIMWV,222,T,16.6,N,A*16
$IIRMC,164045,A,4612.962,N,00609.813,E,07.7,152,020714,01,E,A*00
$IIVHW,,,144,M,07.0,N,,*62
$IIVLW,53364,N,001.7,N*52
$IIVWR,114,L,13.3,N,,,,*7A
$IIDPT,006.9,+0.7,*4F
$IIGLL,4612.961,N,00609.815,E,164046,A,A*5D
$IIHDG,141,,,01,E*17
$IIMTW,+18.0,C*31
$IIMWV,246,R,13.3,N,A*12
$IIMWV,223,T,17.1,N,A*11
$IIRMC,164046,A,4612.961,N,00609.815,E,07.3,148,020714,01,E,A*09
$IIVHW,,,138,M,07.0,N,,*69
$IIVLW,53364,N,001.7,N*52
$IIVWR,108,L,13.7,N,,,,*73
$IIDPT,006.9,+0.7,*4F
$IIGLL,4612.959,N,00609.817,E,164047,A,A*55
$IIHDG,138,,,01,E*19
$IIMTW,+18.0,C*31
$IIMWV,252,R,13.7,N,A*13
$IIMWV,224,T,17.3,N,A*14
$IIRMC,164048,A,4612.957,N,00609.819,E,07.8,142,020714,01,E,A*0F
$IIVHW,,,136,M,07.1,N,,*66
$IIVLW,53364,N,001.7,N*52
$IIVWR,105,L,13.6,N,,,,*7F
$IIDPT,006.9,+0.7,*4F
$IIGLL,4612.957,N,00609.819,E,164048,A,A*5A
$IIHDG,136,,,01,E*17
$IIMTW,+18.0,C*31
$IIMWV,255,R,13.6,N,A*15
$IIMWV,231,T,16.9,N,A*1B
$IIRMC,164049,A,4612.956,N,00609.821,E,08.3,137,020714,01,E,A*02
$IIVHW,,,135,M,07.3,N,,*67
$IIVLW,53364,N,001.7,N*52
$IIVWR,102,L,14.8,N,,,,*71
$IIDPT,006.9,+0.7,*4F
$IIGLL,4612.956,N,00609.821,E,164049,A,A*51
$IIHDG,135,,,01,E*14
$IIMTW,+18.0,C*31
$IIMWV,262,R,15.4,N,A*15
$IIMWV,234,T,17.9,N,A*1F
$IIRMC,164049,A,4612.956,N,00609.821,E,08.3,137,020714,01,E,A*02
$IIVHW,,,135,M,07.5,N,,*61
$IIVLW,53364,N,001.7,N*52
$IIVWR,098,L,15.4,N,,,,*7E
$IIDPT,006.8,+0.7,*4E
$IIGLL,4612.956,N,00609.821,E,164049,A,A*51
$IIHDG,135,,,01,E*14
$IIMTW,+18.0,C*31
$IIMWV,264,R,15.7,N,A*10
$IIMWV,237,T,18.0,N,A*1A
$IIRMC,164052,A,4612.951,N,00609.828,E,08.9,138,020714,01,E,A*03
$IIVHW,,,137,M,07.7,N,,*61
$IIVLW,53364,N,001.7,N*52
$IIVWR,096,L,15.7,N,,,,*73
$IIDPT,006.8,+0.7,*4E
$IIGLL,4612.951,N,00609.828,E,164052,A,A*55
$IIHDG,137,,,01,E*16
$IIMTW,+18.0,C*31
$IIMWV,264,R,15.2,N,A*15
$IIMWV,239,T,18.0,N,A*14
$IIRMC,164052,A,4612.951,N,00609.828,E,08.9,138,020714,01,E,A*03
$IIVHW,,,137,M,07.9,N,,*6F
$IIVLW,53364,N,001.7,N*52
$IIVWR,096,L,15.2,N,,,,*76
$IIDPT,006.8,+0.7,*4E
$IIGLL,4612.949,N,00609.830,E,164053,A,A*54
$IIHDG,138,,,01,E*19
$IIMTW,+18.0,C*31
$IIMWV,268,R,14.8,N,A*12
$IIMWV,238,T,17.7,N,A*1D
$IIRMC,164053,A,4612.949,N,00609.830,E,09.0,141,020714,01,E,A*04
$IIVHW,,,138,M,08.0,N,,*66
$IIVLW,53364,N,001.7,N*52
$IIVWR,092,L,14.8,N,,,,*79
$IIDPT,006.8,+0.7,*4E
$IIGLL,4612.947,N,00609.832,E,164054,A,A*5F
$IIHDG,137,,,01,E*16
$IIMTW,+18.0,C*31
$IIMWV,270,R,14.5,N,A*16
$IIMWV,240,T,17.0,N,A*15
$IIRMC,164054,A,4612.947,N,00609.832,E,08.3,141,020714,01,E,A*0D
$IIVHW,,,137,M,08.1,N,,*68
$IIVLW,53364,N,001.7,N*52
$IIVWR,090,L,14.6,N,,,,*75
$IIDPT,006.6,+0.7,*40
$IIGLL,4612.947,N,00609.832,E,164054,A,A*5F
$IIHDG,137,,,01,E*16
$IIMTW,+18.0,C*31
$IIMWV,270,R,14.6,N,A*15
$IIMWV,241,T,16.6,N,A*13
$IIRMC,164054,A,4612.947,N,00609.832,E,08.3,141,020714,01,E,A*0D
$IIVHW,,,137,M,08.0,N,,*69
$IIVLW,53364,N,001.7,N*52
$IIVWR,092,L,14.6,N,,,,*77
$IIDPT,006.6,+0.7,*40
$IIGLL,4612.943,N,00609.837,E,164056,A,A*5C
$IIHDG,137,,,01,E*16
$IIMTW,+18.0,C*31
$IIMWV,268,R,14.6,N,A*1C
$IIMWV,241,T,16.6,N,A*13
$IIRMC,164056,A,4612.943,N,00609.837,E,08.7,138,020714,01,E,A*04
$IIVHW,,,138,M,07.9,N,,*60
$IIVLW,53364,N,001.7,N*52
$IIVWR,092,L,15.9,N,,,,*79
$IIDPT,006.5,+0.7,*43
$IIGLL,4612.939,N,00609.841,E,164058,A,A*5E
$IIHDG,138,,,01,E*19
$IIMTW,+18.0,C*31
$IIMWV,268,R,15.9,N,A*12
$IIMWV,240,T,16.8,N,A*1C
$IIRMC,164058,A,4612.939,N,00609.841,E,08.2,139,020714,01,E,A*02
$IIVHW,,,137,M,07.8,N,,*6E
$IIVLW,53364,N,001.7,N*52
$IIVWR,095,L,15.9,N,,,,*7E
$IIDPT,006.4,+0.7,*42
$IIGLL,4612.939,N,00609.841,E,164058,A,A*5E
$IIHDG,137,,,01,E*16
$IIMTW,+18.0,C*31
$IIMWV,265,R,15.9,N,A*1F
$IIMWV,240,T,18.3,N,A*19
$IIRMC,164059,A,4612.938,N,00609.843,E,08.2,140,020714,01,E,A*0E
$IIVHW,,,136,M,07.7,N,,*60
$IIVLW,53364,N,001.7,N*52
$IIVWR,098,L,15.2,N,,,,*78
$IIDPT,006.4,+0.7,*42
$IIGLL,4612.938,N,00609.843,E,164059,A,A*5C
$IIHDG,136,,,01,E*17
$IIMTW,+18.0,C*31
$IIMWV,262,R,13.9,N,A*1E
$IIMWV,237,T,17.9,N,A*1C
$IIRMC,164100,A,4612.936,N,00609.845,E,07.6,134,020714,01,E,A*03
$IIVHW,,,137,M,07.6,N,,*60
$IIVLW,53364,N,001.7,N*52
$IIVWR,098,L,13.9,N,,,,*75
$IIDPT,006.4,+0.7,*42
$IIGLL,4612.936,N,00609.845,E,164100,A,A*59
$IIHDG,137,,,01,E*16
$IIMTW,+18.0,C*31
$IIMWV,262,R,15.2,N,A*13
$IIMWV,235,T,16.6,N,A*10
$IIRMC,164102,A,4612.933,N,00609.849,E,07.5,136,020714,01,E,A*09
$IIVHW,,,136,M,07.5,N,,*62
$IIVLW,53364,N,001.7,N*52
$IIVWR,098,L,15.2,N,,,,*78
$IIDPT,006.3,+0.7,*45
$IIGLL,4612.933,N,00609.849,E,164102,A,A*52
$IIHDG,135,,,01,E*14
$IIMTW,+18.0,C*31
$IIMWV,266,R,16.2,N,A*14
$IIMWV,237,T,17.8,N,A*1D
$IIRMC,164102,A,4612.933,N,00609.849,E,07.5,136,020714,01,E,A*09
$IIVHW,,,135,M,07.6,N,,*62
$IIVLW,53364,N,001.7,N*52
$IIVWR,094,L,16.2,N,,,,*77
$IIDPT,006.3,+0.7,*45
$IIGLL,4612.933,N,00609.849,E,164102,A,A*52
$IIHDG,134,,,01,E*15
$IIMTW,+18.0,C*31
$IIMWV,267,R,16.1,N,A*16
$IIMWV,241,T,18.4,N,A*1F
$IIRMC,164102,A,4612.933,N,00609.849,E,07.5,136,020714,01,E,A*09
$IIVHW,,,134,M,07.6,N,,*63
$IIVLW,53364,N,001.7,N*52
$IIVWR,093,L,16.1,N,,,,*73
$IIDPT,006.2,+0.7,*44
$IIGLL,4612.930,N,00609.853,E,164104,A,A*5C
$IIHDG,131,,,01,E*10
$IIMTW,+18.0,C*31
$IIMWV,268,R,15.3,N,A*18
$IIMWV,242,T,18.2,N,A*1A
$IIRMC,164104,A,4612.930,N,00609.853,E,08.8,137,020714,01,E,A*04
$IIVHW,,,131,M,07.7,N,,*67
$IIVLW,53364,N,001.7,N*52
$IIVWR,085,L,16.1,N,,,,*74
$IIDPT,006.1,+0.7,*47
$IIGLL,4612.928,N,00609.856,E,164105,A,A*51
$IIHDG,129,,,01,E*19
$IIMTW,+18.0,C*31
$IIMWV,275,R,16.1,N,A*15
$IIMWV,242,T,17.3,N,A*14
$IIRMC,164105,A,4612.928,N,00609.856,E,07.9,127,020714,01,E,A*06
$IIVHW,,,129,M,07.8,N,,*61
$IIVLW,53364,N,001.7,N*52
$IIVWR,082,L,15.9,N,,,,*78
$IIDPT,006.1,+0.7,*47
$IIGLL,4612.927,N,00609.858,E,164106,A,A*53
$IIHDG,128,,,01,E*18
$IIMTW,+18.0,C*31
$IIMWV,278,R,15.9,N,A*13
$IIMWV,249,T,17.3,N,A*1F
$IIRMC,164106,A,4612.927,N,00609.858,E,07.7,119,020714,01,E,A*07
$IIVHW,,,126,M,07.9,N,,*6F
$IIVLW,53364,N,001.7,N*52
$IIVWR,081,L,16.6,N,,,,*77
$IIDPT,006.1,+0.7,*47
$IIGLL,4612.927,N,00609.858,E,164106,A,A*53
$IIHDG,126,,,01,E*16
$IIMTW,+18.0,C*31
$IIMWV,279,R,16.6,N,A*1E
$IIMWV,250,T,16.7,N,A*12
$IIRMC,164108,A,4612.924,N,00609.864,E,07.9,124,020714,01,E,A*05
$IIVHW,,,126,M,07.9,N,,*6F
$IIVLW,53364,N,001.7,N*52
$IIVWR,079,L,17.6,N,,,,*71
$IIDPT,006.1,+0.7,*47
$IIGLL,4612.924,N,00609.864,E,164108,A,A*51
$IIHDG,126,,,01,E*16
$IIMTW,+18.0,C*31
$IIMWV,281,R,17.6,N,A*18
$IIMWV,255,T,17.8,N,A*19
$IIRMC,164110,A,4612.920,N,00609.869,E,08.1,127,020714,01,E,A*01
$IIVHW,,,126,M,07.9,N,,*6F
$IIVLW,53364,N,001.7,N*52
$IIVWR,077,L,17.4,N,,,,*7D
$IIDPT,006.1,+0.7,*47
$IIGLL,4612.920,N,00609.869,E,164110,A,A*51
$IIHDG,126,,,01,E*16
$IIMTW,+18.0,C*31
$IIMWV,284,R,17.0,N,A*1B
$IIMWV,256,T,17.2,N,A*10
$IIRMC,164111,A,4612.919,N,00609.871,E,07.6,120,020714,01,E,A*0C
$IIVHW,,,127,M,07.8,N,,*6F
$IIVLW,53364,N,001.7,N*52
$IIVWR,076,L,17.0,N,,,,*78
$IIDPT,006.1,+0.7,*47
$IIGLL,4612.919,N,00609.871,E,164111,A,A*53
$IIHDG,127,,,01,E*17
$IIMTW,+18.0,C*31
$IIMWV,282,R,16.3,N,A*1F
$IIMWV,257,T,16.8,N,A*1A
$IIRMC,164111,A,4612.919,N,00609.871,E,07.6,120,020714,01,E,A*0C
$IIVHW,,,126,M,07.7,N,,*61
$IIVLW,53364,N,001.7,N*52
$IIVWR,078,L,16.3,N,,,,*74
$IIDPT,006.0,+0.7,*46
$IIGLL,4612.919,N,00609.871,E,164111,A,A*53
$IIHDG,127,,,01,E*17
$IIMTW,+18.0,C*31
$IIMWV,279,R,16.5,N,A*1D
$IIMWV,255,T,16.4,N,A*14
$IIRMC,164112,A,4612.918,N,00609.874,E,07.6,129,020714,01,E,A*02
$IIVHW,,,127,M,07.6,N,,*61
$IIVLW,53364,N,001.7,N*52
$IIVWR,081,L,16.5,N,,,,*74
$IIDPT,005.9,+0.7,*4C
$IIGLL,4612.916,N,00609.876,E,164113,A,A*59
$IIHDG,124,,,01,E*14
$IIMTW,+18.0,C*31
$IIMWV,279,R,15.6,N,A*1D
$IIMWV,253,T,17.0,N,A*17
$IIRMC,164113,A,4612.916,N,00609.876,E,08.1,129,020714,01,E,A*07
$IIVHW,,,124,M,07.6,N,,*62
$IIVLW,53364,N,001.7,N*52
$IIVWR,081,L,15.6,N,,,,*74
$IIDPT,005.8,+0.7,*4D
$IIGLL,4612.916,N,00609.876,E,164113,A,A*59
$IIHDG,123,,,01,E*13
$IIMTW,+18.0,C*31
$IIMWV,277,R,15.7,N,A*12
$IIMWV,251,T,16.2,N,A*16
$IIRMC,164113,A,4612.916,N,00609.876,E,08.1,129,020714,01,E,A*07
$IIVHW,,,123,M,07.5,N,,*66
$IIVLW,53364,N,001.7,N*52
$IIVWR,079,L,17.9,N,,,,*7E
$IIDPT,005.8,+0.7,*4D
$IIGLL,4612.912,N,00609.884,E,164116,A,A*55
$IIHDG,123,,,01,E*13
$IIMTW,+18.0,C*31
$IIMWV,281,R,17.9,N,A*17
$IIMWV,249,T,16.5,N,A*18
$IIRMC,164116,A,4612.912,N,00609.884,E,08.3,125,020714,01,E,A*05
$IIVHW,,,123,M,07.5,N,,*66
$IIVLW,53364,N,001.7,N*52
$IIVWR,075,L,18.7,N,,,,*73
$IIDPT,005.6,+0.7,*43
$IIGLL,4612.912,N,00609.884,E,164116,A,A*55
$IIHDG,122,,,01,E*12
$IIMTW,+18.0,C*31
$IIMWV,285,R,18.7,N,A*12
$IIMWV,257,T,17.9,N,A*1A
$IIRMC,164116,A,4612.912,N,00609.884,E,08.3,125,020714,01,E,A*05
$IIVHW,,,121,M,07.6,N,,*67
$IIVLW,53364,N,001.7,N*52
$IIVWR,076,L,18.4,N,,,,*73
$IIDPT,005.7,+0.7,*42
$IIGLL,4612.911,N,00609.887,E,164117,A,A*54
$IIHDG,121,,,01,E*11
$IIMTW,+18.0,C*31
$IIMWV,284,R,18.4,N,A*10
$IIMWV,261,T,18.3,N,A*1A
$IIRMC,164118,A,4612.910,N,00609.890,E,08.7,121,020714,01,E,A*0C
$IIVHW,,,120,M,07.7,N,,*67
$IIVLW,53364,N,001.7,N*52
$IIVWR,075,L,18.9,N,,,,*7D
$IIDPT,005.7,+0.7,*42
$IIGLL,4612.910,N,00609.890,E,164118,A,A*5C
$IIHDG,120,,,01,E*10
$IIMTW,+18.0,C*31
$IIMWV,285,R,18.9,N,A*1C
$IIMWV,261,T,18.5,N,A*1C
$IIRMC,164119,A,4612.909,N,00609.893,E,08.5,120,020714,01,E,A*05
$IIVHW,,,120,M,07.9,N,,*69
$IIVLW,53364,N,001.7,N*52
$IIVWR,074,L,19.1,N,,,,*75
$IIDPT,005.7,+0.7,*42
$IIGLL,4612.909,N,00609.893,E,164119,A,A*56
$IIHDG,120,,,01,E*10
$IIMTW,+18.0,C*31
$IIMWV,285,R,18.0,N,A*15
$IIMWV,262,T,18.4,N,A*1E
$IIRMC,164120,A,4612.907,N,00609.896,E,08.6,121,020714,01,E,A*06
$IIVHW,,,119,M,07.9,N,,*63
$IIVLW,53364,N,001.7,N*52
$IIVWR,075,L,18.0,N,,,,*74
$IIDPT,005.7,+0.7,*42
$IIGLL,4612.907,N,00609.896,E,164120,A,A*57
$IIHDG,119,,,01,E*1A
$IIMTW,+18.0,C*31
$IIMWV,286,R,18.4,N,A*12
$IIMWV,259,T,17.7,N,A*1A
$IIRMC,164121,A,4612.906,N,00609.899,E,08.6,123,020714,01,E,A*0B
$IIVHW,,,119,M,07.9,N,,*63
$IIVLW,53364,N,001.7,N*52
$IIVWR,074,L,18.4,N,,,,*71
$IIDPT,005.7,+0.7,*42
$IIGLL,4612.906,N,00609.899,E,164121,A,A*58
$IIHDG,121,,,01,E*11
$IIMTW,+18.0,C*31
$IIMWV,278,R,18.9,N,A*1E
$IIMWV,257,T,18.3,N,A*1F
$IIRMC,164123,A,4612.903,N,00609.905,E,08.7,120,020714,01,E,A*0A
$IIVHW,,,121,M,07.9,N,,*68
$IIVLW,53364,N,001.7,N*52
$IIVWR,082,L,18.9,N,,,,*75
$IIDPT,005.9,+0.7,*4C
$IIGLL,4612.902,N,00609.908,E,164124,A,A*50
$IIHDG,122,,,01,E*12
$IIMTW,+18.0,C*31
$IIMWV,278,R,19.6,N,A*10
$IIMWV,254,T,19.4,N,A*1A
$IIRMC,164124,A,4612.902,N,00609.908,E,08.6,122,020714,01,E,A*02
$IIVHW,,,122,M,07.9,N,,*6B
$IIVLW,53364,N,001.7,N*52
$IIVWR,082,L,19.6,N,,,,*7B
$IIDPT,005.9,+0.7,*4C
$IIGLL,4612.902,N,00609.908,E,164124,A,A*50
$IIHDG,123,,,01,E*13
$IIMTW,+18.0,C*31
$IIMWV,279,R,19.1,N,A*16
$IIMWV,255,T,20.1,N,A*14
$IIRMC,164124,A,4612.902,N,00609.908,E,08.6,122,020714,01,E,A*02
$IIVHW,,,123,M,07.9,N,,*6A
$IIVLW,53364,N,001.7,N*52
$IIVWR,082,L,18.7,N,,,,*7B
$IIDPT,005.9,+0.7,*4C
$IIGLL,4612.899,N,00609.914,E,164126,A,A*5C
$IIHDG,123,,,01,E*13
$IIMTW,+18.0,C*31
$IIMWV,278,R,18.7,N,A*10
$IIMWV,255,T,19.5,N,A*1A
$IIRMC,164126,A,4612.899,N,00609.914,E,09.4,130,020714,01,E,A*0E
$IIVHW,,,123,M,07.9,N,,*6A
$IIVLW,53364,N,001.7,N*52
$IIVWR,084,L,18.9,N,,,,*73
$IIDPT,006.1,+0.7,*47
$IIGLL,4612.898,N,00609.917,E,164127,A,A*5F
$IIHDG,123,,,01,E*13
$IIMTW,+18.0,C*31
$IIMWV,276,R,18.9,N,A*10
$IIMWV,254,T,19.2,N,A*1C
$IIRMC,164127,A,4612.898,N,00609.917,E,08.1,124,020714,01,E,A*0C
$IIVHW,,,124,M,07.9,N,,*6D
$IIVLW,53364,N,001.7,N*52
$IIVWR,084,L,18.7,N,,,,*7D
$IIDPT,006.1,+0.7,*47
$IIGLL,4612.896,N,00609.920,E,164128,A,A*5A
$IIHDG,124,,,01,E*14
$IIMTW,+18.0,C*31
$IIMWV,276,R,18.7,N,A*1E
$IIMWV,252,T,19.7,N,A*1F
$IIRMC,164128,A,4612.896,N,00609.920,E,08.3,125,020714,01,E,A*0A
$IIVHW,,,123,M,07.9,N,,*6A
$IIVLW,53364,N,001.7,N*52
$IIVWR,088,L,16.6,N,,,,*7E
$IIDPT,006.1,+0.7,*47
$IIGLL,4612.896,N,00609.920,E,164128,A,A*5A
$IIHDG,123,,,01,E*13
$IIMTW,+18.0,C*31
$IIMWV,272,R,16.6,N,A*15
$IIMWV,245,T,18.2,N,A*1D
$IIRMC,164131,A,4612.892,N,00609.928,E,08.8,126,020714,01,E,A*06
$IIVHW,,,121,M,07.9,N,,*68
$IIVLW,53364,N,001.7,N*52
$IIVWR,080,L,16.7,N,,,,*77
$IIDPT,006.1,+0.7,*47
$IIGLL,4612.892,N,00609.928,E,164131,A,A*5E
$IIHDG,121,,,01,E*11
$IIMTW,+18.0,C*31
$IIMWV,277,R,16.2,N,A*14
$IIMWV,253,T,17.0,N,A*17
$IIRMC,164131,A,4612.892,N,00609.928,E,08.8,126,020714,01,E,A*06
$IIVHW,,,120,M,07.8,N,,*68
$IIVLW,53364,N,001.7,N*52
$IIVWR,083,L,16.2,N,,,,*71
$IIDPT,006.1,+0.7,*47
$IIGLL,4612.892,N,00609.928,E,164131,A,A*5E
$IIHDG,120,,,01,E*10
$IIMTW,+18.0,C*31
$IIMWV,279,R,18.3,N,A*15
$IIMWV,249,T,17.0,N,A*1C
$IIRMC,164132,A,4612.891,N,00609.931,E,08.5,122,020714,01,E,A*07
$IIVHW,,,120,M,07.9,N,,*69
$IIVLW,53364,N,001.7,N*52
$IIVWR,081,L,18.3,N,,,,*7C
$IIDPT,006.1,+0.7,*47
$IIGLL,4612.891,N,00609.931,E,164132,A,A*56
$IIHDG,121,,,01,E*11
$IIMTW,+18.0,C*31
$IIMWV,280,R,19.7,N,A*16
$IIMWV,255,T,18.7,N,A*19
$IIRMC,164133,A,4612.889,N,00609.934,E,08.7,123,020714,01,E,A*09
$IIVHW,,,121,M,07.9,N,,*68
$IIVLW,53364,N,001.7,N*52
$IIVWR,080,L,19.7,N,,,,*78
$IIDPT,006.1,+0.7,*47
$IIGLL,4612.887,N,00609.940,E,164135,A,A*50
$IIHDG,122,,,01,E*12
$IIMTW,+18.0,C*31
$IIMWV,284,R,20.9,N,A*16
$IIMWV,256,T,19.8,N,A*14
$IIRMC,164135,A,4612.887,N,00609.940,E,08.9,119,020714,01,E,A*05
$IIVHW,,,122,M,08.0,N,,*6D
$IIVLW,53364,N,001.7,N*52
$IIVWR,076,L,20.9,N,,,,*75
$IIDPT,006.1,+0.7,*47
$IIGLL,4612.887,N,00609.940,E,164135,A,A*50
$IIHDG,120,,,01,E*10
$IIMTW,+18.0,C*31
$IIMWV,283,R,18.5,N,A*16
$IIMWV,261,T,20.4,N,A*16
$IIRMC,164135,A,4612.887,N,00609.940,E,08.9,119,020714,01,E,A*05
$IIVHW,,,120,M,08.0,N,,*6F
$IIVLW,53364,N,001.7,N*52
$IIVWR,081,L,17.0,N,,,,*70
$IIDPT,006.1,+0.7,*47
$IIGLL,4612.886,N,00609.943,E,164136,A,A*51
$IIHDG,120,,,01,E*10
$IIMTW,+18.0,C*31
$IIMWV,279,R,17.0,N,A*19
$IIMWV,258,T,18.3,N,A*10
$IIRMC,164136,A,4612.886,N,00609.943,E,08.5,119,020714,01,E,A*08
$IIVHW,,,120,M,07.9,N,,*69
$IIVLW,53364,N,001.7,N*52
$IIVWR,082,L,17.6,N,,,,*75
$IIDPT,006.1,+0.7,*47
$IIGLL,4612.884,N,00609.947,E,164138,A,A*59
$IIHDG,121,,,01,E*11
$IIMTW,+18.0,C*31
$IIMWV,278,R,17.6,N,A*1E
$IIMWV,253,T,17.6,N,A*11
$IIRMC,164138,A,4612.884,N,00609.947,E,05.6,122,020714,01,E,A*06
$IIVHW,,,120,M,07.5,N,,*65
$IIVLW,53364,N,001.7,N*52
$IIVWR,080,L,18.0,N,,,,*7E
$IIDPT,006.1,+0.7,*47
$IIGLL,4612.883,N,00609.949,E,164139,A,A*51
$IIHDG,120,,,01,E*10
$IIMTW,+18.0,C*31
$IIMWV,280,R,18.0,N,A*10
$IIMWV,253,T,18.2,N,A*1A
$IIRMC,164139,A,4612.883,N,00609.949,E,07.3,120,020714,01,E,A*0B
$IIVHW,,,119,M,07.3,N,,*69
$IIVLW,53364,N,001.7,N*52
$IIVWR,078,L,16.6,N,,,,*71
$IIDPT,006.1,+0.7,*47
$IIGLL,4612.883,N,00609.949,E,164139,A,A*51
$IIHDG,119,,,01,E*1A
$IIMTW,+18.0,C*31
$IIMWV,282,R,16.6,N,A*1A
$IIMWV,256,T,16.6,N,A*15
$IIRMC,164140,A,4612.882,N,00609.952,E,07.1,120,020714,01,E,A*0C
$IIVHW,,,119,M,07.1,N,,*6B
$IIVLW,53364,N,001.7,N*52
$IIVWR,076,L,16.6,N,,,,*7F
$IIDPT,006.0,+0.7,*46
$IIGLL,4612.882,N,00609.952,E,164140,A,A*54
$IIHDG,119,,,01,E*1A
$IIMTW,+18.0,C*31
$IIMWV,285,R,16.2,N,A*19
$IIMWV,259,T,16.4,N,A*18
$IIRMC,164141,A,4612.880,N,00609.954,E,07.4,119,020714,01,E,A*06
$IIVHW,,,116,M,07.0,N,,*65
$IIVLW,53364,N,001.7,N*52
$IIVWR,075,L,16.2,N,,,,*78
$IIDPT,006.0,+0.7,*46
$IIGLL,4612.880,N,00609.954,E,164141,A,A*51
$IIHDG,116,,,01,E*15
$IIMTW,+18.0,C*31
$IIMWV,287,R,17.5,N,A*1D
$IIMWV,260,T,15.9,N,A*1C
$IIRMC,164142,A,4612.879,N,00609.957,E,06.9,116,020714,01,E,A*03
$IIVHW,,,112,M,06.9,N,,*69
$IIVLW,53364,N,001.7,N*52
$IIVWR,073,L,17.5,N,,,,*78
$IIDPT,006.0,+0.7,*46
$IIGLL,4612.879,N,00609.957,E,164142,A,A*57
$IIHDG,109,,,01,E*1B
$IIMTW,+18.0,C*31
$IIMWV,290,R,18.5,N,A*14
$IIMWV,263,T,16.9,N,A*1C
$IIRMC,164143,A,4612.879,N,00609.960,E,07.1,111,020714,01,E,A*08
$IIVHW,,,109,M,06.9,N,,*63
$IIVLW,53364,N,001.7,N*52
$IIVWR,070,L,18.5,N,,,,*74
$IIDPT,006.0,+0.7,*46
$IIGLL,4612.878,N,00609.963,E,164144,A,A*57
$IIHDG,107,,,01,E*15
$IIMTW,+18.0,C*31
$IIMWV,290,R,17.6,N,A*18
$IIMWV,268,T,17.3,N,A*1C
$IIRMC,164144,A,4612.878,N,00609.963,E,06.9,112,020714,01,E,A*07
$IIVHW,,,107,M,06.7,N,,*63
$IIVLW,53364,N,001.7,N*52
$IIVWR,070,L,17.6,N,,,,*78
$IIDPT,006.0,+0.7,*46
$IIGLL,4612.876,N,00609.968,E,164146,A,A*50
$IIHDG,106,,,01,E*14
$IIMTW,+18.0,C*31
$IIMWV,290,R,18.3,N,A*12
$IIMWV,267,T,16.5,N,A*14
$IIRMC,164146,A,4612.876,N,00609.968,E,07.0,109,020714,01,E,A*02
$IIVHW,,,106,M,06.5,N,,*60
$IIVLW,53364,N,001.7,N*52
$IIVWR,070,L,19.8,N,,,,*78
$IIDPT,006.0,+0.7,*46
$IIGLL,4612.875,N,00609.971,E,164147,A,A*5A
$IIHDG,105,,,01,E*17
$IIMTW,+18.0,C*31
$IIMWV,290,R,19.8,N,A*18
$IIMWV,269,T,17.2,N,A*1C
$IIRMC,164147,A,4612.875,N,00609.971,E,06.9,105,020714,01,E,A*0C
$IIVHW,,,105,M,06.4,N,,*62
$IIVLW,53364,N,001.7,N*52
$IIVWR,070,L,20.4,N,,,,*7E
$IIDPT,006.0,+0.7,*46
$IIGLL,4612.875,N,00609.971,E,164147,A,A*5A
$IIHDG,105,,,01,E*17
$IIMTW,+18.0,C*31
$IIMWV,290,R,20.4,N,A*1E
$IIMWV,270,T,18.6,N,A*1F
$IIRMC,164147,A,4612.875,N,00609.971,E,06.9,105,020714,01,E,A*0C
$IIVHW,,,104,M,06.2,N,,*65
$IIVLW,53364,N,001.7,N*52
$IIVWR,069,L,20.5,N,,,,*77
$IIDPT,006.0,+0.7,*46
$IIGLL,4612.875,N,00609.974,E,164148,A,A*50
$IIHDG,104,,,01,E*16
$IIMTW,+18.0,C*31
$IIMWV,291,R,20.5,N,A*1E
$IIMWV,271,T,19.1,N,A*18
$IIRMC,164149,A,4612.874,N,00609.976,E,06.9,111,020714,01,E,A*01
$IIVHW,,,104,M,06.1,N,,*66
$IIVLW,53364,N,001.7,N*52
$IIVWR,070,L,20.1,N,,,,*7B
$IIDPT,006.0,+0.7,*46
$IIGLL,4612.874,N,00609.976,E,164149,A,A*52
$IIHDG,104,,,01,E*16
$IIMTW,+18.0,C*31
$IIMWV,290,R,20.1,N,A*1B
$IIMWV,272,T,18.8,N,A*13
$IIRMC,164150,A,4612.874,N,00609.979,E,06.3,104,020714,01,E,A*08
$IIVHW,,,104,M,06.1,N,,*66
$IIVLW,53364,N,001.7,N*52
$IIVWR,069,L,18.7,N,,,,*7E
$IIDPT,006.0,+0.7,*46
$IIGLL,4612.874,N,00609.979,E,164150,A,A*55
$IIHDG,104,,,01,E*16
$IIMTW,+18.0,C*31
$IIMWV,290,R,18.3,N,A*12
$IIMWV,272,T,17.3,N,A*17
$IIRMC,164151,A,4612.873,N,00609.981,E,06.2,104,020714,01,E,A*08
$IIVHW,,,104,M,06.1,N,,*66
$IIVLW,53364,N,001.7,N*52
$IIVWR,070,L,18.3,N,,,,*72
$IIDPT,006.0,+0.7,*46
$IIGLL,4612.873,N,00609.981,E,164151,A,A*54
$IIHDG,104,,,01,E*16
$IIMTW,+18.0,C*31
$IIMWV,292,R,16.6,N,A*1B
$IIMWV,270,T,17.2,N,A*14
$IIRMC,164151,A,4612.873,N,00609.981,E,06.2,104,020714,01,E,A*08
$IIVHW,,,103,M,06.1,N,,*61
$IIVLW,53364,N,001.7,N*52
$IIVWR,068,L,16.6,N,,,,*70
$IIDPT,006.0,+0.7,*46
$IIGLL,4612.873,N,00609.981,E,164151,A,A*54
$IIHDG,102,,,01,E*10
$IIMTW,+18.0,C*31
$IIMWV,291,R,19.2,N,A*13
$IIMWV,270,T,15.4,N,A*10
$IIRMC,164151,A,4612.873,N,00609.981,E,06.2,104,020714,01,E,A*08
$IIVHW,,,102,M,05.9,N,,*6B
$IIVLW,53364,N,001.7,N*52
$IIVWR,069,L,19.2,N,,,,*7A
$IIDPT,006.1,+0.7,*47
$IIGLL,4612.873,N,00609.981,E,164151,A,A*54
$IIHDG,100,,,01,E*12
$IIMTW,+18.0,C*31
$IIMWV,292,R,19.5,N,A*17
$IIMWV,273,T,17.8,N,A*1D
$IIRMC,164151,A,4612.873,N,00609.981,E,06.2,104,020714,01,E,A*08
$IIVHW,,,100,M,05.8,N,,*68
$IIVLW,53364,N,001.7,N*52
$IIVWR,068,L,19.5,N,,,,*7C
$IIDPT,006.1,+0.7,*47
$IIGLL,4612.873,N,00609.981,E,164151,A,A*54
$IIHDG,099,,,01,E*13
$IIMTW,+18.0,C*31
$IIMWV,291,R,20.1,N,A*1A
$IIMWV,274,T,18.1,N,A*1C
$IIRMC,164151,A,4612.873,N,00609.981,E,06.2,104,020714,01,E,A*08
$IIVHW,,,099,M,05.7,N,,*66
$IIVLW,53364,N,001.7,N*52
$IIVWR,067,L,20.4,N,,,,*78
$IIDPT,006.1,+0.7,*47
$IIGLL,4612.873,N,00609.981,E,,A,A*52
$IIHDG,098,,,01,E*12
$IIMTW,+18.0,C*31
$IIMWV,293,R,20.4,N,A*1D
$IIMWV,275,T,18.6,N,A*1A
$IIVHW,,,098,M,05.6,N,,*66
$IIVLW,53364,N,001.7,N*52
$IIVWR,067,L,20.5,N,,,,*79
$IIDPT,006.1,+0.7,*47
$IIGLL,4612.871,N,00609.997,E,164158,A,A*58
$IIHDG,098,,,01,E*12
$IIMTW,+18.0,C*31
$IIMWV,293,R,20.5,N,A*1C
$IIMWV,277,T,18.8,N,A*16
$IIRMC,164158,A,4612.871,N,00609.997,E,05.8,092,020714,01,E,A*03
$IIVHW,,,098,M,05.5,N,,*65
$IIVLW,53364,N,001.7,N*52
$IIVWR,066,L,20.0,N,,,,*7D
$IIDPT,006.1,+0.7,*47
$IIGLL,4612.871,N,00610.000,E,164159,A,A*56
$IIHDG,098,,,01,E*12
$IIMTW,+18.0,C*31
$IIMWV,294,R,20.0,N,A*1E
$IIMWV,277,T,18.9,N,A*17
$IIRMC,164159,A,4612.871,N,00610.000,E,06.3,104,020714,01,E,A*0B
$IIVHW,,,098,M,05.6,N,,*66
$IIVLW,53364,N,001.7,N*52
$IIVWR,066,L,19.8,N,,,,*7F
$IIDPT,006.1,+0.7,*47
$IIGLL,4612.871,N,00610.002,E,164200,A,A*5B
$IIHDG,098,,,01,E*12
$IIMTW,+18.0,C*31
$IIMWV,294,R,19.8,N,A*1C
$IIMWV,278,T,18.3,N,A*12
$IIRMC,164201,A,4612.870,N,00610.005,E,05.7,098,020714,01,E,A*02
$IIVHW,,,098,M,05.5,N,,*65
$IIVLW,53364,N,001.7,N*52
$IIVWR,066,L,20.6,N,,,,*7B
$IIDPT,006.1,+0.7,*47
$IIGLL,4612.870,N,00610.005,E,164201,A,A*5C
$IIHDG,098,,,01,E*12
$IIMTW,+18.0,C*31
$IIMWV,294,R,20.6,N,A*18
$IIMWV,279,T,18.9,N,A*19
$IIRMC,164202,A,4612.870,N,00610.007,E,06.0,100,020714,01,E,A*07
$IIVHW,,,097,M,05.5,N,,*6A
$IIVLW,53364,N,001.7,N*52
$IIVWR,064,L,20.2,N,,,,*7D
$IIDPT,006.1,+0.7,*47
$IIGLL,4612.870,N,00610.007,E,164202,A,A*5D
$IIHDG,097,,,01,E*1D
$IIMTW,+18.0,C*31
$IIMWV,296,R,21.0,N,A*1D
$IIMWV,280,T,18.3,N,A*15
$IIRMC,164203,A,4612.870,N,00610.009,E,05.6,096,020714,01,E,A*03
$IIVHW,,,096,M,05.6,N,,*68
$IIVLW,53364,N,001.7,N*52
$IIVWR,064,L,21.0,N,,,,*7E
$IIDPT,006.1,+0.7,*47
$IIGLL,4612.870,N,00610.009,E,164203,A,A*52
$IIHDG,096,,,01,E*1C
$IIMTW,+18.0,C*31
$IIMWV,298,R,20.9,N,A*1B
$IIMWV,281,T,19.2,N,A*14
$IIRMC,164204,A,4612.870,N,00610.012,E,05.4,095,020714,01,E,A*0F
$IIVHW,,,095,M,05.6,N,,*6B
$IIVLW,53364,N,001.7,N*52
$IIVWR,062,L,20.9,N,,,,*70
$IIDPT,006.1,+0.7,*47
$IIGLL,4612.870,N,00610.012,E,164204,A,A*5F
$IIHDG,095,,,01,E*1F
$IIMTW,+18.0,C*31
$IIMWV,297,R,20.8,N,A*15
$IIMWV,282,T,18.7,N,A*13
$IIRMC,164205,A,4612.870,N,00610.014,E,05.9,092,020714,01,E,A*02
$IIVHW,,,095,M,05.6,N,,*6B
$IIVLW,53364,N,001.7,N*52
$IIVWR,063,L,20.8,N,,,,*70
$IIDPT,006.1,+0.7,*47
$IIGLL,4612.870,N,00610.016,E,164206,A,A*59
$IIHDG,094,,,01,E*1E
$IIMTW,+18.0,C*31
$IIMWV,296,R,20.8,N,A*14
$IIMWV,281,T,18.8,N,A*1F
$IIRMC,164206,A,4612.870,N,00610.016,E,06.0,094,020714,01,E,A*0F
$IIVHW,,,094,M,05.5,N,,*69
$IIVLW,53364,N,001.7,N*52
$IIVWR,064,L,20.8,N,,,,*77
$IIDPT,006.1,+0.7,*47
$IIGLL,4612.870,N,00610.018,E,164207,A,A*56
$IIHDG,092,,,01,E*18
$IIMTW,+18.0,C*31
$IIMWV,294,R,20.6,N,A*18
$IIMWV,281,T,19.0,N,A*16
$IIRMC,164207,A,4612.870,N,00610.018,E,05.6,086,020714,01,E,A*06
$IIVHW,,,092,M,05.5,N,,*6F
$IIVLW,53364,N,001.7,N*52
$IIVWR,066,L,20.6,N,,,,*7B
$IIDPT,006.1,+0.7,*47
$IIGLL,4612.869,N,00610.021,E,164208,A,A*5B
$IIHDG,093,,,01,E*19
$IIMTW,+18.0,C*31
$IIMWV,294,R,20.6,N,A*18
$IIMWV,279,T,18.9,N,A*19
$IIRMC,164208,A,4612.869,N,00610.021,E,05.5,095,020714,01,E,A*0A
$IIVHW,,,093,M,05.4,N,,*6F
$IIVLW,53364,N,001.7,N*52
$IIVWR,066,L,21.1,N,,,,*7D
$IIDPT,006.1,+0.7,*47
$IIGLL,4612.869,N,00610.021,E,164208,A,A*5B
$IIHDG,092,,,01,E*18
$IIMTW,+18.0,C*31
$IIMWV,294,R,21.1,N,A*1E
$IIMWV,279,T,18.9,N,A*19
$IIRMC,164208,A,4612.869,N,00610.021,E,05.5,095,020714,01,E,A*0A
$IIVHW,,,093,M,05.4,N,,*6F
$IIVLW,53364,N,001.7,N*52
$IIVWR,066,L,21.0,N,,,,*7C
$IIDPT,006.1,+0.7,*47
$IIGLL,4612.869,N,00610.023,E,164209,A,A*58
$IIHDG,093,,,01,E*19
$IIMTW,+18.0,C*31
$IIMWV,294,R,21.0,N,A*1F
$IIMWV,279,T,19.4,N,A*15
$IIRMC,164210,A,4612.869,N,00610.025,E,05.3,091,020714,01,E,A*05
$IIVHW,,,093,M,05.3,N,,*68
$IIVLW,53364,N,001.7,N*52
$IIVWR,064,L,20.4,N,,,,*7B
$IIDPT,006.1,+0.7,*47
$IIGLL,4612.869,N,00610.025,E,164210,A,A*56
$IIHDG,093,,,01,E*19
$IIMTW,+18.0,C*31
$IIMWV,296,R,20.4,N,A*18
$IIMWV,281,T,18.6,N,A*11
$IIRMC,164210,A,4612.869,N,00610.025,E,05.3,091,020714,01,E,A*05
$IIVHW,,,092,M,05.3,N,,*69
$IIVLW,53364,N,001.7,N*52
$IIVWR,065,L,21.0,N,,,,*7F
$IIDPT,033.3,+0.7,*43
$IIGLL,4612.869,N,00610.025,E,164210,A,A*56
$IIHDG,092,,,01,E*18
$IIMTW,+18.0,C*31
$IIMWV,294,R,21.4,N,A*1B
$IIMWV,280,T,19.4,N,A*13
$IIRMC,164213,A,4612.869,N,00610.031,E,06.0,081,020714,01,E,A*02
$IIVHW,,,092,M,05.3,N,,*69
$IIVLW,53364,N,001.7,N*52
$IIVWR,066,L,21.4,N,,,,*78
$IIDPT,033.3,+0.7,*43
$IIGLL,4612.869,N,00610.031,E,164213,A,A*50
$IIHDG,092,,,01,E*18
$IIMTW,+18.0,C*31
$IIMWV,296,R,22.1,N,A*1F
$IIMWV,280,T,19.6,N,A*11
$IIRMC,164213,A,4612.869,N,00610.031,E,06.0,081,020714,01,E,A*02
$IIVHW,,,092,M,05.3,N,,*69
$IIVLW,53364,N,001.7,N*52
$IIVWR,064,L,22.1,N,,,,*7C
$IIDPT,033.3,+0.7,*43
$IIGLL,4612.869,N,00610.031,E,164213,A,A*50
$IIHDG,091,,,01,E*1B
$IIMTW,+18.0,C*31
$IIMWV,297,R,21.5,N,A*19
$IIMWV,282,T,20.2,N,A*1D
$IIRMC,164213,A,4612.869,N,00610.031,E,06.0,081,020714,01,E,A*02
$IIVHW,,,091,M,05.2,N,,*6B
$IIVLW,53364,N,001.7,N*52
$IIVWR,063,L,21.5,N,,,,*7C
$IIDPT,033.3,+0.7,*43
$IIGLL,4612.869,N,00610.036,E,164215,A,A*51
$IIHDG,090,,,01,E*1A
$IIMTW,+18.0,C*31
$IIMWV,300,R,20.8,N,A*1A
$IIMWV,283,T,19.5,N,A*11
$IIRMC,164215,A,4612.869,N,00610.036,E,05.1,093,020714,01,E,A*02
$IIVHW,,,090,M,05.3,N,,*6B
$IIVLW,53364,N,001.7,N*52
$IIVWR,060,L,20.8,N,,,,*73
$IIDPT,006.4,+0.7,*42
$IIGLL,4612.869,N,00610.036,E,164215,A,A*51
$IIHDG,087,,,01,E*1C
$IIMTW,+18.0,C*31
$IIMWV,302,R,20.8,N,A*18
$IIMWV,286,T,18.7,N,A*17
$IIRMC,164215,A,4612.869,N,00610.036,E,05.1,093,020714,01,E,A*02
$IIVHW,,,087,M,05.3,N,,*6D
$IIVLW,53364,N,001.7,N*52
$IIVWR,056,L,21.1,N,,,,*7E
$IIDPT,006.4,+0.7,*42
$IIGLL,4612.869,N,00610.036,E,164215,A,A*51
$IIHDG,084,,,01,E*1F
$IIMTW,+18.0,C*31
$IIMWV,304,R,21.1,N,A*16
$IIMWV,287,T,18.4,N,A*15
$IIRMC,164215,A,4612.869,N,00610.036,E,05.1,093,020714,01,E,A*02
$IIVHW,,,084,M,05.4,N,,*69
$IIVLW,53364,N,001.7,N*52
$IIVWR,055,L,21.9,N,,,,*75
$IIDPT,006.4,+0.7,*42
$IIGLL,4612.869,N,00610.042,E,164218,A,A*5F
$IIHDG,083,,,01,E*18
$IIMTW,+18.0,C*31
$IIMWV,305,R,21.9,N,A*1F
$IIMWV,290,T,18.6,N,A*11
$IIRMC,164218,A,4612.869,N,00610.042,E,05.5,084,020714,01,E,A*0E
$IIVHW,,,083,M,05.3,N,,*69
$IIVLW,53364,N,001.7,N*52
$IIVWR,056,L,21.9,N,,,,*76
$IIDPT,006.4,+0.7,*42
$IIGLL,4612.869,N,00610.044,E,164219,A,A*58
$IIHDG,083,,,01,E*18
$IIMTW,+18.0,C*31
$IIMWV,304,R,21.9,N,A*1E
$IIMWV,291,T,19.2,N,A*15
$IIRMC,164220,A,4612.869,N,00610.046,E,05.2,079,020714,01,E,A*04
$IIVHW,,,085,M,05.3,N,,*6F
$IIVLW,53364,N,001.7,N*52
$IIVWR,058,L,20.9,N,,,,*79
$IIDPT,006.4,+0.7,*42
$IIGLL,4612.869,N,00610.046,E,164220,A,A*50
$IIHDG,085,,,01,E*1E
$IIMTW,+18.0,C*31
$IIMWV,302,R,20.9,N,A*19
$IIMWV,288,T,18.5,N,A*1B
$IIRMC,164221,A,4612.870,N,00610.048,E,05.2,076,020714,01,E,A*0C
$IIVHW,,,090,M,05.1,N,,*69
$IIVLW,53364,N,001.7,N*52
$IIVWR,061,L,20.2,N,,,,*78
$IIDPT,006.4,+0.7,*42
$IIGLL,4612.870,N,00610.048,E,164221,A,A*57
$IIHDG,090,,,01,E*1A
$IIMTW,+18.0,C*31
$IIMWV,293,R,20.4,N,A*1D
$IIMWV,284,T,18.0,N,A*12
$IIRMC,164222,A,4612.869,N,00610.050,E,05.1,106,020714,01,E,A*0B
$IIVHW,,,096,M,05.1,N,,*6F
$IIVLW,53364,N,001.7,N*52
$IIVWR,067,L,20.4,N,,,,*78
$IIDPT,006.4,+0.7,*42
$IIGLL,4612.869,N,00610.050,E,164222,A,A*55
$IIHDG,096,,,01,E*1C
$IIMTW,+18.0,C*31
$IIMWV,285,R,20.0,N,A*1E
$IIMWV,279,T,18.9,N,A*19
$IIRMC,164223,A,4612.869,N,00610.052,E,05.4,109,020714,01,E,A*02
$IIVHW,,,106,M,05.1,N,,*67
$IIVLW,53364,N,001.7,N*52
$IIVWR,075,L,20.0,N,,,,*7F
$IIDPT,006.4,+0.7,*42
$IIGLL,4612.869,N,00610.052,E,164223,A,A*56
$IIHDG,117,,,01,E*14
$IIMTW,+18.0,C*31
$IIMWV,277,R,20.8,N,A*1B
$IIMWV,270,T,19.4,N,A*1C
$IIRMC,164224,A,4612.868,N,00610.054,E,06.0,118,020714,01,E,A*05
$IIVHW,,,117,M,05.3,N,,*65
$IIVLW,53364,N,001.7,N*52
$IIVWR,083,L,20.8,N,,,,*7E
$IIDPT,006.3,+0.7,*45
$IIGLL,4612.867,N,00610.056,E,164225,A,A*5A
$IIHDG,125,,,01,E*15
$IIMTW,+18.0,C*31
$IIMWV,269,R,20.2,N,A*1E
$IIMWV,262,T,20.7,N,A*16
$IIRMC,164225,A,4612.867,N,00610.056,E,07.1,126,020714,01,E,A*04
$IIVHW,,,125,M,05.6,N,,*61
$IIVLW,53364,N,001.7,N*52
$IIVWR,091,L,20.2,N,,,,*77
$IIDPT,006.3,+0.7,*45
$IIGLL,4612.867,N,00610.056,E,164225,A,A*5A
$IIHDG,128,,,01,E*18
$IIMTW,+18.0,C*31
$IIMWV,265,R,18.8,N,A*13
$IIMWV,253,T,21.0,N,A*12
$IIRMC,164225,A,4612.867,N,00610.056,E,07.1,126,020714,01,E,A*04
$IIVHW,,,128,M,05.9,N,,*63
$IIVLW,53364,N,001.7,N*52
$IIVWR,095,L,17.4,N,,,,*71
$IIDPT,006.3,+0.7,*45
$IIGLL,4612.865,N,00610.061,E,164227,A,A*5E
$IIHDG,129,,,01,E*19
$IIMTW,+18.0,C*31
$IIMWV,265,R,17.4,N,A*10
$IIMWV,248,T,20.2,N,A*1B
$IIRMC,164227,A,4612.865,N,00610.061,E,07.7,137,020714,01,E,A*06
$IIVHW,,,129,M,06.4,N,,*6C
$IIVLW,53364,N,001.7,N*52
$IIVWR,093,L,16.2,N,,,,*70
$IIDPT,006.3,+0.7,*45
$IIGLL,4612.863,N,00610.063,E,164228,A,A*55
$IIHDG,130,,,01,E*11
$IIMTW,+18.0,C*31
$IIMWV,267,R,16.2,N,A*15
$IIMWV,245,T,19.1,N,A*1F
$IIRMC,164228,A,4612.863,N,00610.063,E,08.0,134,020714,01,E,A*06
$IIVHW,,,130,M,07.0,N,,*61
$IIVLW,53364,N,001.7,N*52
$IIVWR,090,L,15.6,N,,,,*74
$IIDPT,006.3,+0.7,*45
$IIGLL,4612.862,N,00610.065,E,164229,A,A*53
$IIHDG,130,,,01,E*11
$IIMTW,+18.0,C*31
$IIMWV,270,R,15.6,N,A*14
$IIMWV,245,T,17.8,N,A*18
$IIRMC,164231,A,4612.859,N,00610.070,E,08.4,129,020714,01,E,A*0D
$IIVHW,,,130,M,07.2,N,,*63
$IIVLW,53364,N,001.7,N*52
$IIVWR,088,L,15.7,N,,,,*7C
$IIDPT,006.3,+0.7,*45
$IIGLL,4612.859,N,00610.070,E,164231,A,A*56
$IIHDG,130,,,01,E*11
$IIMTW,+18.0,C*31
$IIMWV,272,R,15.7,N,A*17
$IIMWV,247,T,17.1,N,A*13
$IIRMC,164231,A,4612.859,N,00610.070,E,08.4,129,020714,01,E,A*0D
$IIVHW,,,129,M,07.3,N,,*6A
$IIVLW,53364,N,001.7,N*52
$IIVWR,088,L,15.7,N,,,,*7C
$IIDPT,006.3,+0.7,*45
$IIGLL,4612.859,N,00610.070,E,164231,A,A*56
$IIHDG,129,,,01,E*19
$IIMTW,+18.0,C*31
$IIMWV,272,R,15.3,N,A*13
$IIMWV,246,T,17.1,N,A*12
$IIRMC,164231,A,4612.859,N,00610.070,E,08.4,129,020714,01,E,A*0D
$IIVHW,,,127,M,07.3,N,,*64
$IIVLW,53364,N,001.7,N*52
$IIVWR,088,L,15.3,N,,,,*78
$IIDPT,006.3,+0.7,*45
$IIGLL,4612.859,N,00610.070,E,164231,A,A*56
$IIHDG,127,,,01,E*17
$IIMTW,+18.0,C*31
$IIMWV,272,R,15.2,N,A*12
$IIMWV,246,T,16.7,N,A*15
$IIRMC,164233,A,4612.857,N,00610.075,E,08.0,132,020714,01,E,A*0A
$IIVHW,,,127,M,07.2,N,,*65
$IIVLW,53364,N,001.7,N*52
$IIVWR,088,L,15.2,N,,,,*79
$IIDPT,006.2,+0.7,*44
$IIGLL,4612.857,N,00610.075,E,164233,A,A*5F
$IIHDG,126,,,01,E*16
$IIMTW,+18.0,C*31
$IIMWV,271,R,15.4,N,A*17
$IIMWV,245,T,16.6,N,A*17
$IIRMC,164234,A,4612.855,N,00610.077,E,08.0,133,020714,01,E,A*0C
$IIVHW,,,126,M,07.2,N,,*64
$IIVLW,53364,N,001.7,N*52
$IIVWR,089,L,15.4,N,,,,*7E
$IIDPT,006.1,+0.7,*47
$IIGLL,4612.854,N,00610.080,E,164235,A,A*50
$IIHDG,124,,,01,E*14
$IIMTW,+18.0,C*31
$IIMWV,278,R,16.5,N,A*1C
$IIMWV,245,T,16.9,N,A*18
$IIRMC,164235,A,4612.854,N,00610.080,E,06.8,126,020714,01,E,A*06
$IIVHW,,,124,M,07.3,N,,*67
$IIVLW,53364,N,001.7,N*52
$IIVWR,082,L,16.5,N,,,,*77
$IIDPT,006.1,+0.7,*47
$IIGLL,4612.854,N,00610.082,E,164236,A,A*51
$IIHDG,120,,,01,E*10
$IIMTW,+18.0,C*31
$IIMWV,282,R,15.4,N,A*1B
$IIMWV,253,T,17.0,N,A*17
$IIRMC,164236,A,4612.854,N,00610.082,E,06.3,123,020714,01,E,A*09
$IIVHW,,,120,M,07.3,N,,*63
$IIVLW,53364,N,001.7,N*52
$IIVWR,073,L,15.8,N,,,,*77
$IIDPT,006.1,+0.7,*47
$IIGLL,4612.852,N,00610.083,E,164237,A,A*57
$IIHDG,116,,,01,E*15
$IIMTW,+18.0,C*31
$IIMWV,287,R,15.8,N,A*12
$IIMWV,254,T,15.5,N,A*17
$IIRMC,164237,A,4612.852,N,00610.083,E,09.9,174,020714,01,E,A*08
$IIVHW,,,116,M,07.3,N,,*66
$IIVLW,53364,N,001.7,N*52
$IIVWR,072,L,17.4,N,,,,*78
$IIDPT,006.0,+0.7,*46
$IIGLL,4612.852,N,00610.083,E,164237,A,A*57
$IIHDG,113,,,01,E*10
$IIMTW,+18.0,C*31
$IIMWV,288,R,17.4,N,A*13
$IIMWV,259,T,15.3,N,A*1C
$IIRMC,164237,A,4612.852,N,00610.083,E,09.9,174,020714,01,E,A*08
$IIVHW,,,113,M,07.3,N,,*63
$IIVLW,53364,N,001.7,N*52
$IIVWR,073,L,19.1,N,,,,*72
$IIDPT,006.0,+0.7,*46
$IIGLL,4612.849,N,00610.087,E,164239,A,A*57
$IIHDG,113,,,01,E*10
$IIMTW,+18.0,C*31
$IIMWV,287,R,19.1,N,A*17
$IIMWV,263,T,16.6,N,A*13
$IIRMC,164240,A,4612.849,N,00610.090,E,06.1,112,020714,01,E,A*07
$IIVHW,,,112,M,07.2,N,,*63
$IIVLW,53364,N,001.7,N*52
$IIVWR,073,L,19.8,N,,,,*7B
$IIDPT,006.0,+0.7,*46
$IIGLL,4612.849,N,00610.090,E,164240,A,A*5F
$IIHDG,112,,,01,E*11
$IIMTW,+18.0,C*31
$IIMWV,287,R,19.8,N,A*1E
$IIMWV,265,T,19.0,N,A*1C
$IIRMC,164240,A,4612.849,N,00610.090,E,06.1,112,020714,01,E,A*07
$IIVHW,,,112,M,07.0,N,,*61
$IIVLW,53364,N,001.7,N*52
$IIVWR,073,L,18.9,N,,,,*7B
$IIDPT,006.0,+0.7,*46
$IIGLL,4612.849,N,00610.090,E,164240,A,A*5F
$IIHDG,112,,,01,E*11
$IIMTW,+18.0,C*31
$IIMWV,286,R,18.4,N,A*12
$IIMWV,265,T,18.1,N,A*1C
$IIRMC,164242,A,4612.847,N,00610.096,E,06.5,115,020714,01,E,A*0E
$IIVHW,,,111,M,06.9,N,,*6A
$IIVLW,53364,N,001.7,N*52
$IIVWR,074,L,18.4,N,,,,*71
$IIDPT,006.0,+0.7,*46
$IIGLL,4612.847,N,00610.096,E,164242,A,A*55
$IIHDG,111,,,01,E*12
$IIMTW,+18.0,C*31
$IIMWV,290,R,18.9,N,A*18
$IIMWV,264,T,17.7,N,A*14
$IIRMC,164243,A,4612.846,N,00610.098,E,06.7,114,020714,01,E,A*03
$IIVHW,,,108,M,06.7,N,,*6C
$IIVLW,53364,N,001.7,N*52
$IIVWR,070,L,18.9,N,,,,*78
$IIDPT,006.0,+0.7,*46
$IIGLL,4612.846,N,00610.098,E,164243,A,A*5B
$IIHDG,101,,,01,E*13
$IIMTW,+18.0,C*31
$IIMWV,297,R,18.5,N,A*13
$IIMWV,269,T,17.7,N,A*19
$IIRMC,164243,A,4612.846,N,00610.098,E,06.7,114,020714,01,E,A*03
$IIVHW,,,101,M,06.6,N,,*64
$IIVLW,53364,N,001.7,N*52
$IIVWR,063,L,18.5,N,,,,*76
$IIDPT,006.0,+0.7,*46
$IIGLL,4612.844,N,00610.103,E,164245,A,A*5C
$IIHDG,094,,,01,E*1E
$IIMTW,+18.0,C*31
$IIMWV,302,R,19.1,N,A*1B
$IIMWV,276,T,16.4,N,A*15
$IIRMC,164245,A,4612.844,N,00610.103,E,06.4,096,020714,01,E,A*0C
$IIVHW,,,094,M,06.4,N,,*6B
$IIVLW,53364,N,001.7,N*52
$IIVWR,058,L,19.1,N,,,,*7B
$IIDPT,006.0,+0.7,*46
$IIGLL,4612.845,N,00610.106,E,164246,A,A*5B
$IIHDG,083,,,01,E*18
$IIMTW,+18.0,C*31
$IIMWV,311,R,20.4,N,A*16
$IIMWV,282,T,16.5,N,A*1F
$IIRMC,164246,A,4612.845,N,00610.106,E,05.7,084,020714,01,E,A*08
$IIVHW,,,083,M,06.3,N,,*6A
$IIVLW,53364,N,001.7,N*52
$IIVWR,039,L,22.4,N,,,,*71
$IIDPT,006.0,+0.7,*46
$IIGLL,4612.845,N,00610.106,E,164246,A,A*5B
$IIHDG,067,,,01,E*12
$IIMTW,+18.0,C*31
$IIMWV,321,R,22.4,N,A*17
$IIMWV,295,T,16.8,N,A*14
$IIRMC,164246,A,4612.845,N,00610.106,E,05.7,084,020714,01,E,A*08
$IIVHW,,,067,M,06.2,N,,*61
$IIVLW,53364,N,001.7,N*52
$IIVWR,028,L,23.5,N,,,,*71
$IIDPT,006.0,+0.7,*46
$IIGLL,4612.846,N,00610.109,E,164248,A,A*59
$IIHDG,052,,,01,E*14
$IIMTW,+18.0,C*31
$IIMWV,332,R,23.5,N,A*15
$IIMWV,308,T,18.0,N,A*17
$IIRMC,164248,A,4612.846,N,00610.109,E,02.6,045,020714,01,E,A*01
$IIVHW,,,036,M,05.5,N,,*61
$IIVLW,53364,N,001.7,N*52
$IIVWR,018,L,24.5,N,,,,*75
$IIDPT,006.0,+0.7,*46
$IIGLL,4612.846,N,00610.109,E,164248,A,A*59
$IIHDG,036,,,01,E*16
$IIMTW,+18.0,C*31
$IIMWV,342,R,24.5,N,A*15
$IIMWV,323,T,18.2,N,A*1C
$IIRMC,164250,A,4612.846,N,00610.111,E,02.2,042,020714,01,E,A*02
$IIVHW,,,017,M,05.0,N,,*67
$IIVLW,53364,N,001.7,N*52
$IIVWR,006,L,23.6,N,,,,*7E
$IIDPT,038.7,+0.7,*4C
$IIGLL,4612.846,N,00610.111,E,164250,A,A*59
$IIHDG,017,,,01,E*15
$IIMTW,+18.0,C*31
$IIMWV,354,R,23.6,N,A*16
$IIMWV,353,T,18.3,N,A*1A
$IIRMC,164250,A,4612.846,N,00610.111,E,02.2,042,020714,01,E,A*02
$IIVHW,,,001,M,04.5,N,,*64
$IIVLW,53364,N,001.7,N*52
$IIVWR,009,R,23.0,N,,,,*69
$IIDPT,038.7,+0.7,*4C
$IIGLL,4612.846,N,00610.111,E,164250,A,A*59
$IIHDG,001,,,01,E*12
$IIMTW,+18.0,C*31
$IIMWV,015,R,21.5,N,A*11
$IIMWV,011,T,18.4,N,A*18
$IIRMC,164250,A,4612.846,N,00610.111,E,02.2,042,020714,01,E,A*02
$IIVHW,,,347,M,03.9,N,,*6E
$IIVLW,53364,N,001.7,N*52
$IIVWR,015,R,21.5,N,,,,*63
$IIDPT,038.7,+0.7,*4C
$IIGLL,4612.846,N,00610.111,E,164250,A,A*59
$IIHDG,347,,,01,E*13
$IIMTW,+18.0,C*31
$IIMWV,025,R,20.1,N,A*17
$IIMWV,018,T,17.6,N,A*1C
$IIRMC,164253,A,4612.848,N,00610.110,E,02.4,292,020714,01,E,A*07
$IIVHW,,,342,M,03.4,N,,*66
$IIVLW,53364,N,001.7,N*52
$IIVWR,025,R,20.1,N,,,,*65
$IIDPT,006.3,+0.7,*45
$IIGLL,4612.848,N,00610.110,E,164253,A,A*55
$IIHDG,332,,,01,E*11
$IIMTW,+18.0,C*31
$IIMWV,033,R,20.4,N,A*15
$IIMWV,030,T,17.0,N,A*10
$IIRMC,164254,A,4612.849,N,00610.109,E,02.0,292,020714,01,E,A*0D
$IIVHW,,,332,M,03.0,N,,*65
$IIVLW,53364,N,001.7,N*52
$IIVWR,033,R,20.4,N,,,,*67
$IIDPT,006.3,+0.7,*45
$IIGLL,4612.849,N,00610.109,E,164255,A,A*5A
$IIHDG,329,,,01,E*1B
$IIMTW,+18.0,C*31
$IIMWV,032,R,19.1,N,A*1B
$IIMWV,038,T,17.8,N,A*10
$IIRMC,164255,A,4612.849,N,00610.109,E,02.2,292,020714,01,E,A*0E
$IIVHW,,,329,M,02.7,N,,*69
$IIVLW,53364,N,001.7,N*52
$IIVWR,032,R,19.1,N,,,,*69
$IIDPT,006.2,+0.7,*44
$IIGLL,4612.849,N,00610.109,E,164255,A,A*5A
$IIHDG,318,,,01,E*19
$IIMTW,+18.0,C*31
$IIMWV,036,R,17.8,N,A*18
$IIMWV,037,T,16.8,N,A*1E
$IIRMC,164255,A,4612.849,N,00610.109,E,02.2,292,020714,01,E,A*0E
$IIVHW,,,318,M,02.6,N,,*6A
$IIVLW,53364,N,001.7,N*52
$IIVWR,045,R,17.1,N,,,,*67
$IIDPT,006.2,+0.7,*44
$IIGLL,4612.849,N,00610.109,E,164255,A,A*5A
$IIHDG,313,,,01,E*12
$IIMTW,+18.0,C*31
$IIMWV,045,R,17.1,N,A*15
$IIMWV,042,T,15.7,N,A*10
$IIRMC,164255,A,4612.849,N,00610.109,E,02.2,292,020714,01,E,A*0E
$IIVHW,,,313,M,02.8,N,,*6F
$IIVLW,53364,N,001.8,N*5D
$IIVWR,055,R,18.5,N,,,,*6D
$IIDPT,006.2,+0.7,*44
$IIGLL,4612.851,N,00610.106,E,164258,A,A*51
$IIHDG,308,,,01,E*18
$IIMTW,+18.0,C*31
$IIMWV,055,R,18.5,N,A*1F
$IIMWV,052,T,15.2,N,A*14
$IIRMC,164258,A,4612.851,N,00610.106,E,02.7,284,020714,01,E,A*07
$IIVHW,,,304,M,03.3,N,,*63
$IIVLW,53365,N,001.8,N*5C
$IIVWR,058,R,20.0,N,,,,*6E
$IIDPT,006.1,+0.7,*47
$IIGLL,4612.851,N,00610.105,E,164259,A,A*53
$IIHDG,304,,,01,E*14
$IIMTW,+18.0,C*31
$IIMWV,058,R,20.0,N,A*1C
$IIMWV,064,T,16.8,N,A*18
$IIRMC,164300,A,4612.851,N,00610.103,E,04.7,289,020714,01,E,A*05
$IIVHW,,,306,M,03.6,N,,*64
$IIVLW,53365,N,001.8,N*5C
$IIVWR,056,R,21.0,N,,,,*61
$IIDPT,006.1,+0.7,*47
$IIGLL,4612.851,N,00610.103,E,164300,A,A*58
$IIHDG,306,,,01,E*16
$IIMTW,+18.0,C*31
$IIMWV,056,R,21.0,N,A*13
$IIMWV,065,T,19.1,N,A*1F
$IIRMC,164301,A,4612.852,N,00610.101,E,05.3,298,020714,01,E,A*00
$IIVHW,,,309,M,04.0,N,,*6A
$IIVLW,53365,N,001.8,N*5C
$IIVWR,051,R,21.8,N,,,,*6E
$IIDPT,006.1,+0.7,*47
$IIGLL,4612.852,N,00610.101,E,164301,A,A*58
$IIHDG,309,,,01,E*19
$IIMTW,+18.0,C*31
$IIMWV,050,R,21.0,N,A*15
$IIMWV,060,T,19.5,N,A*1E
$IIRMC,164302,A,4612.852,N,00610.100,E,05.3,318,020714,01,E,A*0B
$IIVHW,,,310,M,04.4,N,,*66
$IIVLW,53365,N,001.9,N*5D
$IIVWR,050,R,21.0,N,,,,*67
$IIDPT,006.1,+0.7,*47
$IIGLL,4612.852,N,00610.100,E,164302,A,A*5A
$IIHDG,310,,,01,E*11
$IIMTW,+18.0,C*31
$IIMWV,050,R,21.9,N,A*1C
$IIMWV,061,T,18.4,N,A*1F
$IIRMC,164303,A,4612.853,N,00610.098,E,05.3,305,020714,01,E,A*07
$IIVHW,,,310,M,04.7,N,,*65
$IIVLW,53365,N,001.9,N*5D
$IIVWR,050,R,21.9,N,,,,*6E
$IIDPT,006.1,+0.7,*47
$IIGLL,4612.853,N,00610.098,E,164303,A,A*5A
$IIHDG,309,,,01,E*19
$IIMTW,+18.0,C*31
$IIMWV,046,R,22.8,N,A*19
$IIMWV,061,T,19.2,N,A*18
$IIRMC,164304,A,4612.854,N,00610.096,E,05.1,306,020714,01,E,A*08
$IIVHW,,,309,M,05.1,N,,*6A
$IIVLW,53365,N,001.9,N*5D
$IIVWR,046,R,22.8,N,,,,*6B
$IIDPT,006.2,+0.7,*44
$IIGLL,4612.855,N,00610.095,E,164305,A,A*57
$IIHDG,311,,,01,E*10
$IIMTW,+18.0,C*31
$IIMWV,045,R,23.0,N,A*13
$IIMWV,057,T,19.5,N,A*1A
$IIRMC,164305,A,4612.855,N,00610.095,E,05.8,308,020714,01,E,A*0C
$IIVHW,,,311,M,05.4,N,,*66
$IIVLW,53365,N,001.9,N*5D
$IIVWR,045,R,23.0,N,,,,*61
$IIDPT,006.3,+0.7,*45
$IIGLL,4612.857,N,00610.093,E,164306,A,A*50
$IIHDG,311,,,01,E*10
$IIMTW,+18.0,C*31
$IIMWV,043,R,23.2,N,A*17
$IIMWV,056,T,19.6,N,A*18
$IIRMC,164306,A,4612.857,N,00610.093,E,06.6,302,020714,01,E,A*0C
$IIVHW,,,311,M,05.8,N,,*6A
$IIVLW,53365,N,001.9,N*5D
$IIVWR,044,R,24.0,N,,,,*67
$IIDPT,006.3,+0.7,*45
$IIGLL,4612.858,N,00610.090,E,164307,A,A*5D
$IIHDG,313,,,01,E*12
$IIMTW,+18.0,C*31
$IIMWV,044,R,24.0,N,A*15
$IIMWV,055,T,19.2,N,A*1F
$IIRMC,164307,A,4612.858,N,00610.090,E,06.9,296,020714,01,E,A*02
$IIVHW,,,313,M,06.0,N,,*63
$IIVLW,53365,N,002.0,N*57
$IIVWR,045,R,24.5,N,,,,*63
$IIDPT,006.3,+0.7,*45
$IIGLL,4612.859,N,00610.088,E,164308,A,A*5A
$IIHDG,313,,,01,E*12
$IIMTW,+18.0,C*31
$IIMWV,045,R,24.5,N,A*11
$IIMWV,056,T,19.8,N,A*16
$IIRMC,164308,A,4612.859,N,00610.088,E,07.5,318,020714,01,E,A*0F
$IIVHW,,,310,M,06.5,N,,*65
$IIVLW,53365,N,002.0,N*57
$IIVWR,045,R,23.6,N,,,,*67
$IIDPT,006.3,+0.7,*45
$IIGLL,4612.861,N,00610.086,E,164309,A,A*5E
$IIHDG,310,,,01,E*11
$IIMTW,+18.0,C*31
$IIMWV,045,R,23.6,N,A*15
$IIMWV,057,T,20.5,N,A*10
$IIRMC,164310,A,4612.863,N,00610.084,E,07.7,311,020714,01,E,A*08
$IIVHW,,,308,M,06.7,N,,*6E
$IIVLW,53365,N,002.0,N*57
$IIVWR,043,R,22.7,N,,,,*61
$IIDPT,006.3,+0.7,*45
$IIGLL,4612.863,N,00610.084,E,164310,A,A*56
$IIHDG,308,,,01,E*18
$IIMTW,+18.0,C*31
$IIMWV,043,R,22.7,N,A*13
$IIMWV,057,T,18.2,N,A*1C
$IIRMC,164311,A,4612.864,N,00610.082,E,07.7,313,020714,01,E,A*0A
$IIVHW,,,302,M,06.9,N,,*6A
$IIVLW,53365,N,002.0,N*57
$IIVWR,044,R,22.3,N,,,,*62
$IIDPT,006.2,+0.7,*44
$IIGLL,4612.864,N,00610.082,E,164311,A,A*56
$IIHDG,302,,,01,E*12
$IIMTW,+18.0,C*31
$IIMWV,047,R,22.2,N,A*12
$IIMWV,059,T,17.8,N,A*17
$IIRMC,164312,A,4612.865,N,00610.079,E,07.7,293,020714,01,E,A*05
$IIVHW,,,301,M,07.0,N,,*61
$IIVLW,53365,N,002.0,N*57
$IIVWR,047,R,22.2,N,,,,*60
$IIDPT,006.2,+0.7,*44
$IIGLL,4612.865,N,00610.079,E,164312,A,A*50
$IIHDG,301,,,01,E*11
$IIMTW,+18.0,C*31
$IIMWV,054,R,22.1,N,A*13
$IIMWV,064,T,18.0,N,A*1E
$IIRMC,164312,A,4612.865,N,00610.079,E,07.7,293,020714,01,E,A*05
$IIVHW,,,296,M,07.1,N,,*6F
$IIVLW,53365,N,002.0,N*57
$IIVWR,054,R,22.1,N,,,,*61
$IIDPT,006.2,+0.7,*44
$IIGLL,4612.865,N,00610.079,E,164312,A,A*50
$IIHDG,290,,,01,E*18
$IIMTW,+18.0,C*31
$IIMWV,056,R,22.7,N,A*17
$IIMWV,072,T,18.8,N,A*11
$IIRMC,164314,A,4612.868,N,00610.074,E,08.3,294,020714,01,E,A*0F
$IIVHW,,,290,M,07.2,N,,*6A
$IIVLW,53365,N,002.0,N*57
$IIVWR,056,R,22.7,N,,,,*65
$IIDPT,006.4,+0.7,*42
$IIGLL,4612.868,N,00610.074,E,164314,A,A*56
$IIHDG,288,,,01,E*11
$IIMTW,+18.0,C*31
$IIMWV,058,R,21.8,N,A*15
$IIMWV,074,T,19.5,N,A*1B
$IIRMC,164314,A,4612.868,N,00610.074,E,08.3,294,020714,01,E,A*0F
$IIVHW,,,288,M,07.4,N,,*65
$IIVLW,53365,N,002.0,N*57
$IIVWR,058,R,21.8,N,,,,*67
$IIDPT,006.4,+0.7,*42
$IIGLL,4612.869,N,00610.068,E,164316,A,A*58
$IIHDG,285,,,01,E*1C
$IIMTW,+18.0,C*31
$IIMWV,060,R,21.3,N,A*15
$IIMWV,078,T,18.9,N,A*1A
$IIRMC,164316,A,4612.869,N,00610.068,E,08.6,273,020714,01,E,A*0D
$IIVHW,,,285,M,07.4,N,,*68
$IIVLW,53365,N,002.0,N*57
$IIVWR,061,R,21.5,N,,,,*60
$IIDPT,006.4,+0.7,*42
$IIGLL,4612.868,N,00610.065,E,164317,A,A*55
$IIHDG,285,,,01,E*1C
$IIMTW,+18.0,C*31
$IIMWV,061,R,21.5,N,A*12
$IIMWV,081,T,18.7,N,A*12
$IIRMC,164317,A,4612.868,N,00610.065,E,08.4,254,020714,01,E,A*07
$IIVHW,,,285,M,07.5,N,,*69
$IIVLW,53365,N,002.0,N*57
$IIVWR,063,R,22.2,N,,,,*66
$IIDPT,006.4,+0.7,*42
$IIGLL,4612.868,N,00610.065,E,164317,A,A*55
$IIHDG,282,,,01,E*1B
$IIMTW,+18.0,C*31
$IIMWV,063,R,22.2,N,A*14
$IIMWV,082,T,18.8,N,A*1E
$IIRMC,164317,A,4612.868,N,00610.065,E,08.4,254,020714,01,E,A*07
$IIVHW,,,282,M,07.6,N,,*6D
$IIVLW,53365,N,002.0,N*57
$IIVWR,063,R,22.7,N,,,,*63
$IIDPT,006.4,+0.7,*42
$IIGLL,4612.870,N,00610.055,E,164320,A,A*5B
$IIHDG,282,,,01,E*1B
$IIMTW,+18.0,C*31
$IIMWV,063,R,22.7,N,A*11
$IIMWV,083,T,19.8,N,A*1E
$IIRMC,164320,A,4612.870,N,00610.055,E,08.0,289,020714,01,E,A*0D
$IIVHW,,,282,M,07.6,N,,*6D
$IIVLW,53365,N,002.0,N*57
$IIVWR,063,R,22.8,N,,,,*6C
$IIDPT,006.4,+0.7,*42
$IIGLL,4612.870,N,00610.055,E,164320,A,A*5B
$IIHDG,282,,,01,E*1B
$IIMTW,+18.0,C*31
$IIMWV,063,R,22.8,N,A*1E
$IIMWV,083,T,20.3,N,A*1F
$IIRMC,164322,A,4612.871,N,00610.049,E,08.3,282,020714,01,E,A*0B
$IIVHW,,,284,M,05.3,N,,*6C
$IIVLW,53365,N,002.0,N*57
$IIVWR,064,R,22.2,N,,,,*61
$IIDPT,006.4,+0.7,*42
$IIGLL,4612.871,N,00610.049,E,164322,A,A*55
$IIHDG,284,,,01,E*1D
$IIMTW,+18.0,C*31
$IIMWV,066,R,21.4,N,A*14
$IIMWV,078,T,20.3,N,A*1B
$IIRMC,164322,A,4612.871,N,00610.049,E,08.3,282,020714,01,E,A*0B
$IIVHW,,,280,M,05.2,N,,*69
$IIVLW,53365,N,002.0,N*57
$IIVWR,066,R,21.4,N,,,,*66
$IIDPT,006.4,+0.7,*42
$IIGLL,4612.871,N,00610.049,E,164322,A,A*55
$IIHDG,280,,,01,E*19
$IIMTW,+18.0,C*31
$IIMWV,065,R,21.0,N,A*13
$IIMWV,080,T,19.6,N,A*13
$IIRMC,164323,A,4612.872,N,00610.045,E,08.1,277,020714,01,E,A*0D
$IIVHW,,,280,M,07.6,N,,*6F
$IIVLW,53365,N,002.0,N*57
$IIVWR,065,R,21.0,N,,,,*61
$IIDPT,006.4,+0.7,*42
$IIGLL,4612.872,N,00610.045,E,164323,A,A*5B
$IIHDG,280,,,01,E*19
$IIMTW,+18.0,C*31
$IIMWV,064,R,20.0,N,A*13
$IIMWV,086,T,19.1,N,A*12
$IIRMC,164324,A,4612.872,N,00610.042,E,08.7,270,020714,01,E,A*0C
$IIVHW,,,280,M,07.6,N,,*6F
$IIVLW,53365,N,002.0,N*57
$IIVWR,064,R,20.0,N,,,,*61
$IIDPT,006.4,+0.7,*42
$IIGLL,4612.873,N,00610.035,E,164326,A,A*58
$IIHDG,279,,,01,E*1F
$IIMTW,+18.0,C*31
$IIMWV,064,R,19.6,N,A*1F
$IIMWV,086,T,18.0,N,A*12
$IIRMC,164326,A,4612.873,N,00610.035,E,08.3,279,020714,01,E,A*02
$IIVHW,,,279,M,07.6,N,,*69
$IIVLW,53365,N,002.0,N*57
$IIVWR,064,R,19.6,N,,,,*6D
$IIDPT,006.4,+0.7,*42
$IIGLL,4612.873,N,00610.035,E,164326,A,A*58
$IIHDG,280,,,01,E*19
$IIMTW,+18.0,C*31
$IIMWV,065,R,19.6,N,A*1E
$IIMWV,087,T,17.6,N,A*1A
$IIRMC,164326,A,4612.873,N,00610.035,E,08.3,279,020714,01,E,A*02
$IIVHW,,,280,M,07.7,N,,*6E
$IIVLW,53365,N,002.0,N*57
$IIVWR,064,R,20.9,N,,,,*68
$IIDPT,006.4,+0.7,*42
$IIGLL,4612.873,N,00610.032,E,164327,A,A*5E
$IIHDG,279,,,01,E*1F
$IIMTW,+18.0,C*31
$IIMWV,064,R,20.9,N,A*1A
$IIMWV,089,T,17.8,N,A*1A
$IIRMC,164327,A,4612.873,N,00610.032,E,08.5,281,020714,01,E,A*05
$IIVHW,,,279,M,07.8,N,,*67
$IIVLW,53365,N,002.0,N*57
$IIVWR,061,R,21.4,N,,,,*61
$IIDPT,006.4,+0.7,*42
$IIGLL,4612.874,N,00610.029,E,164328,A,A*5C
$IIHDG,279,,,01,E*1F
$IIMTW,+18.0,C*31
$IIMWV,061,R,21.4,N,A*13
$IIMWV,086,T,18.8,N,A*1A
$IIRMC,164328,A,4612.874,N,00610.029,E,08.9,279,020714,01,E,A*0C
$IIVHW,,,281,M,07.8,N,,*60
$IIVLW,53365,N,002.0,N*57
$IIVWR,062,R,22.1,N,,,,*64
$IIDPT,006.4,+0.7,*42
$IIGLL,4612.875,N,00610.022,E,164330,A,A*5F
$IIHDG,281,,,01,E*18
$IIMTW,+18.0,C*31
$IIMWV,062,R,22.1,N,A*16
$IIMWV,083,T,18.7,N,A*10
$IIRMC,164330,A,4612.875,N,00610.022,E,07.6,295,020714,01,E,A*0D
$IIVHW,,,281,M,07.7,N,,*6F
$IIVLW,53365,N,002.0,N*57
$IIVWR,061,R,22.6,N,,,,*60
$IIDPT,006.2,+0.7,*44
$IIGLL,4612.875,N,00610.022,E,164330,A,A*5F
$IIHDG,281,,,01,E*18
$IIMTW,+18.0,C*31
$IIMWV,061,R,22.6,N,A*12
$IIMWV,081,T,19.8,N,A*1C
$IIRMC,164331,A,4612.875,N,00610.019,E,08.2,282,020714,01,E,A*09
$IIVHW,,,283,M,07.7,N,,*6D
$IIVLW,53365,N,002.0,N*57
$IIVWR,060,R,22.2,N,,,,*65
$IIDPT,006.0,+0.7,*46
$IIGLL,4612.875,N,00610.019,E,164331,A,A*56
$IIHDG,283,,,01,E*1A
$IIMTW,+18.0,C*31
$IIMWV,061,R,22.6,N,A*12
$IIMWV,080,T,19.5,N,A*10
$IIRMC,164332,A,4612.876,N,00610.016,E,08.2,278,020714,01,E,A*03
$IIVHW,,,282,M,07.7,N,,*6C
$IIVLW,53365,N,002.0,N*57
$IIVWR,061,R,22.6,N,,,,*60
$IIDPT,006.0,+0.7,*46
$IIGLL,4612.876,N,00610.016,E,164332,A,A*59
$IIHDG,282,,,01,E*1B
$IIMTW,+18.0,C*31
$IIMWV,061,R,23.4,N,A*11
$IIMWV,081,T,19.8,N,A*1C
$IIRMC,164333,A,4612.877,N,00610.013,E,08.9,280,020714,01,E,A*0A
$IIVHW,,,282,M,07.6,N,,*6D
$IIVLW,53365,N,002.0,N*57
$IIVWR,061,R,23.4,N,,,,*63
$IIDPT,006.1,+0.7,*47
$IIGLL,4612.877,N,00610.013,E,164333,A,A*5C
$IIHDG,284,,,01,E*1D
$IIMTW,+18.0,C*31
$IIMWV,062,R,23.2,N,A*14
$IIMWV,080,T,20.5,N,A*1A
$IIRMC,164334,A,4612.877,N,00610.009,E,08.5,286,020714,01,E,A*0C
$IIVHW,,,284,M,07.6,N,,*6B
$IIVLW,53365,N,002.0,N*57
$IIVWR,062,R,23.2,N,,,,*66
$IIDPT,006.3,+0.7,*45
$IIGLL,4612.878,N,00610.006,E,164335,A,A*51
$IIHDG,284,,,01,E*1D
$IIMTW,+18.0,C*31
$IIMWV,061,R,22.4,N,A*10
$IIMWV,081,T,20.6,N,A*18
$IIRMC,164335,A,4612.878,N,00610.006,E,08.3,289,020714,01,E,A*04
$IIVHW,,,284,M,07.5,N,,*68
$IIVLW,53365,N,002.0,N*57
$IIVWR,061,R,22.4,N,,,,*62
$IIDPT,006.3,+0.7,*45
$IIGLL,4612.878,N,00610.003,E,164336,A,A*57
$IIHDG,285,,,01,E*1C
$IIMTW,+18.0,C*31
$IIMWV,061,R,22.2,N,A*16
$IIMWV,081,T,19.6,N,A*12
$IIRMC,164336,A,4612.878,N,00610.003,E,07.2,289,020714,01,E,A*0C
$IIVHW,,,285,M,07.6,N,,*6A
$IIVLW,53365,N,002.0,N*57
$IIVWR,060,R,22.4,N,,,,*63
$IIDPT,006.3,+0.7,*45
$IIGLL,4612.878,N,00610.003,E,164336,A,A*57
$IIHDG,286,,,01,E*1F
$IIMTW,+18.0,C*31
$IIMWV,060,R,22.4,N,A*11
$IIMWV,081,T,19.5,N,A*11
$IIRMC,164336,A,4612.878,N,00610.003,E,07.2,289,020714,01,E,A*0C
$IIVHW,,,286,M,07.5,N,,*6A
$IIVLW,53365,N,002.0,N*57
$IIVWR,062,R,21.5,N,,,,*63
$IIDPT,006.3,+0.7,*45
$IIGLL,4612.880,N,00609.998,E,164338,A,A*5D
$IIHDG,288,,,01,E*11
$IIMTW,+18.0,C*31
$IIMWV,062,R,21.5,N,A*11
$IIMWV,079,T,19.7,N,A*14
$IIRMC,164338,A,4612.880,N,00609.998,E,07.7,287,020714,01,E,A*0D
$IIVHW,,,290,M,07.3,N,,*6B
$IIVLW,53365,N,002.0,N*57
$IIVWR,059,R,21.8,N,,,,*66
$IIDPT,006.3,+0.7,*45
$IIGLL,4612.881,N,00609.995,E,164339,A,A*50
$IIHDG,290,,,01,E*18
$IIMTW,+18.0,C*31
$IIMWV,059,R,21.8,N,A*14
$IIMWV,082,T,19.0,N,A*17
$IIRMC,164339,A,4612.881,N,00609.995,E,07.7,298,020714,01,E,A*0E
$IIVHW,,,292,M,07.2,N,,*68
$IIVLW,53365,N,002.0,N*57
$IIVWR,056,R,20.8,N,,,,*68
$IIDPT,006.3,+0.7,*45
$IIGLL,4612.881,N,00609.995,E,164339,A,A*50
$IIHDG,292,,,01,E*1A
$IIMTW,+18.0,C*31
$IIMWV,056,R,20.8,N,A*1A
$IIMWV,076,T,17.7,N,A*15
$IIRMC,164342,A,4612.884,N,00609.986,E,07.7,297,020714,01,E,A*0A
$IIVHW,,,299,M,07.1,N,,*60
$IIVLW,53365,N,002.0,N*57
$IIVWR,056,R,20.6,N,,,,*66
$IIDPT,006.3,+0.7,*45
$IIGLL,4612.884,N,00609.986,E,164342,A,A*5B
$IIHDG,299,,,01,E*11
$IIMTW,+18.0,C*31
$IIMWV,053,R,21.7,N,A*11
$IIMWV,076,T,17.5,N,A*17
$IIRMC,164342,A,4612.884,N,00609.986,E,07.7,297,020714,01,E,A*0A
$IIVHW,,,298,M,07.2,N,,*62
$IIVLW,53365,N,002.0,N*57
$IIVWR,053,R,21.7,N,,,,*63
$IIDPT,006.3,+0.7,*45
$IIGLL,4612.884,N,00609.986,E,164342,A,A*5B
$IIHDG,298,,,01,E*10
$IIMTW,+18.0,C*31
$IIMWV,050,R,22.1,N,A*17
$IIMWV,071,T,18.2,N,A*18
$IIRMC,164343,A,4612.885,N,00609.984,E,07.7,304,020714,01,E,A*03
$IIVHW,,,301,M,07.2,N,,*63
$IIVLW,53365,N,002.0,N*57
$IIVWR,050,R,22.1,N,,,,*65
$IIDPT,006.3,+0.7,*45
$IIGLL,4612.885,N,00609.984,E,164343,A,A*59
$IIHDG,303,,,01,E*13
$IIMTW,+18.0,C*31
$IIMWV,049,R,22.1,N,A*1F
$IIMWV,068,T,18.3,N,A*11
