$IIVLW,01466,N,000.8,N*5E
$IIMWV,156,T,06.2,N,A*13
$IIVHW,,,016,M,02.6,N,,*67
$IIVLW,01466,N,000.8,N*5E
$IIVWR,143,R,02.9,N,,,,*6C
$IIDPT,036.1,-1.0,*44
$IIHDG,016,,,,*50
$IIMTW,+14.5,C*38
$IIMWV,145,R,03.8,N,A*18
$IIMWV,161,T,05.2,N,A*14
$IIVHW,,,016,M,02.6,N,,*67
$IIVLW,01466,N,000.8,N*5E
$IIVWR,145,R,03.8,N,,,,*6A
$IIDPT,036.1,-1.0,*44
$IIHDG,016,,,,*50
$IIMTW,+14.5,C*38
$IIMWV,151,R,04.5,N,A*17
$GPRMB,A,0.00,L,,PERF,4622.300,N,00619.430,E,0.000,227.1,,V,A*7A
$GPRMB,A,0.00,L,,PERF,4622.300,N,00619.430,E,0.000,227.1,,V,A*7A
$IIVHW,,,016,M,02.6,N,,*67
$IIVLW,01466,N,000.8,N*5E
$IIVWR,151,R,04.5,N,,,,*65
$IIDPT,036.1,-1.0,*44
$IIHDG,016,,,,*50
$IIMTW,+14.5,C*38
$IIMWV,135,R,06.3,N,A*11
$IIMWV,163,T,06.9,N,A*1E
$IIVHW,,,016,M,02.6,N,,*67
$IIVLW,01466,N,000.8,N*5E
$IIVWR,135,R,06.3,N,,,,*63
$IIDPT,036.1,-1.0,*44
$IIHDG,016,,,,*50
$IIMTW,+14.5,C*38
$IIMWV,148,R,05.5,N,A*1E
$IIMWV,148,T,08.2,N,A*12
$IIVHW,,,015,M,02.6,N,,*64
$IIVLW,01466,N,000.8,N*5E
$IIVWR,148,R,05.5,N,,,,*6C
$IIDPT,021.8,-1.0,*4B
$IIHDG,015,,,,*53
$IIMTW,+14.5,C*38
$IIMWV,146,R,04.9,N,A*1D
$GPRMB,A,0.00,L,,PERF,4622.300,N,00619.430,E,0.000,227.1,,V,A*7A
$GPRMB,A,0.00,L,,PERF,4622.300,N,00619.430,E,0.000,227.1,,V,A*7A
$IIVHW,,,015,M,02.6,N,,*64
$IIVLW,01466,N,000.8,N*5E
$IIVWR,146,R,04.9,N,,,,*6F
$IIDPT,021.8,-1.0,*4B
$IIHDG,015,,,,*53
$IIMTW,+14.5,C*38
$IIMWV,152,R,04.7,N,A*16
$IIMWV,158,T,07.1,N,A*1F
$IIVHW,,,015,M,02.6,N,,*64
$IIVLW,01466,N,000.8,N*5E
$IIVWR,152,R,04.7,N,,,,*64
$IIDPT,021.8,-1.0,*4B
$IIHDG,015,,,,*53
$IIMTW,+14.5,C*38
$IIMWV,156,R,04.6,N,A*13
$IIMWV,162,T,07.0,N,A*17
$IIVHW,,,015,M,02.6,N,,*64
$IIVLW,01466,N,000.8,N*5E
$IIVWR,156,R,04.6,N,,,,*61
$IIDPT,021.7,-1.0,*44
$IIHDG,015,,,,*53
$IIMTW,+14.5,C*38
$IIMWV,151,R,03.6,N,A*13
$GPRMB,A,0.00,L,,PERF,4622.300,N,00619.430,E,0.000,227.1,,V,A*7A
$GPRMB,A,0.00,L,,PERF,4622.300,N,00619.430,E,0.000,227.1,,V,A*7A
$IIVHW,,,015,M,02.6,N,,*64
$IIVLW,01466,N,000.8,N*5E
$IIVWR,151,R,03.6,N,,,,*61
$IIDPT,021.7,-1.0,*44
$IIHDG,015,,,,*53
$IIMTW,+14.5,C*38
$IIMWV,149,R,04.2,N,A*19
$IIMWV,163,T,05.9,N,A*1D
$IIVHW,,,015,M,02.5,N,,*67
$IIVLW,01466,N,000.8,N*5E
$IIVWR,149,R,04.2,N,,,,*6B
$IIDPT,021.7,-1.0,*44
$IIHDG,015,,,,*53
$IIMTW,+14.5,C*38
$IIMWV,153,R,04.5,N,A*15
$IIMWV,161,T,06.5,N,A*10
$IIVHW,,,014,M,02.5,N,,*66
$IIVLW,01466,N,000.8,N*5E
$IIVWR,153,R,04.5,N,,,,*67
$IIDPT,021.7,-1.0,*44
$IIHDG,014,,,,*52
$IIMTW,+14.5,C*38
$IIMWV,144,R,03.7,N,A*16
$GPRMB,A,0.00,L,,PERF,4622.300,N,00619.430,E,0.000,227.1,,V,A*7A
$GPRMB,A,0.00,L,,PERF,4622.300,N,00619.430,E,0.000,227.1,,V,A*7A
$IIVHW,,,016,M,02.5,N,,*64
$IIVLW,01466,N,000.8,N*5E
$IIVWR,144,R,03.7,N,,,,*64
$IIDPT,021.7,-1.0,*44
$IIHDG,016,,,,*50
$IIMTW,+14.5,C*38
$IIMWV,149,R,04.3,N,A*18
$IIMWV,159,T,05.7,N,A*1A
$IIVHW,,,016,M,02.5,N,,*64
$IIVLW,01466,N,000.8,N*5E
$IIVWR,149,R,04.3,N,,,,*6A
$IIDPT,021.7,-1.0,*44
$IIHDG,016,,,,*50
$IIMTW,+14.5,C*38
$IIMWV,155,R,03.5,N,A*14
$IIMWV,160,T,06.5,N,A*11
$IIVHW,,,017,M,02.5,N,,*65
$IIVLW,01466,N,000.8,N*5E
$IIVWR,155,R,03.5,N,,,,*66
$IIDPT,021.7,-1.0,*44
$IIHDG,017,,,,*51
$IIMTW,+14.5,C*38
$IIMWV,155,R,06.9,N,A*1D
$GPRMB,A,0.00,L,,PERF,4622.300,N,00619.430,E,0.000,227.1,,V,A*7A
$GPRMB,A,0.00,L,,PERF,4622.300,N,00619.430,E,0.000,227.1,,V,A*7A
$IIVHW,,,017,M,02.5,N,,*65
$IIVLW,01466,N,000.8,N*5E
$IIVWR,155,R,06.9,N,,,,*6F
$IIDPT,021.6,-1.0,*45
$IIHDG,017,,,,*51
$IIMTW,+14.5,C*38
$IIMWV,149,R,05.3,N,A*19
$IIMWV,163,T,09.2,N,A*1A
$IIVHW,,,017,M,02.5,N,,*65
$IIVLW,01466,N,000.8,N*5E
$IIVWR,149,R,05.3,N,,,,*6B
$IIDPT,021.6,-1.0,*45
$IIHDG,017,,,,*51
$IIMTW,+14.5,C*38
$IIMWV,151,R,04.9,N,A*1B
$IIMWV,159,T,07.5,N,A*1A
$IIVHW,,,017,M,02.5,N,,*65
$IIVLW,01466,N,000.8,N*5E
$IIVWR,151,R,04.9,N,,,,*69
$IIDPT,021.6,-1.0,*45
$IIHDG,017,,,,*51
$IIMTW,+14.5,C*38
$IIMWV,148,R,04.7,N,A*1D
$GPRMB,A,0.00,L,,PERF,4622.300,N,00619.430,E,0.000,227.1,,V,A*7A
$GPRMB,A,0.00,L,,PERF,4622.300,N,00619.430,E,0.000,227.1,,V,A*7A
$IIVHW,,,018,M,02.5,N,,*6A
$IIVLW,01466,N,000.8,N*5E
$IIVWR,148,R,04.7,N,,,,*6F
$IIDPT,021.6,-1.0,*45
$IIHDG,018,,,,*5E
$IIMTW,+14.5,C*38
$IIMWV,143,R,03.8,N,A*1E
$IIMWV,160,T,06.9,N,A*1D
$IIVHW,,,020,M,02.5,N,,*61
$IIVLW,01466,N,000.8,N*5E
$IIVWR,143,R,03.8,N,,,,*6C
$IIDPT,021.6,-1.0,*45
$IIHDG,020,,,,*55
$IIMTW,+14.5,C*38
$IIMWV,159,R,04.4,N,A*1E
$IIMWV,159,T,06.0,N,A*1E
$IIVHW,,,020,M,02.5,N,,*61
$IIVLW,01466,N,000.8,N*5E
$IIVWR,159,R,04.4,N,,,,*6C
$IIDPT,021.6,-1.0,*45
$IIHDG,020,,,,*55
$IIMTW,+14.5,C*38
$IIMWV,148,R,03.5,N,A*18
$GPRMB,A,0.00,L,,PERF,4622.300,N,00619.430,E,0.000,227.1,,V,A*7A
$GPRMB,A,0.00,L,,PERF,4622.300,N,00619.430,E,0.000,227.1,,V,A*7A
$IIVHW,,,020,M,02.5,N,,*61
$IIVLW,01466,N,000.8,N*5E
$IIVWR,148,R,03.5,N,,,,*6A
$IIDPT,021.6,-1.0,*45
$IIHDG,020,,,,*55
$IIMTW,+14.5,C*38
$IIMWV,149,R,04.4,N,A*1F
$IIMWV,162,T,05.7,N,A*12
$IIVHW,,,020,M,02.5,N,,*61
$IIVLW,01466,N,000.8,N*5E
$IIVWR,149,R,04.4,N,,,,*6D
$IIDPT,021.6,-1.0,*45
$IIHDG,020,,,,*55
$IIMTW,+14.5,C*38
$IIMWV,150,R,04.0,N,A*13
$IIMWV,161,T,06.6,N,A*13
$IIVHW,,,020,M,02.6,N,,*62
$IIVLW,01466,N,000.8,N*5E
$IIVWR,150,R,04.0,N,,,,*61
$IIDPT,014.4,-1.0,*41
$IIHDG,020,,,,*55
$IIMTW,+14.5,C*38
$IIMWV,155,R,03.4,N,A*15
$GPRMB,A,0.00,L,,PERF,4622.300,N,00619.430,E,0.000,227.1,,V,A*7A
$GPRMB,A,0.00,L,,PERF*74
$IIVHW,,,020,M,02.6,N,,*62
$IIVLW,01466,N,000.8,N*5E
$IIVWR,155,R,03.4,N,,,,*67
$IIDPT,014.3,-1.0,*46
$IIHDG,020,,,,*55
$IIMTW,+14.5,C*38
$IIMWV,160,R,04.2,N,A*12
$IIMWV,166,T,05.7,N,A*16
$IIVHW,,,020,M,02.6,N,,*62
$IIVLW,01466,N,000.8,N*5E
$IIVWR,160,R,04.2,N,,,,*60
$IIDPT,014.3,-1.0,*46
$IIHDG,020,,,,*55
$IIMTW,+14.5,C*38
$IIMWV,159,R,03.7,N,A*1A
$IIMWV,168,T,06.6,N,A*1A
$IIVHW,,,020,M,02.6,N,,*62
$IIVLW,01466,N,000.8,N*5E
$IIVWR,159,R,03.7,N,,,,*68
$IIDPT,014.3,-1.0,*46
$IIHDG,020,,,,*55
$IIMTW,+14.5,C*38
$IIMWV,158,R,03.2,N,A*1E
$GPRMB,A,0.00,L,,PERF,4622.300,N,00619.430,E,0.000,227.1,,V,A*7A
$GPRMB,A,0.00,L,,PERF*74
$IIVHW,,,018,M,02.6,N,,*69
$IIVLW,01466,N,000.8,N*5E
$IIVWR,158,R,03.2,N,,,,*6C
$IIDPT,014.3,-1.0,*46
$IIHDG,018,,,,*5E
$IIMTW,+14.5,C*38
$IIMWV,156,R,04.1,N,A*14
$IIMWV,169,T,05.6,N,A*18
$IIVHW,,,018,M,02.6,N,,*69
$IIVLW,01466,N,000.8,N*5E
$IIVWR,156,R,04.1,N,,,,*66
$IIDPT,014.3,-1.0,*46
$IIHDG,018,,,,*5E
$IIMTW,+14.5,C*38
$IIMWV,160,R,03.6,N,A*11
$IIMWV,166,T,06.5,N,A*17
$IIVHW,,,018,M,02.6,N,,*69
$IIVLW,01466,N,000.8,N*5E
$IIVWR,160,R,03.6,N,,,,*63
$IIDPT,014.3,-1.0,*46
$IIHDG,018,,,,*5E
$IIMTW,+14.5,C*38
$IIMWV,158,R,03.2,N,A*1E
$GPRMB,A,0.00,L,,PERF,4622.300,N,00619.430,E,0.000,227.1,,V,A*7A
$GPRMB,A,0.00,L,,PERF*74
$IIVHW,,,018,M,02.5,N,,*6A
$IIVLW,01466,N,000.8,N*5E
$IIVWR,158,R,03.2,N,,,,*6C
$IIDPT,014.3,-1.0,*46
$IIHDG,018,,,,*5E
$IIMTW,+14.5,C*38
$IIMWV,161,R,03.9,N,A*1F
$IIMWV,169,T,05.6,N,A*18
$IIVHW,,,018,M,02.5,N,,*6A
$IIVLW,01466,N,000.8,N*5E
$IIVWR,161,R,03.9,N,,,,*6D
$IIDPT,014.3,-1.0,*46
$IIHDG,018,,,,*5E
$IIMTW,+14.5,C*38
$IIMWV,156,R,04.5,N,A*10
$IIMWV,169,T,06.4,N,A*19
$IIVHW,,,018,M,02.5,N,,*6A
$IIVLW,01466,N,000.8,N*5E
$IIVWR,156,R,04.5,N,,,,*62
$IIDPT,014.3,-1.0,*46
$IIHDG,018,,,,*5E
$IIMTW,+14.5,C*38
$IIMWV,164,R,04.1,N,A*15
$GPRMB,A,0.00,L,,PERF,4622.300,N,00619.430,E,0.000,227.1,,V,A*7A
$GPRMB,A,0.00,L,,PERF*74
$IIVHW,,,018,M,02.5,N,,*6A
$IIVLW,01466,N,000.8,N*5E
$IIVWR,164,R,04.1,N,,,,*67
$IIDPT,014.3,-1.0,*46
$IIHDG,018,,,,*5E
$IIMTW,+14.5,C*38
$IIMWV,157,R,04.4,N,A*10
$IIMWV,171,T,06.5,N,A*11
$IIVHW,,,018,M,02.5,N,,*6A
$IIVLW,01466,N,000.8,N*5E
$IIVWR,157,R,04.4,N,,,,*62
$IIDPT,014.3,-1.0,*46
$IIHDG,018,,,,*5E
$IIMTW,+14.5,C*38
$IIMWV,164,R,03.6,N,A*15
$IIMWV,165,T,06.7,N,A*16
$IIVHW,,,018,M,02.5,N,,*6A
$IIVLW,01466,N,000.8,N*5E
$IIVWR,164,R,03.6,N,,,,*67
$IIDPT,014.3,-1.0,*46
$IIHDG,018,,,,*5E
$IIMTW,+14.5,C*38
$IIMWV,161,R,04.2,N,A*13
$GPRMB,A,0.00,L,,PERF,4622.300,N,00619.430,E,0.000,227.1,,V,A*7A
$GPRMB,A,0.00,L,,PERA*73
$IIVHW,,,018,M,02.5,N,,*6A
$IIVLW,01466,N,000.8,N*5E
$IIVWR,161,R,04.2,N,,,,*61
$IIDPT,014.3,-1.0,*46
$IIHDG,018,,,,*5E
$IIMTW,+16.5,C*3A
$IIMWV,160,R,04.5,N,A*15
$IIMWV,168,T,06.5,N,A*19
$IIVHW,,,018,M,02.4,N,,*6B
$IIVLW,01466,N,000.8,N*5E
$IIVWR,160,R,04.5,N,,,,*67
$IIDPT,014.3,-1.0,*46
$IIHDG,018,,,,*5E
$IIMTW,+15.5,C*39
$IIMWV,163,R,04.6,N,A*15
$IIMWV,168,T,06.8,N,A*14
$IIVHW,,,018,M,02.5,N,,*6A
$IIVLW,01466,N,000.8,N*5E
$IIVWR,163,R,04.6,N,,,,*67
$IIDPT,014.3,-1.0,*46
$IIHDG,018,,,,*5E
$IIMTW,+15.0,C*3C
$IIMWV,146,R,04.6,N,A*12
$GPRMB,A,0.00,L,,PERF,4622.300,N,00619.430,E,0.000,227.1,,V,A*7A
$GPRMB,A,0.00,L,,PERA*73
$IIVHW,,,018,M,02.5,N,,*6A
$IIVLW,01466,N,000.8,N*5E
$IIVWR,146,R,04.6,N,,,,*60
$IIDPT,014.3,-1.0,*46
$IIHDG,018,,,,*5E
$IIMTW,+15.0,C*3C
$IIMWV,166,R,04.6,N,A*10
$IIMWV,159,T,06.7,N,A*19
$IIRMC,075629,A,4629.812,N,00639.683,E,02.8,011,220913,,,A*44
$IIVHW,,,018,M,02.5,N,,*6A
$IIVLW,01466,N,000.8,N*5E
$IIVWR,166,R,04.6,N,,,,*62
$IIDPT,014.3,-1.0,*46
$IIGLL,4629.812,N,00639.683,E,075629,A,A*5C
$IIHDG,018,,,,*5E
$IIMTW,+15.0,C*3C
$IIMWV,152,R,07.1,N,A*13
$IIMWV,171,T,06.9,N,A*1D
$IIRMC,075630,A,4629.813,N,00639.683,E,02.4,026,220913,,,A*45
$IIVHW,,,019,M,02.5,N,,*6B
$IIVLW,01466,N,000.8,N*5E
$IIVWR,152,R,07.1,N,,,,*61
$IIDPT,014.2,-1.0,*47
$IIGLL,4629.813,N,00639.683,E,075630,A,A*55
$IIHDG,019,,,,*5F
$IIMTW,+15.0,C*3C
$GPRMB,A,0.00,L,,PERF,4622.300,N,00619.430,E,78.225,227.1,,V,A*40
$GPRMB,156,R,05.4,N,A*16
$IIMWV,159,T,09.3,N,A*12
$IIRMC,075631,A,4629.814,N,00639.684,E,02.1,031,220913,,,A*47
$IIVHW,,,019,M,02.5,N,,*6B
$IIVLW,01466,N,000.8,N*5E
$IIVWR,156,R,05.4,N,,,,*62
$IIDPT,014.2,-1.0,*47
$IIGLL,4629.814,N,00639.684,E,075632,A,A*57
$IIHDG,020,,,,*55
$IIMTW,+15.0,C*3C
$IIMWV,156,R,04.9,N,A*1C
$IIMWV,163,T,07.7,N,A*11
$IIRMC,075632,A,4629.814,N,00639.684,E,01.8,030,220913,,,A*4F
$IIVHW,,,020,M,02.5,N,,*61
$IIVLW,01466,N,000.8,N*5E
$IIVWR,156,R,04.9,N,,,,*6E
$IIDPT,014.2,-1.0,*47
$IIGLL,4629.815,N,00639.684,E,075633,A,A*57
$IIHDG,021,,,,*54
$IIMTW,+15.0,C*3C
$IIMWV,148,R,05.1,N,A*1A
$IIMWV,164,T,07.2,N,A*13
$IIRMC,075633,A,4629.815,N,00639.684,E,02.4,032,220913,,,A*42
$IIVHW,,,021,M,02.5,N,,*60
$IIVLW,01466,N,000.8,N*5E
$IIVWR,154,R,04.1,N,,,,*64
$GPRMB,A,0.00,L,,PERF,4622.300,N,00619.430,E,76.132,227.1,,V,A*4B
$GPRMB,A,0.00,L,,,*59
$IIGLL,4629.816,N,00639.685,E,075634,A,A*52
$IIHDG,021,,,,*54
$IIMTW,+15.0,C*3C
$IIMWV,154,R,04.1,N,A*16
$IIMWV,159,T,07.4,N,A*1B
$IIRMC,075634,A,4629.816,N,00639.685,E,02.7,014,220913,,,A*40
$IIVHW,,,021,M,02.5,N,,*60
$IIVLW,01466,N,000.8,N*5E
$IIVWR,149,R,04.5,N,,,,*6C
$IIDPT,014.2,-1.0,*47
$IIGLL,4629.816,N,00639.685,E,075634,A,A*52
$IIHDG,023,,,,*56
$IIMTW,+15.0,C*3C
$IIMWV,149,R,04.5,N,A*1E
$IIMWV,164,T,06.4,N,A*14
$IIRMC,075634,A,4629.816,N,00639.685,E,02.7,014,220913,,,A*40
$IIVHW,,,023,M,02.5,N,,*62
$IIVLW,01466,N,000.8,N*5E
$IIVWR,145,R,05.3,N,,,,*67
$IIDPT,014.2,-1.0,*47
$IIGLL,4629.740,N,00639.707,E,075636,A,A*57
$IIHDG,023,,,,*56
$IIMTW,+15.0,C*3C
$IIMWV,145,R,05.3,N,A*15
$IIMWV,160,T,06.8,N,A*1C
$GPRMB,A,0.00,L,,PERF,4622.300,N,00619.430,E,83.757,227.1,,V,A*44
$GPRMB,A,0.00,L,,PERF,4622.300,N,00619.430,E,26,220913,,,A*25
$IIVHW,,,025,M,02.5,N,,*64
$IIVLW,01466,N,000.8,N*5E
$IIVWR,148,R,03.9,N,,,,*66
$IIDPT,014.2,-1.0,*47
$IIGLL,4629.740,N,00639.707,E,075637,A,A*56
$IIHDG,025,,,,*50
$IIMTW,+15.0,C*3C
$IIMWV,148,R,03.9,N,A*14
$IIMWV,161,T,06.2,N,A*17
$IIRMC,075638,A,4629.741,N,00639.708,E,02.4,026,220913,,,A*47
$IIVHW,,,025,M,02.5,N,,*64
$IIVLW,01466,N,000.8,N*5E
$IIVWR,149,R,04.4,N,,,,*6D
$IIDPT,014.2,-1.0,*47
$IIGLL,4629.741,N,00639.708,E,075638,A,A*57
$IIHDG,025,,,,*50
$IIMTW,+15.0,C*3C
$IIMWV,142,R,03.5,N,A*12
$IIMWV,161,T,06.6,N,A*13
$IIRMC,075639,A,4629.743,N,00639.708,E,02.5,023,220913,,,A*40
$IIVHW,,,027,M,02.5,N,,*66
$IIVLW,01466,N,000.8,N*5E
$IIVWR,142,R,03.5,N,,,,*60
$IIDPT,014.2,-1.0,*47
$IIGLL,4629.743,N,00639.708,E,075639,A,A*54
$IIHDG,027,,,,*52
$IIMTW,+15.0,C*3C
$IIMWV,141,R,03.9,N,A*1D
$GPRMB,A,0.00,L,,PERF,4622.300,N,00619.430,E,78.056,227.1,,V,A*46
$IIMWV,159,T,05.7,N,A*1A
$IIRMC,075640,A,4629.743,N,00639.708,E,02.4,025,220913,,,A*49
$IIVHW,,,027,M,02.5,N,,*66
$IIVLW,01466,N,000.8,N*5E
$IIVWR,141,R,03.9,N,,,,*6F
$IIDPT,014.2,-1.0,*47
$IIGLL,4629.743,N,00639.708,E,075640,A,A*5A
$IIHDG,027,,,,*52
$IIMTW,+15.0,C*3C
$IIMWV,142,R,03.4,N,A*13
$IIMWV,157,T,06.0,N,A*10
$IIRMC,075641,A,4629.744,N,00639.708,E,02.4,027,220913,,,A*4D
$IIVHW,,,027,M,02.5,N,,*66
$IIVLW,01466,N,000.8,N*5E
$IIVWR,142,R,03.4,N,,,,*61
$IIDPT,014.2,-1.0,*47
$IIGLL,4629.744,N,00639.709,E,075642,A,A*5E
$IIHDG,027,,,,*52
$IIMTW,+15.0,C*3C
$IIMWV,148,R,04.2,N,A*18
$IIMWV,158,T,05.6,N,A*1A
$IIRMC,075642,A,4629.744,N,00639.709,E,02.4,027,220913,,,A*4F
$IIVHW,,,027,M,02.5,N,,*66
$IIVLW,01466,N,000.8,N*5E
$IIVWR,148,R,04.2,N,,,,*6A
$IIDPT,014.2,-1.0,*47
$GPRMB,A,0.00,L,,PERF,4622.300,N,00619.430,E,73.433,227.1,,V,A*4A
$GPRMB,A,0.00,L,,PER639.709,E,075643,A,A*58
$IIHDG,027,,,,*52
$IIMTW,+16.0,C*3F
$IIMWV,142,R,04.7,N,A*17
$IIMWV,160,T,06.4,N,A*10
$IIRMC,075643,A,4629.745,N,00639.709,E,02.4,024,220913,,,A*4C
$IIVHW,,,027,M,02.5,N,,*66
$IIVLW,01466,N,000.8,N*5E
$IIVWR,144,R,05.0,N,,,,*65
$IIDPT,014.2,-1.0,*47
$IIGLL,4629.746,N,00639.709,E,075644,A,A*5A
$IIHDG,027,,,,*52
$IIMTW,+15.0,C*3C
$IIMWV,144,R,05.0,N,A*17
$IIMWV,155,T,06.9,N,A*1B
$IIRMC,075644,A,4629.746,N,00639.709,E,02.4,025,220913,,,A*49
$IIVHW,,,027,M,02.5,N,,*66
$IIVLW,01467,N,000.8,N*5F
$IIVWR,143,R,03.7,N,,,,*63
$IIDPT,014.2,-1.0,*47
$IIGLL,4629.746,N,00639.710,E,075645,A,A*53
$IIHDG,027,,,,*52
$IIMTW,+15.0,C*3C
$IIMWV,143,R,03.7,N,A*11
$IIMWV,156,T,07.1,N,A*11
$IIRMC,075645,A,4629.746,N,00639.710,E,02.5,024,220913,,,A*40
$IIVHW,,,027,M,02.5,N,,*66
$GPRMB,A,0.00,L,,PERF,4622.300,N,00619.430,E,75.417,227.1,,V,A*4A
$GPRMB,A,0.00,L,00.8,N*2D
$IIVWR,148,R,04.3,N,,,,*6B
$IIDPT,014.2,-1.0,*47
$IIGLL,4629.747,N,00639.710,E,075646,A,A*51
$IIHDG,027,,,,*52
$IIMTW,+15.0,C*3C
$IIMWV,148,R,04.3,N,A*19
$IIMWV,158,T,05.9,N,A*15
$IIRMC,075647,A,4629.748,N,00639.711,E,02.5,024,220913,,,A*4D
$IIVHW,,,027,M,02.5,N,,*66
$IIVLW,01467,N,000.8,N*5F
$IIVWR,145,R,03.7,N,,,,*65
$IIDPT,014.2,-1.0,*47
$IIGLL,4629.748,N,00639.711,E,075647,A,A*5E
$IIHDG,027,,,,*52
$IIMTW,+15.0,C*3C
$IIMWV,145,R,03.7,N,A*17
$IIMWV,159,T,05.9,N,A*14
$IIRMC,075648,A,4629.748,N,00639.711,E,02.4,024,220913,,,A*43
$IIVHW,,,027,M,02.5,N,,*66
$IIVLW,01467,N,000.8,N*5F
$IIVWR,150,R,03.3,N,,,,*65
$IIDPT,014.2,-1.0,*47
$IIGLL,4629.748,N,00639.711,E,075648,A,A*51
$IIHDG,027,,,,*52
$IIMTW,+15.0,C*3C
$IIMWV,144,R,04.2,N,A*14
$GPRMB,A,0.00,L,,PERF,4622.300,N,00619.430,E,73.940,227.1,,V,A*43
$GPRMB,A,0.00,L,,PN,A*06
$IIRMC,075649,A,4629.749,N,00639.711,E,02.5,024,220913,,,A*42
$IIVHW,,,027,M,02.5,N,,*66
$IIVLW,01467,N,000.8,N*5F
$IIVWR,144,R,04.2,N,,,,*66
$IIDPT,014.2,-1.0,*47
$IIGLL,4629.749,N,00639.711,E,075649,A,A*51
$IIHDG,027,,,,*52
$IIMTW,+15.0,C*3C
$IIMWV,146,R,03.7,N,A*14
$IIMWV,158,T,06.4,N,A*1B
$IIRMC,075650,A,4629.750,N,00639.712,E,02.5,025,220913,,,A*40
$IIVHW,,,027,M,02.5,N,,*66
$IIVLW,01467,N,000.8,N*5F
$IIVWR,146,R,03.7,N,,,,*66
$IIDPT,014.2,-1.0,*47
$IIGLL,4629.750,N,00639.712,E,075650,A,A*52
$IIHDG,027,,,,*52
$IIMTW,+15.0,C*3C
$IIMWV,144,R,03.2,N,A*13
$IIMWV,160,T,05.9,N,A*1E
$IIRMC,075651,A,4629.750,N,00639.712,E,02.5,027,220913,,,A*43
$IIVHW,,,027,M,02.5,N,,*66
$IIVLW,01467,N,000.8,N*5F
$IIVWR,144,R,03.2,N,,,,*61
$IIDPT,014.2,-1.0,*47
$IIGLL,4629.751,N,00639.713,E,075652,A,A*50
$GPRMB,A,0.00,L,,PERF,4622.300,N,00619.430,E,77.575,227.1,,V,A*4D
$IIHDG,029,,,,*5C
$IIMTW,+15.0,C*3C
$IIMWV,140,R,04.1,N,A*13
$IIMWV,160,T,05.4,N,A*13
$IIRMC,075652,A,4629.751,N,00639.713,E,02.4,030,220913,,,A*47
$IIVHW,,,029,M,02.5,N,,*68
$IIVLW,01467,N,000.8,N*5F
$IIVWR,140,R,04.1,N,,,,*61
$IIDPT,014.2,-1.0,*47
$IIGLL,4629.751,N,00639.713,E,075653,A,A*51
$IIHDG,030,,,,*54
$IIMTW,+15.0,C*3C
$IIMWV,136,R,03.6,N,A*12
$IIMWV,155,T,06.2,N,A*10
$IIRMC,075653,A,4629.751,N,00639.713,E,02.4,032,220913,,,A*44
$IIVHW,,,030,M,02.5,N,,*60
$IIVLW,01467,N,000.8,N*5F
$IIVWR,138,R,03.2,N,,,,*6A
$IIDPT,014.2,-1.0,*47
$IIGLL,4629.752,N,00639.713,E,075654,A,A*55
$IIHDG,032,,,,*56
$IIMTW,+15.0,C*3C
$IIMWV,138,R,03.2,N,A*18
$IIMWV,155,T,05.6,N,A*17
$IIRMC,075654,A,4629.752,N,00639.713,E,02.4,035,220913,,,A*47
$IIVHW,,,032,M,02.5,N,,*62
$IIVLW,01467,N,000.8,N*5F
$GPRMB,A,0.00,L,,PERF,4622.300,N,00619.430,E,71.780,227.1,,V,A*43
$GPRMB,A,0.00,L,9,N,,,,*02
$IIDPT,014.2,-1.0,*47
$IIGLL,4629.752,N,00639.714,E,075655,A,A*53
$IIHDG,035,,,,*51
$IIMTW,+15.0,C*3C
$IIMWV,129,R,03.9,N,A*13
$IIMWV,157,T,05.3,N,A*10
$IIRMC,075655,A,4629.752,N,00639.714,E,02.5,037,220913,,,A*42
$IIVHW,,,037,M,02.5,N,,*67
$IIVLW,01467,N,000.8,N*5F
$IIVWR,125,R,04.4,N,,,,*67
$IIDPT,014.2,-1.0,*47
$IIGLL,4629.753,N,00639.715,E,075656,A,A*50
$IIHDG,037,,,,*53
$IIMTW,+15.0,C*3C
$IIMWV,125,R,04.4,N,A*15
$IIMWV,148,T,05.7,N,A*1A
$IIRMC,075656,A,4629.753,N,00639.715,E,02.3,044,220913,,,A*43
$IIVHW,,,040,M,02.5,N,,*67
$IIVLW,01467,N,000.8,N*5F
$IIVWR,120,R,04.5,N,,,,*63
$IIDPT,014.2,-1.0,*47
$IIGLL,4629.753,N,00639.715,E,075656,A,A*50
$IIHDG,040,,,,*53
$IIMTW,+15.0,C*3C
$IIMWV,120,R,04.5,N,A*11
$IIMWV,140,T,06.1,N,A*17
$GPRMB,A,0.00,L,,PERF,4622.300,N,00619.430,E,58.102,227.1,,V,A*44
$GPRMB,A,0.00,L,,629.754,N,00639.716,E,02.7,057,220913,,,A*36
$IIVHW,,,044,M,02.5,N,,*63
$IIVLW,01467,N,000.8,N*5F
$IIVWR,118,R,04.6,N,,,,*6B
$IIDPT,014.2,-1.0,*47
$IIGLL,4629.754,N,00639.716,E,075658,A,A*5A
$IIHDG,044,,,,*57
$IIMTW,+15.0,C*3C
$IIMWV,111,R,04.9,N,A*1F
$IIMWV,139,T,06.0,N,A*18
$IIRMC,075659,A,4629.754,N,00639.716,E,02.4,050,220913,,,A*4A
$IIVHW,,,047,M,02.5,N,,*60
$IIVLW,01467,N,000.8,N*5F
$IIVWR,111,R,04.9,N,,,,*6D
$IIDPT,014.2,-1.0,*47
$IIGLL,4629.754,N,00639.716,E,075659,A,A*5B
$IIHDG,047,,,,*54
$IIMTW,+15.0,C*3C
$IIMWV,103,R,05.4,N,A*10
$IIMWV,133,T,06.1,N,A*13
$IIRMC,075700,A,4629.755,N,00639.717,E,03.0,069,220913,,,A*48
$IIVHW,,,051,M,02.4,N,,*66
$IIVLW,01467,N,000.8,N*5F
$IIVWR,103,R,05.4,N,,,,*62
$IIDPT,014.2,-1.0,*47
$IIGLL,4629.755,N,00639.717,E,075700,A,A*56
$IIHDG,055,,,,*57
$IIMTW,+15.0,C*3C
$GPRMB,A,0.00,L,,PERF,4622.300,N,00619.430,E,67.562,227.1,,V,A*4A
$GPRMV,102,R,06.5,N,A*01
$IIMWV,125,T,06.3,N,A*16
$IIRMC,075701,A,4629.755,N,00639.719,E,02.8,070,220913,,,A*46
$IIVHW,,,055,M,02.5,N,,*63
$IIVLW,01467,N,000.8,N*5F
$IIVWR,102,R,06.5,N,,,,*61
$IIDPT,014.2,-1.0,*47
$IIGLL,4629.755,N,00639.720,E,075702,A,A*50
$IIHDG,059,,,,*5B
$IIMTW,+15.0,C*3C
$IIMWV,094,R,05.6,N,A*1D
$IIMWV,121,T,07.3,N,A*13
$IIRMC,075702,A,4629.755,N,00639.720,E,02.2,067,220913,,,A*43
$IIVHW,,,059,M,02.5,N,,*6F
$IIVLW,01467,N,000.8,N*5F
$IIVWR,094,R,05.6,N,,,,*6F
$IIDPT,014.2,-1.0,*47
$IIGLL,4629.756,N,00639.721,E,075703,A,A*53
$IIHDG,063,,,,*52
$IIMTW,+15.0,C*3C
$IIMWV,091,R,05.3,N,A*1D
$IIMWV,117,T,06.2,N,A*16
$IIRMC,075703,A,4629.756,N,00639.721,E,02.5,079,220913,,,A*48
$IIVHW,,,063,M,02.5,N,,*66
$IIVLW,01467,N,000.8,N*5F
$IIVWR,085,R,06.1,N,,,,*6B
$GPRMB,A,0.00,L,,PERF,4622.300,N,00619.430,E,37.479,227.1,,V,A*44
$GPRMB,A,0.00,1.0,*3A
$IIGLL,4629.756,N,00639.722,E,075704,A,A*57
$IIHDG,069,,,,*58
$IIMTW,+15.0,C*3C
$IIMWV,085,R,06.1,N,A*19
$IIMWV,116,T,05.9,N,A*1F
$IIRMC,075704,A,4629.756,N,00639.722,E,02.4,088,220913,,,A*43
$IIVHW,,,069,M,02.5,N,,*6C
$IIVLW,01467,N,000.8,N*5F
$IIVWR,079,R,05.8,N,,,,*62
$IIDPT,014.2,-1.0,*47
$IIGLL,4629.756,N,00639.723,E,075705,A,A*57
$IIHDG,074,,,,*54
$IIMTW,+15.0,C*3C
$IIMWV,079,R,05.8,N,A*10
$IIMWV,108,T,06.4,N,A*1E
$IIRMC,075705,A,4629.756,N,00639.723,E,02.5,094,220913,,,A*4F
$IIVHW,,,079,M,02.4,N,,*6C
$IIVLW,01467,N,000.8,N*5F
$IIVWR,073,R,06.1,N,,,,*62
$IIDPT,014.2,-1.0,*47
$IIGLL,4629.756,N,00639.724,E,075706,A,A*53
$IIHDG,079,,,,*59
$IIMTW,+15.0,C*3C
$IIMWV,073,R,06.1,N,A*10
$IIMWV,104,T,05.7,N,A*12
$GPRMB,A,0.00,L,,PERF,4622.300,N,00619.430,E,19.972,227.1,,V,A*4E
$GPRMB,A,0.00,L,,PERF,4622.300,N,00619.4300,103,220913,,,A*4A
$IIVHW,,,085,M,02.4,N,,*6F
$IIVLW,01467,N,000.8,N*5F
$IIVWR,071,R,06.2,N,,,,*63
$IIDPT,014.2,-1.0,*47
$IIGLL,4629.755,N,00639.724,E,075707,A,A*51
$IIHDG,085,,,,*5A
$IIMTW,+15.0,C*3C
$IIMWV,071,R,06.2,N,A*11
$IIMWV,094,T,05.8,N,A*15
$IIRMC,075708,A,4629.755,N,00639.725,E,02.3,102,220913,,,A*4F
$IIVHW,,,090,M,02.4,N,,*6B
$IIVLW,01467,N,000.8,N*5F
$IIVWR,069,R,06.3,N,,,,*6B
$IIDPT,014.2,-1.0,*47
$IIGLL,4629.755,N,00639.725,E,075708,A,A*5F
$IIHDG,090,,,,*5E
$IIMTW,+15.0,C*3C
$IIMWV,065,R,06.3,N,A*15
$IIMWV,092,T,05.8,N,A*13
$IIRMC,075709,A,4629.755,N,00639.726,E,02.8,106,220913,,,A*42
$IIVHW,,,094,M,02.4,N,,*6F
$IIVLW,01467,N,000.8,N*5F
$IIVWR,065,R,06.3,N,,,,*67
$IIDPT,014.2,-1.0,*47
$IIGLL,4629.755,N,00639.726,E,075709,A,A*5D
$IIHDG,094,,,,*5A
$IIMTW,+15.0,C*3C
$GPRMB,A,0.00,L,,PERF,4622.300,N,00619.430,E,3.223,227.1,,V,A*7A
$GPRMB,A,0.00,L,,PERF,4622.300,N,00619.430,E,3.223,227.1,,V,A*7A
$IIMWV,088,T,05.7,N,A*17
$IIRMC,075710,A,4629.755,N,00639.727,E,03.1,102,220913,,,A*47
$IIVHW,,,099,M,02.4,N,,*62
$IIVLW,01467,N,000.8,N*5F
$IIVWR,063,R,06.3,N,,,,*61
$IIDPT,014.2,-1.0,*47
$IIGLL,4629.755,N,00639.727,E,075710,A,A*54
$IIHDG,103,,,,*55
$IIMTW,+15.0,C*3C
$IIMWV,061,R,06.4,N,A*16
$IIMWV,086,T,05.6,N,A*18
$IIRMC,075711,A,4629.755,N,00639.728,E,02.3,114,220913,,,A*4D
$IIVHW,,,103,M,02.4,N,,*60
$IIVLW,01467,N,000.8,N*5F
$IIVWR,061,R,06.4,N,,,,*64
$IIDPT,014.2,-1.0,*47
$GPRMB,A,0.00,L,,PERF,4622.300,N,00619.430,E,7.143,227.1,,V,A*7B
$GPRMB,A,0.00,L,,PERF,4622.300,N,00619.430,E,7.143,227.1,,V,A*7B
$IIHDG,114,,,,*53
$IIMTW,+15.0,C*3C
$IIMWV,057,R,06.7,N,A*10
$IIMWV,080,T,05.6,N,A*1E
$IIRMC,075713,A,4629.754,N,00639.730,E,02.2,118,220913,,,A*4A
$IIVHW,,,114,M,02.3,N,,*61
$IIVLW,01467,N,000.8,N*5F
$IIVWR,057,R,06.7,N,,,,*62
$IIDPT,014.3,-1.0,*46
$IIGLL,4629.754,N,00639.731,E,075714,A,A*56
$IIHDG,117,,,,*50
$IIMTW,+15.0,C*3C
$IIMWV,053,R,06.7,N,A*14
$IIMWV,078,T,05.7,N,A*18
$IIRMC,075714,A,4629.754,N,00639.731,E,02.2,126,220913,,,A*41
$IIVHW,,,117,M,02.3,N,,*62
$IIVLW,01467,N,000.8,N*5F
$IIVWR,055,R,06.6,N,,,,*61
$IIDPT,014.3,-1.0,*46
$IIGLL,4629.753,N,00639.732,E,075715,A,A*53
$IIHDG,120,,,,*54
$IIMTW,+15.0,C*3C
$IIMWV,055,R,06.6,N,A*13
$IIMWV,073,T,05.5,N,A*11
$IIRMC,075715,A,4629.753,N,00639.732,E,02.9,121,220913,,,A*48
$IIVHW,,,120,M,02.3,N,,*66
$IIVLW,01467,N,000.8,N*5F
$GPRMB,A,0.00,L,,PERF,4622.300,N,00619.430,E,37.779,227.1,,V,A*47
$GPRMB,A,0.00,L.4,N,,,,*0D
$IIDPT,014.3,-1.0,*46
$IIGLL,4629.753,N,00639.732,E,075716,A,A*50
$IIHDG,124,,,,*50
$IIMTW,+15.0,C*3C
$IIMWV,055,R,06.4,N,A*11
$IIMWV,075,T,05.5,N,A*17
$IIRMC,075716,A,4629.753,N,00639.732,E,02.5,108,220913,,,A*4C
$IIVHW,,,125,M,02.3,N,,*63
$IIVLW,01467,N,000.8,N*5F
$IIVWR,051,R,07.2,N,,,,*60
$IIDPT,014.3,-1.0,*46
$IIGLL,4629.753,N,00639.732,E,075717,A,A*51
$IIHDG,125,,,,*51
$IIMTW,+15.0,C*3C
$IIMWV,051,R,07.2,N,A*12
$IIMWV,076,T,05.3,N,A*12
$IIRMC,075718,A,4629.753,N,00639.733,E,02.1,120,220913,,,A*4D
$IIVHW,,,127,M,02.2,N,,*60
$IIVLW,01467,N,000.8,N*5F
$IIVWR,056,R,06.2,N,,,,*66
$IIDPT,014.3,-1.0,*46
$IIGLL,4629.753,N,00639.733,E,075718,A,A*5F
$IIHDG,127,,,,*53
$IIMTW,+15.0,C*3C
$IIMWV,056,R,06.2,N,A*14
$IIMWV,078,T,05.2,N,A*1D
$GPRMB,A,0.00,L,,PERF,4622.300,N,00619.430,E,19.443,227.1,,V,A*41
$GPRMB,A,0.00,L,4629.752,N,00639.733,E,01.9,124,220913,,,A*27
$IIVHW,,,128,M,02.2,N,,*6F
$IIVLW,01467,N,000.8,N*5F
$IIVWR,050,R,06.2,N,,,,*60
$IIDPT,014.3,-1.0,*46
$IIGLL,4629.752,N,00639.733,E,075719,A,A*5F
$IIHDG,128,,,,*5C
$IIMTW,+15.0,C*3C
$IIMWV,051,R,06.4,N,A*15
$IIMWV,071,T,04.9,N,A*1E
$IIRMC,075720,A,4629.752,N,00639.734,E,01.9,125,220913,,,A*4E
$IIVHW,,,130,M,02.3,N,,*67
$IIVLW,01467,N,000.8,N*5F
$IIVWR,051,R,06.4,N,,,,*67
$IIDPT,014.3,-1.0,*46
$IIGLL,4629.752,N,00639.734,E,075720,A,A*52
$IIHDG,130,,,,*55
$IIMTW,+15.0,C*3C
$IIMWV,050,R,05.7,N,A*14
$IIMWV,071,T,05.1,N,A*17
$IIRMC,075721,A,4629.752,N,00639.734,E,02.1,127,220913,,,A*46
$IIVHW,,,130,M,02.2,N,,*66
$IIVLW,01467,N,000.8,N*5F
$IIVWR,050,R,05.7,N,,,,*66
$IIDPT,014.3,-1.0,*46
$IIGLL,4629.752,N,00639.734,E,075721,A,A*53
$IIHDG,132,,,,*57
$IIMTW,+15.0,C*3C
$GPRMB,A,0.00,L,,PERF,4622.300,N,00619.430,E,30.446,227.1,,V,A*4F
$GPMWV,048,R,06.1,N,A*0F
$IIMWV,073,T,04.4,N,A*11
$IIRMC,075722,A,4629.752,N,00639.735,E,02.0,132,220913,,,A*41
$IIVHW,,,132,M,02.2,N,,*64
$IIVLW,01467,N,000.8,N*5F
$IIVWR,048,R,06.1,N,,,,*6A
$IIDPT,014.3,-1.0,*46
$IIGLL,4629.751,N,00639.735,E,075723,A,A*53
$IIHDG,132,,,,*57
$IIMTW,+15.0,C*3C
$IIMWV,047,R,06.5,N,A*13
$IIMWV,069,T,04.8,N,A*16
$IIRMC,075723,A,4629.751,N,00639.735,E,02.0,129,220913,,,A*49
$IIVHW,,,132,M,02.3,N,,*65
$IIVLW,01467,N,000.8,N*5F
$IIVWR,047,R,06.5,N,,,,*61
$IIDPT,014.3,-1.0,*46
$IIGLL,4629.751,N,00639.735,E,075724,A,A*54
$IIHDG,133,,,,*56
$IIMTW,+15.0,C*3C
$IIMWV,042,R,06.7,N,A*14
$IIMWV,066,T,05.1,N,A*11
$IIRMC,075724,A,4629.751,N,00639.735,E,02.0,133,220913,,,A*45
$IIVHW,,,133,M,02.3,N,,*64
$IIVLW,01467,N,000.8,N*5F
$IIVWR,045,R,06.7,N,,,,*61
$GPRMB,A,0.00,L,,PERF,4622.300,N,00619.430,E,36.265,227.1,,V,A*4E
$GPRMB,A,0.00-1.0,*3B
$IIGLL,4629.750,N,00639.736,E,075725,A,A*57
$IIHDG,134,,,,*51
$IIMTW,+15.0,C*3C
$IIMWV,045,R,06.7,N,A*13
$IIMWV,059,T,05.1,N,A*1D
$IIRMC,075725,A,4629.750,N,00639.736,E,02.1,133,220913,,,A*47
$IIVHW,,,134,M,02.3,N,,*63
$IIVLW,01467,N,000.8,N*5F
$IIVWR,043,R,05.8,N,,,,*6B
$IIDPT,014.3,-1.0,*46
$IIGLL,4629.750,N,00639.736,E,075725,A,A*57
$IIHDG,135,,,,*50
$IIMTW,+15.0,C*3C
$IIMWV,043,R,05.8,N,A*19
$IIMWV,063,T,05.2,N,A*17
$IIRMC,075725,A,4629.750,N,00639.736,E,02.1,133,220913,,,A*47
$IIVHW,,,136,M,02.3,N,,*61
$IIVLW,01467,N,000.8,N*5F
$IIVWR,045,R,06.1,N,,,,*67
$IIDPT,014.3,-1.0,*46
$IIGLL,4629.749,N,00639.737,E,075727,A,A*5C
$IIHDG,136,,,,*53
$IIMTW,+15.0,C*3C
$IIMWV,045,R,06.1,N,A*15
$IIMWV,064,T,04.3,N,A*10
$GPRMB,A,0.00,L,,PERF,4622.300,N,00619.430,E,40.995,227.1,,V,A*4B
$GPRMB,A,0.00,L,,PERF,4622.300,N,00619.42.1,135,220913,,,A*51
$IIVHW,,,136,M,02.3,N,,*61
$IIVLW,01467,N,000.8,N*5F
$IIVWR,045,R,06.4,N,,,,*62
$IIDPT,014.3,-1.0,*46
$IIGLL,4629.749,N,00639.737,E,075728,A,A*53
$IIHDG,136,,,,*53
$IIMTW,+15.0,C*3C
$IIMWV,045,R,06.4,N,A*10
$IIMWV,064,T,05.0,N,A*12
$IIRMC,075729,A,4629.749,N,00639.738,E,02.1,136,220913,,,A*48
$IIVHW,,,137,M,02.3,N,,*60
$IIVLW,01467,N,000.8,N*5F
$IIVWR,044,R,06.6,N,,,,*61
$IIDPT,014.3,-1.0,*46
$IIGLL,4629.749,N,00639.738,E,075729,A,A*5D
$IIHDG,137,,,,*52
$IIMTW,+15.0,C*3C
$IIMWV,041,R,06.5,N,A*15
$IIMWV,062,T,05.1,N,A*15
$IIRMC,075730,A,4629.748,N,00639.738,E,02.1,137,220913,,,A*40
$IIVHW,,,138,M,02.3,N,,*6F
$IIVLW,01467,N,000.8,N*5F
$IIVWR,041,R,06.5,N,,,,*67
$IIDPT,014.3,-1.0,*46
$IIGLL,4629.748,N,00639.738,E,075730,A,A*54
$IIHDG,138,,,,*5D
$IIMTW,+15.0,C*3C
$GPRMB,A,0.00,L,,PERF,4622.300,N,00619.430,E,43.903,227.1,,V,A*47
$GPRMB,A,0.00,L,,PERF,4622.300,N,00619.430,E,43.903,227.1,,V,A*47
$IIMWV,059,T,04.8,N,A*15
$IIRMC,075731,A,4629.748,N,00639.739,E,02.0,137,220913,,,A*41
$IIVHW,,,138,M,02.3,N,,*6F
$IIVLW,01467,N,000.8,N*5F
$IIVWR,044,R,07.3,N,,,,*65
$IIDPT,014.3,-1.0,*46
$IIGLL,4629.748,N,00639.739,E,075731,A,A*54
$IIHDG,139,,,,*5C
$IIMTW,+15.0,C*3C
$IIMWV,045,R,06.9,N,A*1D
$IIMWV,060,T,05.7,N,A*11
$IIRMC,075732,A,4629.747,N,00639.739,E,02.1,138,220913,,,A*43
$IIVHW,,,139,M,02.3,N,,*6E
$IIVLW,01467,N,000.8,N*5F
$IIVWR,045,R,06.9,N,,,,*6F
$IIDPT,014.3,-1.0,*46
$IIGLL,4629.747,N,00639.740,E,075733,A,A*57
$IIHDG,139,,,,*5C
$IIMTW,+15.0,C*3C
$IIMWV,040,R,06.8,N,A*19
$IIMWV,063,T,05.3,N,A*16
$IIRMC,075733,A,4629.747,N,00639.740,E,02.1,135,220913,,,A*41
$IIVHW,,,139,M,02.3,N,,*6E
$IIVLW,01467,N,000.8,N*5F
$IIVWR,040,R,06.8,N,,,,*6B
$IIDPT,014.3,-1.0,*46
$GPRMB,A,0.00,L,,PERF,4622.300,N,00619.430,E,42.455,227.1,,V,A*48
$GPRMB,A,0.00,L,,,00639.740,E,075734,A,A*3F
$IIHDG,139,,,,*5C
$IIMTW,+15.0,C*3C
$IIMWV,033,R,06.8,N,A*1D
$IIMWV,057,T,05.1,N,A*13
$IIRMC,075734,A,4629.747,N,00639.740,E,02.1,138,220913,,,A*4B
$IIVHW,,,139,M,02.4,N,,*69
$IIVLW,01467,N,000.8,N*5F
$IIVWR,033,R,06.7,N,,,,*60
$IIDPT,014.3,-1.0,*46
$IIGLL,4629.746,N,00639.741,E,075735,A,A*51
$IIHDG,140,,,,*52
$IIMTW,+15.0,C*3C
$IIMWV,033,R,06.7,N,A*12
$IIMWV,048,T,04.8,N,A*15
$IIRMC,075735,A,4629.746,N,00639.741,E,02.1,138,220913,,,A*4A
$IIVHW,,,140,M,02.4,N,,*67
$IIVLW,01467,N,000.8,N*5F
$IIVWR,034,R,06.0,N,,,,*60
$IIDPT,014.3,-1.0,*46
$IIGLL,4629.746,N,00639.741,E,075736,A,A*52
$IIHDG,140,,,,*52
$IIMTW,+14.5,C*38
$IIMWV,034,R,06.0,N,A*12
$IIMWV,048,T,04.8,N,A*15
$IIRMC,075736,A,4629.746,N,00639.741,E,02.1,140,220913,,,A*46
$IIVHW,,,141,M,02.4,N,,*66
$GPRMB,A,0.00,L,,PERF,4622.300,N,00619.430,E,62.574,227.1,,V,A*48
$GPRMB,A,0.0,N,000.8,N*2F
$IIVWR,028,R,05.6,N,,,,*68
$IIDPT,014.3,-1.0,*46
$IIGLL,4629.745,N,00639.742,E,075737,A,A*53
$IIHDG,141,,,,*53
$IIMTW,+14.5,C*38
$IIMWV,028,R,05.6,N,A*1A
$IIMWV,053,T,04.1,N,A*16
$IIRMC,075738,A,4629.745,N,00639.742,E,02.2,144,220913,,,A*4F
$IIVHW,,,142,M,02.4,N,,*65
$IIVLW,01467,N,000.8,N*5F
$IIVWR,027,R,06.0,N,,,,*62
$IIDPT,014.3,-1.0,*46
$IIGLL,4629.745,N,00639.742,E,075738,A,A*5C
$IIHDG,142,,,,*50
$IIMTW,+14.5,C*38
$IIMWV,027,R,06.0,N,A*10
$IIMWV,043,T,03.9,N,A*18
$IIRMC,075739,A,4629.744,N,00639.743,E,02.1,143,220913,,,A*4A
$IIVHW,,,143,M,02.3,N,,*63
$IIVLW,01467,N,000.8,N*5F
$IIVWR,030,R,06.5,N,,,,*61
$IIDPT,014.3,-1.0,*46
$IIGLL,4629.744,N,00639.743,E,075739,A,A*5D
$IIHDG,143,,,,*51
$IIMTW,+14.5,C*38
$IIMWV,030,R,06.7,N,A*11
$GPRMB,A,0.00,L,,PERF,4622.300,N,00619.430,E,68.393,227.1,,V,A*4D
$GPRMB,A,0.00,4.5,N,A*19
$IIRMC,075740,A,4629.744,N,00639.743,E,02.1,144,220913,,,A*43
$IIVHW,,,144,M,02.4,N,,*63
$IIVLW,01467,N,000.8,N*5F
$IIVWR,030,R,06.7,N,,,,*63
$IIDPT,014.3,-1.0,*46
$IIGLL,4629.744,N,00639.743,E,075740,A,A*53
$IIHDG,144,,,,*56
$IIMTW,+14.5,C*38
$IIMWV,032,R,05.8,N,A*1F
$IIMWV,044,T,04.7,N,A*16
$IIRMC,075741,A,4629.743,N,00639.744,E,02.1,150,220913,,,A*47
$IIVHW,,,144,M,02.3,N,,*64
$IIVLW,01467,N,000.8,N*5F
$IIVWR,032,R,05.8,N,,,,*6D
$IIDPT,014.3,-1.0,*46
$IIGLL,4629.743,N,00639.744,E,075741,A,A*52
$IIHDG,145,,,,*57
$IIMTW,+14.5,C*38
$IIMWV,031,R,06.1,N,A*16
$IIMWV,050,T,03.9,N,A*1A
$IIRMC,075742,A,4629.743,N,00639.744,E,02.1,147,220913,,,A*42
$IIVHW,,,145,M,02.3,N,,*65
$IIVLW,01467,N,000.8,N*5F
$IIVWR,031,R,06.1,N,,,,*64
$IIDPT,014.3,-1.0,*46
$GPRMB,A,0.00,L,,PERF,4622.300,N,00619.430,E,60.111,227.1,,V,A*4D
$GPRMB,A,0.00,L,,PERF,4622.300,N,00619.A*58
$IIHDG,146,,,,*54
$IIMTW,+14.5,C*38
$IIMWV,032,R,06.2,N,A*16
$IIMWV,048,T,04.1,N,A*1C
$IIRMC,075743,A,4629.742,N,00639.745,E,02.0,145,220913,,,A*40
$IIVHW,,,146,M,02.4,N,,*61
$IIVLW,01467,N,000.8,N*5F
$IIVWR,032,R,06.2,N,,,,*64
$IIDPT,014.3,-1.0,*46
$IIGLL,4629.742,N,00639.746,E,075744,A,A*54
$IIHDG,146,,,,*54
$IIMTW,+14.5,C*38
$IIMWV,034,R,06.5,N,A*17
$IIMWV,049,T,04.2,N,A*1E
$IIRMC,075744,A,4629.742,N,00639.746,E,02.1,145,220913,,,A*45
$IIVHW,,,146,M,02.3,N,,*66
$IIVLW,01467,N,000.8,N*5F
$IIVWR,036,R,05.8,N,,,,*69
$IIDPT,014.3,-1.0,*46
$IIGLL,4629.741,N,00639.746,E,075745,A,A*56
$IIHDG,146,,,,*54
$IIMTW,+14.5,C*38
$IIMWV,036,R,05.8,N,A*1B
$IIMWV,051,T,04.6,N,A*13
$IIRMC,075745,A,4629.741,N,00639.746,E,02.1,146,220913,,,A*44
$IIVHW,,,146,M,02.3,N,,*66
$IIVLW,01467,N,000.8,N*5F
$GPRMB,A,0.00,L,,PERF,4622.300,N,00619.430,E,58.851,227.1,,V,A*4B
$GPRMB,A,0.0,06.1,N,,,,*72
$IIDPT,014.3,-1.0,*46
$IIGLL,4629.740,N,00639.747,E,075746,A,A*55
$IIHDG,146,,,,*54
$IIMTW,+14.5,C*38
$IIMWV,039,R,06.1,N,A*1E
$IIMWV,057,T,04.0,N,A*13
$IIRMC,075746,A,4629.740,N,00639.747,E,02.1,147,220913,,,A*46
$IIVHW,,,147,M,02.3,N,,*67
$IIVLW,01467,N,000.8,N*5F
$IIVWR,037,R,05.6,N,,,,*66
$IIDPT,014.3,-1.0,*46
$IIGLL,4629.740,N,00639.747,E,075747,A,A*54
$IIHDG,147,,,,*55
$IIMTW,+14.5,C*38
$IIMWV,037,R,05.6,N,A*14
$IIMWV,059,T,04.4,N,A*19
$IIRMC,075746,A,4629.739,N,00639.748,E,02.1,148,220913,,,A*48
$IIVHW,,,147,M,02.3,N,,*67
$IIVLW,01467,N,000.8,N*5F
$IIVWR,035,R,06.2,N,,,,*63
$IIDPT,014.3,-1.0,*46
$IIGLL,4629.739,N,00639.748,E,075746,A,A*54
$IIHDG,147,,,,*55
$IIMTW,+14.5,C*38
$IIMWV,035,R,06.2,N,A*11
$IIMWV,053,T,04.3,N,A*14
$GPRMB,A,0.00,L,,PERF,4622.300,N,00619.430,E,56.279,227.1,,V,A*45
$GPRMB,A,0.00,A,4629.739,N,00639.748,E,02.1,148,220913,,,A*2A
$IIVHW,,,147,M,02.3,N,,*67
$IIVLW,01467,N,000.8,N*5F
$IIVWR,041,R,05.7,N,,,,*66
$IIDPT,014.3,-1.0,*46
$IIGLL,4629.739,N,00639.748,E,075747,A,A*55
$IIHDG,147,,,,*55
$IIMTW,+14.5,C*38
$IIMWV,034,R,06.1,N,A*13
$IIMWV,064,T,04.1,N,A*12
$IIRMC,075748,A,4629.738,N,00639.749,E,02.2,151,220913,,,A*4D
$IIVHW,,,148,M,02.3,N,,*68
$IIVLW,01467,N,000.8,N*5F
$IIVWR,034,R,06.1,N,,,,*61
$IIDPT,014.3,-1.0,*46
$IIGLL,4629.738,N,00639.749,E,075748,A,A*5A
$IIHDG,148,,,,*5A
$IIMTW,+14.5,C*38
$IIMWV,033,R,06.2,N,A*17
$IIMWV,053,T,04.2,N,A*15
$IIRMC,075749,A,4629.738,N,00639.749,E,02.1,149,220913,,,A*46
$IIVHW,,,148,M,02.3,N,,*68
$IIVLW,01467,N,000.8,N*5F
$IIVWR,033,R,06.2,N,,,,*65
$IIDPT,014.3,-1.0,*46
$IIGLL,4629.738,N,00639.749,E,075749,A,A*5B
$IIHDG,149,,,,*5B
$IIMTW,+14.5,C*38
$GPRMB,A,0.00,L,,PERF,4622.300,N,00619.430,E,56.279,227.1,,V,A*45
$IIMWV,032,R,06.5,N,A*11
$IIMWV,050,T,04.3,N,A*17
$IIRMC,075750,A,4629.737,N,00639.750,E,02.2,151,220913,,,A*43
$IIVHW,,,149,M,02.3,N,,*69
$IIVLW,01467,N,000.8,N*5F
$IIVWR,032,R,06.5,N,,,,*63
$IIDPT,014.3,-1.0,*46
$IIGLL,4629.737,N,00639.750,E,075751,A,A*55
$IIHDG,150,,,,*53
$IIMTW,+14.5,C*38
$IIMWV,034,R,06.7,N,A*15
$IIMWV,048,T,04.6,N,A*1B
$IIRMC,075751,A,4629.737,N,00639.750,E,02.0,153,220913,,,A*42
$IIVHW,,,150,M,02.3,N,,*61
$IIVLW,01467,N,000.8,N*5F
$IIVWR,034,R,06.7,N,,,,*67
$IIDPT,014.3,-1.0,*46
$IIGLL,4629.736,N,00639.750,E,075752,A,A*57
$IIHDG,150,,,,*53
$IIMTW,+14.5,C*38
$IIMWV,033,R,06.7,N,A*12
$IIMWV,050,T,04.8,N,A*1C
$IIRMC,075752,A,4629.736,N,00639.750,E,02.1,153,220913,,,A*41
$IIVHW,,,150,M,02.3,N,,*61
$IIVLW,01467,N,000.8,N*5F
$IIVWR,032,R,06.7,N,,,,*61
$GPRMB,A,0.00,L,,PERF,4622.300,N,00619.430,E,60.111,227.1,,V,A*4D
$GPRMB,A,0.3,-1.0,*24
$IIGLL,4629.736,N,00639.751,E,075753,A,A*57
$IIHDG,150,,,,*53
$IIMTW,+14.5,C*38
$IIMWV,032,R,06.7,N,A*13
$IIMWV,048,T,04.8,N,A*15
$IIRMC,075753,A,4629.736,N,00639.751,E,02.1,150,220913,,,A*42
$IIVHW,,,150,M,02.3,N,,*61
$IIVLW,01467,N,000.8,N*5F
$IIVWR,035,R,06.7,N,,,,*66
$IIDPT,014.3,-1.0,*46
$IIGLL,4629.735,N,00639.751,E,075754,A,A*53
$IIHDG,150,,,,*53
$IIMTW,+14.5,C*38
$IIMWV,035,R,06.7,N,A*14
$IIMWV,047,T,04.8,N,A*1A
$IIRMC,075754,A,4629.735,N,00639.751,E,02.5,156,220913,,,A*44
$IIVHW,,,153,M,02.3,N,,*62
$IIVLW,01467,N,000.8,N*5F
$IIVWR,033,R,06.0,N,,,,*67
$IIDPT,014.3,-1.0,*46
$IIGLL,4629.735,N,00639.752,E,075755,A,A*51
$IIHDG,153,,,,*50
$IIMTW,+14.5,C*38
$IIMWV,033,R,06.0,N,A*15
$IIMWV,051,T,04.9,N,A*1C
$GPRMB,A,0.00,L,,PERF,4622.300,N,00619.430,E,70.139,227.1,,V,A*46
$GPRMB,A,0.00,L,,PERF,4622.300,N,00619,01.6,156,220913,,,A*56
$IIVHW,,,153,M,02.3,N,,*62
$IIVLW,01467,N,000.8,N*5F
$IIVWR,034,R,06.2,N,,,,*62
$IIDPT,014.3,-1.0,*46
$IIGLL,4629.734,N,00639.752,E,075756,A,A*53
$IIHDG,153,,,,*50
$IIMTW,+14.5,C*38
$IIMWV,034,R,06.2,N,A*10
$IIMWV,050,T,04.4,N,A*10
$IIRMC,075757,A,4629.733,N,00639.752,E,01.6,157,220913,,,A*43
$IIVHW,,,157,M,02.3,N,,*66
$IIVLW,01467,N,000.8,N*5F
$IIVWR,028,R,06.2,N,,,,*6F
$IIDPT,014.3,-1.0,*46
$IIGLL,4629.733,N,00639.752,E,075757,A,A*55
$IIHDG,157,,,,*54
$IIMTW,+14.5,C*38
$IIMWV,028,R,06.3,N,A*1C
$IIMWV,043,T,04.2,N,A*14
$IIRMC,075758,A,4629.733,N,00639.753,E,02.1,170,220913,,,A*4C
$IIVHW,,,160,M,02.2,N,,*63
$IIVLW,01467,N,000.9,N*5E
$IIVWR,028,R,06.3,N,,,,*6E
$IIDPT,014.3,-1.0,*46
$IIGLL,4629.733,N,00639.753,E,075758,A,A*5B
$IIHDG,160,,,,*50
$IIMTW,+14.5,C*38
$GPRMB,A,0.00,L,,PERF,4622.300,N,00619.430,E,68.393,227.1,,V,A*4D
$GPRMB,A,0.00,L,,PERA*73
$IIMWV,042,T,04.3,N,A*14
$IIRMC,075759,A,4629.732,N,00639.752,E,02.0,177,220913,,,A*4B
$IIVHW,,,164,M,02.2,N,,*67
$IIVLW,01467,N,000.9,N*5E
$IIVWR,021,R,07.0,N,,,,*65
$IIDPT,014.3,-1.0,*46
$IIGLL,4629.732,N,00639.752,E,075759,A,A*5A
$IIHDG,169,,,,*59
$IIMTW,+14.5,C*38
$IIMWV,018,R,06.8,N,A*14
$IIMWV,031,T,04.8,N,A*1B
$IIRMC,075800,A,4629.732,N,00639.752,E,02.0,181,220913,,,A*41
$IIVHW,,,169,M,02.2,N,,*6A
$IIVLW,01467,N,000.9,N*5E
$IIVWR,018,R,06.8,N,,,,*66
$IIDPT,014.3,-1.0,*46
$IIGLL,4629.731,N,00639.752,E,075801,A,A*5B
$IIHDG,172,,,,*53
$IIMTW,+14.5,C*38
$IIMWV,014,R,06.5,N,A*15
$IIMWV,027,T,04.6,N,A*12
$IIRMC,075801,A,4629.731,N,00639.752,E,02.7,184,220913,,,A*41
$IIVHW,,,172,M,02.2,N,,*60
$IIVLW,01467,N,000.9,N*5E
$IIVWR,014,R,06.5,N,,,,*67
$IIDPT,014.3,-1.0,*46
$GPRMB,A,0.00,L,,PERF,4622.300,N,00619.430,E,107.218,227.1,,V,A*77
$GPRMB,A,0.00,L,N,00639.752,E,075801,A,A*57
$IIHDG,178,,,,*59
$IIMTW,+14.5,C*38
$IIMWV,008,R,06.3,N,A*1E
$IIMWV,021,T,04.2,N,A*10
$IIRMC,075801,A,4629.731,N,00639.752,E,02.7,184,220913,,,A*41
$IIVHW,,,178,M,02.2,N,,*6A
$IIVLW,01467,N,000.9,N*5E
$IIVWR,001,R,06.3,N,,,,*65
$IIDPT,014.3,-1.0,*46
$IIGLL,4629.730,N,00639.752,E,075803,A,A*58
$IIHDG,184,,,,*5A
$IIMTW,+14.5,C*38
$IIMWV,001,R,06.3,N,A*17
$IIMWV,011,T,04.0,N,A*11
$IIRMC,075803,A,4629.730,N,00639.752,E,02.1,199,220913,,,A*48
$IIVHW,,,184,M,02.2,N,,*69
$IIVLW,01467,N,000.9,N*5E
$IIVWR,013,L,06.3,N,,,,*78
$IIDPT,014.3,-1.0,*46
$IIGLL,4629.729,N,00639.752,E,075804,A,A*57
$IIHDG,189,,,,*57
$IIMTW,+14.5,C*38
$IIMWV,347,R,06.3,N,A*16
$IIMWV,001,T,04.1,N,A*11
$IIRMC,075804,A,4629.729,N,00639.752,E,02.1,205,220913,,,A*41
$IIVHW,,,194,M,02.2,N,,*68
$GPRMB,A,0.00,L,,PERF,4622.300,N,00619.430,E,93.501,227.1,,V,A*44
$GPRMB,A,067,N,000.9,N*31
$IIVWR,013,L,06.3,N,,,,*78
$IIDPT,014.3,-1.0,*46
$IIGLL,4629.729,N,00639.751,E,075805,A,A*55
$IIHDG,194,,,,*5B
$IIMTW,+14.5,C*38
$IIMWV,347,R,06.3,N,A*16
$IIMWV,342,T,04.1,N,A*15
$IIRMC,075806,A,4629.729,N,00639.751,E,01.9,220,220913,,,A*4C
$IIVHW,,,200,M,02.2,N,,*66
$IIVLW,01467,N,000.9,N*5E
$IIVWR,012,L,06.6,N,,,,*7C
$IIDPT,014.3,-1.0,*46
$IIGLL,4629.729,N,00639.751,E,075806,A,A*56
$IIHDG,200,,,,*55
$IIMTW,+14.5,C*38
$IIMWV,348,R,06.6,N,A*1C
$IIMWV,343,T,04.3,N,A*16
$IIRMC,075807,A,4629.728,N,00639.751,E,02.0,226,220913,,,A*40
$IIVHW,,,205,M,02.0,N,,*61
$IIVLW,01467,N,000.9,N*5E
$IIVWR,013,L,06.0,N,,,,*7B
$IIDPT,014.3,-1.0,*46
$IIGLL,4629.728,N,00639.751,E,075807,A,A*56
$IIHDG,205,,,,*50
$IIMTW,+14.5,C*38
$IIMWV,337,R,05.5,N,A*14
$GPRMB,A,0.00,L,,PERF,4622.300,N,00619.430,E,85.266,227.1,,V,A*45
$GPRMB,A,0.0,03.9,N,A*12
$IIRMC,075808,A,4629.728,N,00639.750,E,02.0,227,220913,,,A*4F
$IIVHW,,,210,M,01.7,N,,*61
$IIVLW,01467,N,000.9,N*5E
$IIVWR,023,L,05.5,N,,,,*7E
$IIDPT,014.3,-1.0,*46
$IIGLL,4629.728,N,00639.750,E,075808,A,A*58
$IIHDG,210,,,,*54
$IIMTW,+14.5,C*38
$IIMWV,331,R,06.2,N,A*16
$IIMWV,327,T,03.8,N,A*18
$IIRMC,075809,A,4629.728,N,00639.750,E,01.8,229,220913,,,A*4B
$IIVHW,,,213,M,01.8,N,,*6D
$IIVLW,01467,N,000.9,N*5E
$IIVWR,029,L,06.2,N,,,,*70
$IIDPT,014.3,-1.0,*46
$IIGLL,4629.728,N,00639.750,E,075809,A,A*59
$IIHDG,218,,,,*5C
$IIMTW,+14.5,C*38
$IIMWV,333,R,05.7,N,A*12
$IIMWV,320,T,04.5,N,A*15
$IIRMC,075810,A,4629.728,N,00639.749,E,01.8,230,220913,,,A*43
$IIVHW,,,218,M,01.8,N,,*66
$IIVLW,01467,N,000.9,N*5E
$IIVWR,027,L,05.7,N,,,,*78
$IIDPT,014.3,-1.0,*46
$GPRMB,A,0.00,L,,PERF,4622.300,N,00619.430,E,61.365,227.1,,V,A*4D
$GPRMB,A,0.00,L,,PERF,4622.300,N,0061A,A*22
$IIHDG,222,,,,*55
$IIMTW,+14.5,C*38
$IIMWV,329,R,06.2,N,A*1F
$IIMWV,321,T,03.9,N,A*1F
$IIRMC,075811,A,4629.728,N,00639.748,E,01.9,244,220913,,,A*41
$IIVHW,,,222,M,01.9,N,,*6E
$IIVLW,01467,N,000.9,N*5E
$IIVWR,031,L,06.2,N,,,,*79
$IIDPT,014.3,-1.0,*46
$IIGLL,4629.728,N,00639.747,E,075812,A,A*55
$IIHDG,226,,,,*51
$IIMTW,+14.5,C*38
$IIMWV,329,R,05.8,N,A*16
$IIMWV,317,T,04.6,N,A*12
$IIRMC,075812,A,4629.728,N,00639.747,E,01.9,245,220913,,,A*4C
$IIVHW,,,226,M,01.9,N,,*6A
$IIVLW,01467,N,000.9,N*5E
$IIVWR,040,L,06.4,N,,,,*79
$IIDPT,014.3,-1.0,*46
$IIGLL,4629.728,N,00639.747,E,075813,A,A*54
$IIHDG,228,,,,*5F
$IIMTW,+14.5,C*38
$IIMWV,320,R,06.4,N,A*10
$IIMWV,315,T,04.2,N,A*14
$IIRMC,075813,A,4629.728,N,00639.747,E,02.0,248,220913,,,A*4A
$IIVHW,,,228,M,01.9,N,,*64
$IIVLW,01467,N,000.9,N*5E
$GPRMB,A,0.00,L,,PERF,4622.300,N,00619.430,E,63.047,227.1,,V,A*4C
$GPRMB,A,0.L,05.9,N,,,,*05
$IIDPT,014.3,-1.0,*46
$IIGLL,4629.728,N,00639.746,E,075814,A,A*52
$IIHDG,230,,,,*56
$IIMTW,+14.5,C*38
$IIMWV,322,R,05.9,N,A*1C
$IIMWV,306,T,04.9,N,A*1D
$IIRMC,075814,A,4629.728,N,00639.746,E,02.0,242,220913,,,A*46
$IIVHW,,,233,M,01.9,N,,*6E
$IIVLW,01467,N,000.9,N*5E
$IIVWR,039,L,06.4,N,,,,*77
$IIDPT,014.3,-1.0,*46
$IIGLL,4629.727,N,00639.745,E,075815,A,A*5F
$IIHDG,233,,,,*55
$IIMTW,+14.5,C*38
$IIMWV,321,R,06.4,N,A*11
$IIMWV,307,T,04.5,N,A*10
$IIRMC,075816,A,4629.727,N,00639.744,E,01.9,248,220913,,,A*49
$IIVHW,,,234,M,01.9,N,,*69
$IIVLW,01467,N,000.9,N*5E
$IIVWR,043,L,05.9,N,,,,*74
$IIDPT,014.3,-1.0,*46
$IIGLL,4629.727,N,00639.744,E,075816,A,A*5D
$IIHDG,234,,,,*52
$IIMTW,+14.5,C*38
$IIMWV,317,R,05.9,N,A*1A
$IIMWV,301,T,04.6,N,A*15
$GPRMB,A,0.00,L,,PERF,4622.300,N,00619.430,E,43.590,227.1,,V,A*41
$GPRMB,A,0.17,A,4629.727,N,00639.743,E,02.0,251,220913,,,A*22
$IIVHW,,,236,M,01.9,N,,*6B
$IIVLW,01467,N,000.9,N*5E
$IIVWR,045,L,06.3,N,,,,*7B
$IIDPT,014.3,-1.0,*46
$IIGLL,4629.727,N,00639.743,E,075817,A,A*5B
$IIHDG,236,,,,*50
$IIMTW,+14.5,C*38
$IIMWV,324,R,05.9,N,A*1A
$IIMWV,300,T,05.0,N,A*13
$IIRMC,075818,A,4629.727,N,00639.743,E,02.0,250,220913,,,A*43
$IIVHW,,,236,M,01.9,N,,*6B
$IIVLW,01467,N,000.9,N*5E
$IIVWR,036,L,05.9,N,,,,*76
$IIDPT,014.3,-1.0,*46
$IIGLL,4629.727,N,00639.743,E,075818,A,A*54
$IIHDG,236,,,,*50
$IIMTW,+14.5,C*38
$IIMWV,323,R,05.5,N,A*11
$IIMWV,310,T,04.4,N,A*17
$IIRMC,075819,A,4629.726,N,00639.742,E,02.1,248,220913,,,A*4A
$IIVHW,,,237,M,01.9,N,,*6A
$IIVLW,01467,N,000.9,N*5E
$IIVWR,037,L,05.5,N,,,,*7B
$IIDPT,014.3,-1.0,*46
$IIGLL,4629.726,N,00639.742,E,075819,A,A*55
$IIHDG,238,,,,*5E
$IIMTW,+14.5,C*38
$GPRMB,A,0.00,L,,PERF,4622.300,N,00619.430,E,60.111,227.1,,V,A*4D
$IIMWV,319,R,06.0,N,A*1E
$IIMWV,306,T,04.0,N,A*14
$IIRMC,075820,A,4629.726,N,00639.741,E,02.0,250,220913,,,A*4B
$IIVHW,,,238,M,02.0,N,,*6F
$IIVLW,01467,N,000.9,N*5E
$IIVWR,041,L,06.0,N,,,,*7C
$IIDPT,014.3,-1.0,*46
$IIGLL,4629.726,N,00639.740,E,075821,A,A*5C
$IIHDG,238,,,,*5E
$IIMTW,+14.5,C*38
$IIMWV,320,R,06.4,N,A*10
$IIMWV,303,T,04.6,N,A*17
$IIRMC,075821,A,4629.726,N,00639.740,E,02.1,254,220913,,,A*4E
$IIVHW,,,238,M,02.0,N,,*6F
$IIVLW,01467,N,000.9,N*5E
$IIVWR,040,L,06.4,N,,,,*79
$IIDPT,014.3,-1.0,*46
$IIGLL,4629.726,N,00639.739,E,075822,A,A*51
$IIHDG,238,,,,*5E
$IIMTW,+14.5,C*38
$IIMWV,320,R,06.6,N,A*12
$IIMWV,306,T,04.9,N,A*1D
$IIRMC,075822,A,4629.726,N,00639.739,E,02.1,248,220913,,,A*4E
$IIVHW,,,238,M,02.0,N,,*6F
$IIVLW,01467,N,000.9,N*5E
$IIVWR,037,L,06.0,N,,,,*7D
$GPRMB,A,0.00,L,,PERF,4622.300,N,00619.430,E,54.967,227.1,,V,A*43
$GPRMB,A,4.3,-1.0,*20
$IIGLL,4629.726,N,00639.738,E,075823,A,A*51
$IIHDG,238,,,,*5E
$IIMTW,+14.5,C*38
$IIMWV,323,R,06.0,N,A*17
$IIMWV,305,T,05.1,N,A*17
$IIRMC,075823,A,4629.726,N,00639.738,E,02.2,246,220913,,,A*43
$IIVHW,,,238,M,02.0,N,,*6F
$IIVLW,01467,N,000.9,N*5E
$IIVWR,043,L,06.2,N,,,,*7C
$IIDPT,014.3,-1.0,*46
$IIGLL,4629.725,N,00639.737,E,075824,A,A*5A
$IIHDG,237,,,,*51
$IIMTW,+14.5,C*38
$IIMWV,317,R,06.2,N,A*12
$IIMWV,307,T,04.5,N,A*10
$IIRMC,075824,A,4629.725,N,00639.737,E,02.3,240,220913,,,A*4F
$IIVHW,,,237,M,02.1,N,,*61
$IIVLW,01467,N,000.9,N*5E
$IIVWR,043,L,06.2,N,,,,*7C
$IIDPT,014.3,-1.0,*46
$IIGLL,4629.725,N,00639.737,E,075825,A,A*5B
$IIHDG,237,,,,*51
$IIMTW,+15.0,C*3C
$IIMWV,317,R,06.2,N,A*12
$IIMWV,300,T,04.8,N,A*1A
$GPRMB,A,0.00,L,,PERF,4622.300,N,00619.430,E,51.199,227.1,,V,A*4F
$GPRMB,A,0.00,L,,PERF,4622.300,N,0061E,02.4,241,220913,,,A*2E
$IIVHW,,,237,M,02.1,N,,*61
$IIVLW,01467,N,000.9,N*5E
$IIVWR,043,L,07.2,N,,,,*7D
$IIDPT,014.3,-1.0,*46
$IIGLL,4629.725,N,00639.736,E,075826,A,A*59
$IIHDG,237,,,,*51
$IIMTW,+15.0,C*3C
$IIMWV,317,R,07.2,N,A*13
$IIMWV,302,T,05.6,N,A*17
$IIRMC,075827,A,4629.725,N,00639.735,E,02.2,246,220913,,,A*49
$IIVHW,,,237,M,02.2,N,,*62
$IIVLW,01467,N,000.9,N*5E
$IIVWR,040,L,06.7,N,,,,*7A
$IIDPT,014.3,-1.0,*46
$IIGLL,4629.725,N,00639.735,E,075827,A,A*5B
$IIHDG,237,,,,*51
$IIMTW,+15.0,C*3C
$IIMWV,319,R,07.1,N,A*1E
$IIMWV,305,T,05.1,N,A*17
$IIRMC,075828,A,4629.725,N,00639.734,E,02.5,245,220913,,,A*43
$IIVHW,,,236,M,02.2,N,,*63
$IIVLW,01467,N,000.9,N*5E
$IIVWR,041,L,07.1,N,,,,*7C
$IIDPT,014.3,-1.0,*46
$IIGLL,4629.725,N,00639.734,E,075828,A,A*55
$IIHDG,236,,,,*50
$IIMTW,+15.0,C*3C
$GPRMB,A,0.00,L,,PERF,4622.300,N,00619.430,E,63.927,227.1,,V,A*43
$GPRMB,A,0.00,L,,,N,A*7A
$IIMWV,303,T,05.4,N,A*14
$IIRMC,075829,A,4629.724,N,00639.733,E,02.3,246,220913,,,A*41
$IIVHW,,,236,M,02.3,N,,*62
$IIVLW,01467,N,000.9,N*5E
$IIVWR,041,L,07.3,N,,,,*7E
$IIDPT,014.3,-1.0,*46
$IIGLL,4629.724,N,00639.733,E,075829,A,A*52
$IIHDG,237,,,,*51
$IIMTW,+15.5,C*39
$IIMWV,319,R,08.1,N,A*11
$IIMWV,303,T,05.7,N,A*17
$IIRMC,075830,A,4629.724,N,00639.732,E,02.6,249,220913,,,A*42
$IIVHW,,,237,M,02.3,N,,*63
$IIVLW,01467,N,000.9,N*5E
$IIVWR,041,L,08.1,N,,,,*73
$IIDPT,014.3,-1.0,*46
$IIGLL,4629.724,N,00639.731,E,075831,A,A*59
$IIHDG,238,,,,*5E
$IIMTW,+15.0,C*3C
$IIMWV,319,R,08.0,N,A*10
$IIMWV,304,T,06.4,N,A*10
$IIRMC,075831,A,4629.724,N,00639.731,E,02.7,250,220913,,,A*49
$IIVHW,,,238,M,02.4,N,,*6B
$IIVLW,01467,N,000.9,N*5E
$IIVWR,041,L,08.0,N,,,,*72
$IIDPT,014.3,-1.0,*46
$GPRMB,A,0.00,L,,PERF,4622.300,N,00619.430,E,67.290,227.1,,V,A*40
$GPRMB,A,0.0024,N,00639.730,E,075832,A,A*35
$IIHDG,240,,,,*51
$IIMTW,+15.0,C*3C
$IIMWV,313,R,07.7,N,A*12
$IIMWV,304,T,06.2,N,A*16
$IIRMC,075832,A,4629.724,N,00639.730,E,02.6,251,220913,,,A*4B
$IIVHW,,,240,M,02.5,N,,*65
$IIVLW,01467,N,000.9,N*5E
$IIVWR,056,L,07.7,N,,,,*7C
$IIDPT,014.3,-1.0,*46
$IIGLL,4629.724,N,00639.729,E,075833,A,A*52
$IIHDG,244,,,,*55
$IIMTW,+15.0,C*3C
$IIMWV,304,R,07.7,N,A*14
$IIMWV,295,T,06.1,N,A*1C
$IIRMC,075833,A,4629.724,N,00639.729,E,02.7,259,220913,,,A*4B
$IIVHW,,,244,M,02.7,N,,*63
$IIVLW,01467,N,000.9,N*5E
$IIVWR,063,L,07.8,N,,,,*75
$IIDPT,014.3,-1.0,*46
$IIGLL,4629.724,N,00639.728,E,075834,A,A*54
$IIHDG,247,,,,*56
$IIMTW,+15.0,C*3C
$IIMWV,297,R,07.8,N,A*10
$IIMWV,284,T,06.5,N,A*18
$IIRMC,075834,A,4629.724,N,00639.728,E,03.1,271,220913,,,A*40
$IIVHW,,,253,M,03.0,N,,*63
$GPRMB,A,0.00,L,,PERF,4622.300,N,00619.430,E,33.409,227.1,,V,A*47
$GPRMB,A,467,N,000.9,N*35
$IIVWR,067,L,07.9,N,,,,*70
$IIDPT,014.3,-1.0,*46
$IIGLL,4629.724,N,00639.726,E,075835,A,A*5B
$IIHDG,253,,,,*53
$IIMTW,+15.0,C*3C
$IIMWV,293,R,07.9,N,A*15
$IIMWV,276,T,06.9,N,A*19
$IIRMC,075836,A,4629.724,N,00639.725,E,03.3,277,220913,,,A*4B
$IIVHW,,,257,M,03.0,N,,*67
$IIVLW,01467,N,000.9,N*5E
$IIVWR,068,L,07.7,N,,,,*71
$IIDPT,014.3,-1.0,*46
$IIGLL,4629.724,N,00639.725,E,075836,A,A*5B
$IIHDG,257,,,,*57
$IIMTW,+15.0,C*3C
$IIMWV,292,R,07.7,N,A*1A
$IIMWV,268,T,07.1,N,A*1F
$IIRMC,075837,A,4629.724,N,00639.724,E,03.2,281,220913,,,A*43
$IIVHW,,,262,M,03.1,N,,*60
$IIVLW,01467,N,000.9,N*5E
$IIVWR,075,L,07.7,N,,,,*7D
$IIDPT,014.3,-1.0,*46
$IIGLL,4629.724,N,00639.724,E,075837,A,A*5B
$IIHDG,262,,,,*51
$IIMTW,+15.0,C*3C
$IIMWV,283,R,07.7,N,A*1A
$GPRMB,A,0.00,L,,PERF,4622.300,N,00619.430,E,3.687,227.1,,V,A*70
$GPRMB,A,0,T,07.4,N,A*7D
$IIRMC,075838,A,4629.724,N,00639.723,E,03.5,285,220913,,,A*48
$IIVHW,,,265,M,03.1,N,,*67
$IIVLW,01467,N,000.9,N*5E
$IIVWR,077,L,07.7,N,,,,*7F
$IIDPT,013.8,-1.0,*4A
$IIGLL,4629.724,N,00639.723,E,075838,A,A*53
$IIHDG,265,,,,*56
$IIMTW,+15.0,C*3C
$IIMWV,278,R,06.9,N,A*11
$IIMWV,258,T,07.5,N,A*18
$IIRMC,075839,A,4629.724,N,00639.722,E,03.7,289,220913,,,A*46
$IIVHW,,,269,M,03.1,N,,*6B
$IIVLW,01467,N,000.9,N*5E
$IIVWR,082,L,06.9,N,,,,*7A
$IIDPT,013.8,-1.0,*4A
$IIGLL,4629.724,N,00639.722,E,075839,A,A*53
$IIHDG,272,,,,*50
$IIMTW,+15.0,C*3C
$IIMWV,284,R,07.2,N,A*18
$IIMWV,251,T,07.1,N,A*15
$IIRMC,075840,A,4629.724,N,00639.720,E,03.4,282,220913,,,A*42
$IIVHW,,,272,M,03.2,N,,*62
$IIVLW,01467,N,000.9,N*5E
$IIVWR,076,L,07.2,N,,,,*7B
$IIDPT,013.0,-1.0,*42
$GPRMB,A,0.00,L,,PERF,4622.300,N,00619.430,E,36.536,227.1,,V,A*4F
$GPRMB,A,0.00,L,,PERF,4622.300,N,006,A,A*3F
$IIHDG,273,,,,*51
$IIMTW,+15.0,C*3C
$IIMWV,284,R,07.5,N,A*1F
$IIMWV,258,T,07.0,N,A*1D
$IIRMC,075841,A,4629.724,N,00639.719,E,03.5,283,220913,,,A*49
$IIVHW,,,273,M,03.2,N,,*63
$IIVLW,01467,N,000.9,N*5E
$IIVWR,076,L,07.5,N,,,,*7C
$IIDPT,013.6,-1.0,*44
$IIGLL,4629.724,N,00639.718,E,075842,A,A*56
$IIHDG,274,,,,*56
$IIMTW,+15.0,C*3C
$IIMWV,288,R,06.8,N,A*1F
$IIMWV,259,T,07.3,N,A*1F
$IIRMC,075842,A,4629.724,N,00639.718,E,03.5,283,220913,,,A*4B
$IIVHW,,,274,M,03.2,N,,*64
$IIVLW,01467,N,000.9,N*5E
$IIVWR,069,L,07.2,N,,,,*75
$IIDPT,014.3,-1.0,*46
$IIGLL,4629.724,N,00639.717,E,075843,A,A*58
$IIHDG,274,,,,*56
$IIMTW,+15.0,C*3C
$IIMWV,291,R,07.2,N,A*1C
$IIMWV,259,T,06.5,N,A*18
$IIRMC,075843,A,4629.724,N,00639.717,E,03.3,283,220913,,,A*43
$IIVHW,,,274,M,03.2,N,,*64
$IIVLW,01467,N,000.9,N*5E
$GPRMB,A,0.00,L,,PERF,4622.300,N,00619.430,E,20.773,227.1,,V,A*4B
$GPRMB,A,2,L,07.5,N,,,,*0B
$IIDPT,014.3,-1.0,*46
$IIGLL,4629.725,N,00639.716,E,075844,A,A*5F
$IIHDG,274,,,,*56
$IIMTW,+15.0,C*3C
$IIMWV,298,R,07.5,N,A*12
$IIMWV,263,T,06.6,N,A*12
$IIRMC,075844,A,4629.725,N,00639.716,E,03.0,283,220913,,,A*47
$IIVHW,,,271,M,03.2,N,,*61
$IIVLW,01467,N,000.9,N*5E
$IIVWR,051,L,07.8,N,,,,*74
$IIDPT,014.3,-1.0,*46
$IIGLL,4629.725,N,00639.714,E,075845,A,A*5C
$IIHDG,271,,,,*53
$IIMTW,+15.0,C*3C
$IIMWV,309,R,07.8,N,A*16
$IIMWV,272,T,06.6,N,A*12
$IIRMC,075846,A,4629.725,N,00639.713,E,03.4,271,220913,,,A*49
$IIVHW,,,268,M,03.3,N,,*68
$IIVLW,01467,N,000.9,N*5E
$IIVWR,051,L,07.8,N,,,,*74
$IIDPT,014.3,-1.0,*46
$IIGLL,4629.725,N,00639.713,E,075846,A,A*58
$IIHDG,268,,,,*5B
$IIMTW,+14.5,C*38
$IIMWV,309,R,07.8,N,A*16
$IIMWV,285,T,06.2,N,A*1E
$GPRMB,A,0.00,L,,PERF,4622.300,N,00619.430,E,39.213,227.1,,V,A*40
$GPRMB,A,5847,A,4629.725,N,00639.711,E,02.9,267,220913,,,A*3D
$IIVHW,,,264,M,03.3,N,,*64
$IIVLW,01467,N,000.9,N*5E
$IIVWR,048,L,07.7,N,,,,*73
$IIDPT,014.3,-1.0,*46
$IIGLL,4629.725,N,00639.711,E,075847,A,A*5B
$IIHDG,264,,,,*57
$IIMTW,+15.0,C*3C
$IIMWV,320,R,07.3,N,A*16
$IIMWV,288,T,05.8,N,A*1A
$IIRMC,075848,A,4629.725,N,00639.710,E,03.5,264,220913,,,A*41
$IIVHW,,,261,M,03.3,N,,*61
$IIVLW,01467,N,000.9,N*5E
$IIVWR,040,L,07.3,N,,,,*7F
$IIDPT,014.3,-1.0,*46
$IIGLL,4629.725,N,00639.710,E,075848,A,A*55
$IIHDG,261,,,,*52
$IIMTW,+15.0,C*3C
$IIMWV,319,R,07.2,N,A*1D
$IIMWV,297,T,05.1,N,A*1D
$IIRMC,075849,A,4629.724,N,00639.708,E,03.4,254,220913,,,A*4A
$IIVHW,,,258,M,03.3,N,,*6B
$IIVLW,01467,N,000.9,N*5E
$IIVWR,041,L,07.2,N,,,,*7F
$IIDPT,014.3,-1.0,*46
$IIGLL,4629.724,N,00639.708,E,075849,A,A*5C
$IIHDG,256,,,,*56
$GPRMB,A,0.00,L,,PERF,4622.300,N,00619.430,E,68.782,227.1,,V,A*49
$GPRMB,A,0.00,L,,PERF,4622.300,N,00619.430,E,68.782,227.1,,V,A*49
$IIMWV,317,R,07.3,N,A*12
$IIMWV,294,T,05.1,N,A*1E
$IIRMC,075850,A,4629.724,N,00639.706,E,03.5,257,220913,,,A*4E
$IIVHW,,,256,M,03.3,N,,*65
$IIVLW,01467,N,000.9,N*5E
$IIVWR,043,L,07.3,N,,,,*7C
$IIDPT,014.3,-1.0,*46
$IIGLL,4629.723,N,00639.705,E,075851,A,A*5F
$IIHDG,255,,,,*55
$IIMTW,+15.5,C*39
$IIMWV,316,R,07.5,N,A*15
$IIMWV,292,T,05.2,N,A*1B
$IIRMC,075851,A,4629.723,N,00639.705,E,03.5,257,220913,,,A*4B
$IIVHW,,,255,M,03.3,N,,*66
$IIVLW,01467,N,000.9,N*5E
$IIVWR,044,L,07.5,N,,,,*7D
$IIDPT,013.6,-1.0,*44
$IIGLL,4629.723,N,00639.703,E,075852,A,A*5A
$IIHDG,254,,,,*54
$IIMTW,+15.0,C*3C
$IIMWV,320,R,07.0,N,A*15
$IIMWV,291,T,05.4,N,A*1E
$IIRMC,075852,A,4629.723,N,00639.703,E,03.5,260,220913,,,A*4A
$IIVHW,,,254,M,03.3,N,,*67
$IIVLW,01467,N,000.9,N*5E
$IIVWR,044,L,06.7,N,,,,*7E
$GPRMB,A,0.00,L,,PERF,4622.300,N,00619.430,E,55.917,227.1,,V,A*45
$GPRMB,A13.9,-1.0,*30
$IIGLL,4629.723,N,00639.702,E,075853,A,A*5A
$IIHDG,253,,,,*53
$IIMTW,+15.0,C*3C
$IIMWV,316,R,06.7,N,A*16
$IIMWV,293,T,04.7,N,A*1E
$IIRMC,075853,A,4629.723,N,00639.702,E,03.5,256,220913,,,A*4F
$IIVHW,,,253,M,03.3,N,,*60
$IIVLW,01467,N,000.9,N*5E
$IIVWR,045,L,07.0,N,,,,*79
$IIDPT,013.9,-1.0,*4B
$IIGLL,4629.723,N,00639.701,E,075854,A,A*5E
$IIHDG,253,,,,*53
$IIMTW,+15.0,C*3C
$IIMWV,315,R,07.0,N,A*13
$IIMWV,287,T,04.8,N,A*14
$IIRMC,075854,A,4629.723,N,00639.701,E,03.6,257,220913,,,A*49
$IIVHW,,,253,M,03.3,N,,*60
$IIVLW,01467,N,000.9,N*5E
$IIVWR,047,L,08.0,N,,,,*74
$IIDPT,013.6,-1.0,*44
$IIGLL,4629.723,N,00639.699,E,075855,A,A*5F
$IIHDG,253,,,,*53
$IIMTW,+15.0,C*3C
$IIMWV,313,R,08.0,N,A*1A
$IIMWV,287,T,05.1,N,A*1C
$GPRMB,A,0.00,L,,PERF,4622.300,N,00619.430,E,46.893,227.1,,V,A*4A
$GPRMB,A,0.00,L,,PERF,4622.300,N,009,E,03.5,259,220913,,,A*35
$IIVHW,,,253,M,03.3,N,,*60
$IIVLW,01467,N,000.9,N*5E
$IIVWR,050,L,07.7,N,,,,*7A
$IIDPT,013.6,-1.0,*44
$IIGLL,4629.723,N,00639.699,E,075855,A,A*5F
$IIHDG,253,,,,*53
$IIMTW,+15.0,C*3C
$IIMWV,310,R,07.7,N,A*11
$IIMWV,284,T,06.0,N,A*1D
$IIRMC,075857,A,4629.722,N,00639.696,E,03.6,258,220913,,,A*4B
$IIVHW,,,253,M,03.3,N,,*60
$IIVLW,01467,N,000.9,N*5E
$IIVWR,047,L,07.5,N,,,,*7E
$IIDPT,013.9,-1.0,*4B
$IIGLL,4629.722,N,00639.696,E,075857,A,A*53
$IIHDG,253,,,,*53
$IIMTW,+15.0,C*3C
$IIMWV,310,R,07.3,N,A*15
$IIMWV,287,T,05.6,N,A*1B
$IIRMC,075858,A,4629.722,N,00639.695,E,03.6,259,220913,,,A*46
$IIVHW,,,253,M,03.4,N,,*67
$IIVLW,01467,N,000.9,N*5E
$IIVWR,050,L,07.3,N,,,,*7E
$IIDPT,013.9,-1.0,*4B
$IIGLL,4629.722,N,00639.695,E,075858,A,A*5F
$IIHDG,253,,,,*53
$IIMTW,+15.0,C*3C
$GPRMB,A,0.00,L,,PERF,4622.300,N,00619.430,E,46.893,227.1,,V,A*4A
$GPRMB,A,0.00,L,1,N,A*67
$IIMWV,282,T,05.7,N,A*1F
$IIRMC,075859,A,4629.722,N,00639.693,E,03.6,258,220913,,,A*40
$IIVHW,,,253,M,03.4,N,,*67
$IIVLW,01467,N,000.9,N*5E
$IIVWR,050,L,08.1,N,,,,*73
$IIDPT,013.6,-1.0,*44
$IIGLL,4629.722,N,00639.693,E,075859,A,A*58
$IIHDG,253,,,,*53
$IIMTW,+15.0,C*3C
$IIMWV,305,R,07.4,N,A*16
$IIMWV,285,T,06.4,N,A*18
$IIRMC,075900,A,4629.722,N,00639.692,E,03.6,259,220913,,,A*4D
$IIVHW,,,253,M,03.4,N,,*67
$IIVLW,01467,N,000.9,N*5E
$IIVWR,055,L,07.4,N,,,,*7C
$IIDPT,013.6,-1.0,*44
$IIGLL,4629.722,N,00639.691,E,075901,A,A*56
$IIHDG,253,,,,*53
$IIMTW,+15.0,C*3C
$IIMWV,304,R,08.1,N,A*1D
$IIMWV,278,T,06.0,N,A*1E
$IIRMC,075901,A,4629.722,N,00639.691,E,03.6,261,220913,,,A*44
$IIVHW,,,253,M,03.4,N,,*67
$IIVLW,01467,N,000.9,N*5E
$IIVWR,056,L,08.1,N,,,,*75
$IIDPT,014.3,-1.0,*46
$GPRMB,A,0.00,L,,PERF,4622.300,N,00619.430,E,22.322,227.1,,V,A*49
$GPRMB,A,0.0722,N,00639.689,E,075902,A,A*35
$IIHDG,253,,,,*53
$IIMTW,+15.0,C*3C
$IIMWV,308,R,07.6,N,A*19
$IIMWV,279,T,06.7,N,A*18
$IIRMC,075902,A,4629.722,N,00639.689,E,03.5,263,220913,,,A*4F
$IIVHW,,,253,M,03.4,N,,*67
$IIVLW,01467,N,000.9,N*5E
$IIVWR,055,L,06.9,N,,,,*70
$IIDPT,014.3,-1.0,*46
$IIGLL,4629.722,N,00639.688,E,075903,A,A*5C
$IIHDG,254,,,,*54
$IIMTW,+15.0,C*3C
$IIMWV,305,R,06.9,N,A*1A
$IIMWV,281,T,06.1,N,A*19
$IIRMC,075903,A,4629.722,N,00639.688,E,03.6,263,220913,,,A*4C
$IIVHW,,,254,M,03.4,N,,*60
$IIVLW,01467,N,000.9,N*5E
$IIVWR,050,L,06.6,N,,,,*7A
$IIDPT,013.8,-1.0,*4A
$IIGLL,4629.722,N,00639.686,E,075904,A,A*55
$IIHDG,255,,,,*55
$IIMTW,+15.0,C*3C
$IIMWV,310,R,06.6,N,A*11
$IIMWV,275,T,05.6,N,A*16
$IIRMC,075904,A,4629.722,N,00639.686,E,03.6,262,220913,,,A*44
$IIVHW,,,255,M,03.4,N,,*61
$GPRMB,A,0.00,L,,PERF,4622.300,N,00619.430,E,13.979,227.1,,V,A*4F
$GPRMB,01467,N,000.9,N*59
$IIVWR,051,L,06.7,N,,,,*7A
$IIDPT,013.7,-1.0,*45
$IIGLL,4629.722,N,00639.685,E,075905,A,A*57
$IIHDG,255,,,,*55
$IIMTW,+15.0,C*3C
$IIMWV,309,R,06.7,N,A*18
$IIMWV,279,T,05.0,N,A*1C
$IIRMC,075906,A,4629.722,N,00639.683,E,03.6,263,220913,,,A*42
$IIVHW,,,255,M,03.4,N,,*61
$IIVLW,01467,N,000.9,N*5E
$IIVWR,050,L,06.6,N,,,,*7A
$IIDPT,013.7,-1.0,*45
$IIGLL,4629.722,N,00639.683,E,075906,A,A*52
$IIHDG,255,,,,*55
$IIMTW,+14.5,C*38
$IIMWV,310,R,06.6,N,A*11
$IIMWV,279,T,05.0,N,A*1C
$IIRMC,075907,A,4629.721,N,00639.682,E,03.6,263,220913,,,A*41
$IIVHW,,,256,M,03.4,N,,*62
$IIVLW,01467,N,000.9,N*5E
$IIVWR,054,L,07.9,N,,,,*70
$IIDPT,012.9,-1.0,*4A
$IIGLL,4629.721,N,00639.682,E,075907,A,A*51
$IIHDG,256,,,,*56
$IIMTW,+15.0,C*3C
$IIMWV,310,R,06.9,N,A*1E
$GPRMB,A,0.00,L,,PERF,4622.300,N,00619.430,E,25.090,227.1,,V,A*44
$GPRMB,A81,T,06.4,N,A*69
$IIRMC,075908,A,4629.721,N,00639.681,E,03.6,265,220913,,,A*4B
$IIVHW,,,256,M,03.4,N,,*62
$IIVLW,01467,N,000.9,N*5E
$IIVWR,050,L,06.9,N,,,,*75
$IIDPT,012.9,-1.0,*4A
$IIGLL,4629.721,N,00639.681,E,075908,A,A*5D
$IIHDG,256,,,,*56
$IIMTW,+15.0,C*3C
$IIMWV,306,R,07.2,N,A*13
$IIMWV,281,T,05.3,N,A*18
$IIRMC,075909,A,4629.721,N,00639.679,E,03.6,265,220913,,,A*4D
$IIVHW,,,258,M,03.4,N,,*6C
$IIVLW,01467,N,000.9,N*5E
$IIVWR,054,L,07.2,N,,,,*7B
$IIDPT,013.6,-1.0,*44
$IIGLL,4629.721,N,00639.679,E,075909,A,A*5B
$IIHDG,258,,,,*58
$IIMTW,+15.0,C*3C
$IIMWV,306,R,07.5,N,A*14
$IIMWV,278,T,05.8,N,A*15
$IIRMC,075910,A,4629.721,N,00639.678,E,03.6,266,220913,,,A*47
$IIVHW,,,258,M,03.4,N,,*6C
$IIVLW,01467,N,000.9,N*5E
$IIVWR,054,L,07.5,N,,,,*7C
$IIDPT,013.6,-1.0,*44
$GPRMB,A,0.00,L,,PERF,4622.300,N,00619.430,E,22.322,227.1,,V,A*49
$GPRMB,A,0.00,L,,PERF,4622.300,N,011,A,A*39
$IIHDG,259,,,,*59
$IIMTW,+15.0,C*3C
$IIMWV,304,R,06.8,N,A*1A
$IIMWV,279,T,06.0,N,A*1F
$IIRMC,075911,A,4629.721,N,00639.676,E,03.6,266,220913,,,A*48
$IIVHW,,,259,M,03.4,N,,*6D
$IIVLW,01467,N,000.9,N*5E
$IIVWR,056,L,06.8,N,,,,*72
$IIDPT,014.2,-1.0,*47
$IIGLL,4629.721,N,00639.675,E,075912,A,A*5D
$IIHDG,259,,,,*59
$IIMTW,+14.5,C*38
$IIMWV,305,R,07.2,N,A*10
$IIMWV,274,T,05.6,N,A*17
$IIRMC,075912,A,4629.721,N,00639.675,E,03.5,268,220913,,,A*45
$IIVHW,,,259,M,03.4,N,,*6D
$IIVLW,01467,N,000.9,N*5E
$IIVWR,050,L,06.9,N,,,,*75
$IIDPT,014.2,-1.0,*47
$IIGLL,4629.721,N,00639.673,E,075913,A,A*5A
$IIHDG,260,,,,*53
$IIMTW,+15.5,C*39
$IIMWV,310,R,06.9,N,A*1E
$IIMWV,276,T,05.9,N,A*1A
$IIRMC,075913,A,4629.721,N,00639.673,E,03.4,265,220913,,,A*4E
$IIVHW,,,260,M,03.4,N,,*67
$IIVLW,01467,N,000.9,N*5E
$GPRMB,A,0.00,L,,PERF,4622.300,N,00619.430,E,15.837,227.1,,V,A*42
$GPRMB,050,L,06.5,N,,,,*60
$IIDPT,013.7,-1.0,*45
$IIGLL,4629.721,N,00639.672,E,075914,A,A*5C
$IIHDG,260,,,,*53
$IIMTW,+15.5,C*39
$IIMWV,310,R,06.5,N,A*12
$IIMWV,280,T,05.3,N,A*19
$IIRMC,075914,A,4629.721,N,00639.672,E,03.5,270,220913,,,A*4D
$IIVHW,,,260,M,03.4,N,,*67
$IIVLW,01467,N,000.9,N*5E
$IIVWR,043,L,07.1,N,,,,*7E
$IIDPT,013.0,-1.0,*42
$IIGLL,4629.721,N,00639.670,E,075915,A,A*5F
$IIHDG,260,,,,*53
$IIMTW,+15.5,C*39
$IIMWV,317,R,07.1,N,A*10
$IIMWV,277,T,05.0,N,A*12
$IIRMC,075916,A,4629.721,N,00639.668,E,03.7,270,220913,,,A*46
$IIVHW,,,260,M,03.4,N,,*67
$IIVLW,01467,N,000.9,N*5E
$IIVWR,039,L,07.6,N,,,,*74
$IIDPT,013.5,-1.0,*47
$IIGLL,4629.721,N,00639.668,E,075916,A,A*55
$IIHDG,260,,,,*53
$IIMTW,+15.5,C*39
$IIMWV,321,R,07.6,N,A*12
$IIMWV,297,T,05.2,N,A*1E
$GPRMB,A,0.00,L,,PERF,4622.300,N,00619.430,E,74.870,227.1,,V,A*46
$GPRMB,A75917,A,4629.721,N,00639.667,E,03.5,266,220913,,,A*2A
$IIVHW,,,260,M,03.4,N,,*67
$IIVLW,01467,N,000.9,N*5E
$IIVWR,038,L,06.9,N,,,,*7B
$IIDPT,013.6,-1.0,*44
$IIGLL,4629.721,N,00639.667,E,075917,A,A*5B
$IIHDG,260,,,,*53
$IIMTW,+15.0,C*3C
$IIMWV,321,R,07.2,N,A*16
$IIMWV,294,T,04.6,N,A*18
$IIRMC,075918,A,4629.721,N,00639.665,E,03.6,265,220913,,,A*40
$IIVHW,,,260,M,03.4,N,,*67
$IIVLW,01467,N,000.9,N*5E
$IIVWR,039,L,07.2,N,,,,*70
$IIDPT,013.6,-1.0,*44
$IIGLL,4629.721,N,00639.665,E,075918,A,A*56
$IIHDG,260,,,,*53
$IIMTW,+15.5,C*39
$IIMWV,319,R,07.5,N,A*1A
$IIMWV,295,T,04.9,N,A*16
$IIRMC,075918,A,4629.721,N,00639.665,E,03.6,265,220913,,,A*40
$IIVHW,,,260,M,03.4,N,,*67
$IIVLW,01467,N,000.9,N*5E
$IIVWR,041,L,07.5,N,,,,*78
$IIDPT,013.6,-1.0,*44
$IIGLL,4629.721,N,00639.665,E,075918,A,A*56
$IIHDG,260,,,,*53
$GPRMB,A,0.00,L,,PERF,4622.300,N,00619.430,E,67.783,227.1,,V,A*47
$GPRMB,A,0.00,L,,PERF,4622.300,N,00619.430,E,67.783,227.1,,V,A*47
$IIMWV,318,R,07.6,N,A*18
$IIMWV,293,T,05.3,N,A*1B
$IIRMC,075920,A,4629.721,N,00639.663,E,03.6,264,220913,,,A*4C
$IIVHW,,,260,M,03.3,N,,*60
$IIVLW,01467,N,000.9,N*5E
$IIVWR,042,L,07.6,N,,,,*78
$IIDPT,014.2,-1.0,*47
$IIGLL,4629.721,N,00639.662,E,075921,A,A*5B
$IIHDG,258,,,,*58
$IIMTW,+15.5,C*39
$IIMWV,318,R,07.5,N,A*1B
$IIMWV,294,T,05.4,N,A*1B
$IIRMC,075921,A,4629.721,N,00639.662,E,03.4,263,220913,,,A*49
$IIVHW,,,258,M,03.3,N,,*6B
$IIVLW,01467,N,000.9,N*5E
$IIVWR,042,L,07.5,N,,,,*7B
$IIDPT,014.2,-1.0,*47
$IIGLL,4629.721,N,00639.660,E,075922,A,A*5A
$IIHDG,256,,,,*56
$IIMTW,+15.5,C*39
$IIMWV,320,R,07.2,N,A*17
$IIMWV,293,T,05.4,N,A*1C
$IIRMC,075922,A,4629.721,N,00639.660,E,03.6,258,220913,,,A*42
$IIVHW,,,256,M,03.3,N,,*65
$IIVLW,01467,N,000.9,N*5E
$IIVWR,043,L,08.1,N,,,,*71
$GPRMB,A,0.00,L,,PERF,4622.300,N,00619.430,E,62.668,227.1,,V,A*46
$GPRMT,014.2,-1.0,*5B
$IIGLL,4629.720,N,00639.658,E,075923,A,A*51
$IIHDG,254,,,,*54
$IIMTW,+15.0,C*3C
$IIMWV,317,R,08.1,N,A*1F
$IIMWV,296,T,05.0,N,A*1D
$IIRMC,075923,A,4629.720,N,00639.658,E,03.3,264,220913,,,A*43
$IIVHW,,,254,M,03.3,N,,*67
$IIVLW,01467,N,000.9,N*5E
$IIVWR,040,L,07.8,N,,,,*74
$IIDPT,014.3,-1.0,*46
$IIGLL,4629.720,N,00639.657,E,075924,A,A*59
$IIHDG,252,,,,*52
$IIMTW,+15.0,C*3C
$IIMWV,320,R,07.8,N,A*1D
$IIMWV,295,T,06.0,N,A*1D
$IIRMC,075924,A,4629.720,N,00639.657,E,03.3,257,220913,,,A*4B
$IIVHW,,,251,M,03.3,N,,*62
$IIVLW,01467,N,000.9,N*5E
$IIVWR,041,L,07.7,N,,,,*7A
$IIDPT,014.3,-1.0,*46
$IIGLL,4629.720,N,00639.655,E,075925,A,A*5A
$IIHDG,251,,,,*51
$IIMTW,+15.5,C*39
$IIMWV,319,R,07.7,N,A*18
$IIMWV,299,T,05.5,N,A*17
$GPRMB,A,0.00,L,,PERF,4622.300,N,00619.430,E,71.256,227.1,,V,A*4D
$GPRMB,A,0.00,L,,PERF,4622.300,N,654,E,03.4,260,220913,,,A*30
$IIVHW,,,251,M,03.3,N,,*62
$IIVLW,01467,N,000.9,N*5E
$IIVWR,038,L,07.7,N,,,,*74
$IIDPT,014.3,-1.0,*46
$IIGLL,4629.719,N,00639.654,E,075926,A,A*52
$IIHDG,251,,,,*51
$IIMTW,+15.5,C*39
$IIMWV,322,R,07.7,N,A*10
$IIMWV,300,T,05.4,N,A*17
