$IIVLW,01458,N,000.0,N*5B
$IIDPT,021.6,-1.0,*45
$IIHDG,195,,,,*5A
$IIMTW,+21.0,C*3B
$IIVHW,,,195,M,00.4,N,,*6D
$IIVLW,01458,N,000.0,N*5B
$IIDPT,025.0,-1.0,*47
$IIHDG,197,,,,*58
$IIMTW,+21.0,C*3B
$IIVHW,,,197,M,00.4,N,,*6F
$IIVLW,01458,N,000.0,N*5B
$IIDPT,028.7,-1.0,*4D
$IIHDG,198,,,,*57
$IIMTW,+21.0,C*3B
$GPRMB,A,0.00,L,,PERF,4622.300,N,00619.430,E,0.000,227.1,,V,A*7A
$GPRMB,A,0.00,L,,.3,N,,*0A
$IIVLW,01458,N,000.0,N*5B
$IIDPT,025.3,-1.0,*44
$IIHDG,200,,,,*55
$IIMTW,+21.0,C*3B
$IIVHW,,,200,M,00.2,N,,*64
$IIVLW,01458,N,000.0,N*5B
$IIDPT,031.7,-1.0,*45
$IIHDG,201,,,,*54
$IIMTW,+21.0,C*3B
$IIVHW,,,201,M,00.2,N,,*65
$IIVLW,01458,N,000.0,N*5B
$IIDPT,031.7,-1.0,*45
$IIHDG,203,,,,*56
$IIMTW,+21.0,C*3B
$GPRMB,A,0.00,L,,PERF,4622.300,N,00619.430,E,0.000,227.1,,V,A*7A
$GPRMB,A,0.00,L,,P1,N,,*76
$IIVLW,01458,N,000.0,N*5B
$IIDPT,031.0,-1.0,*42
$IIHDG,204,,,,*51
$IIMTW,+21.0,C*3B
$IIVHW,,,204,M,00.1,N,,*63
$IIVLW,01458,N,000.0,N*5B
$IIDPT,031.0,-1.0,*42
$IIHDG,206,,,,*53
$IIMTW,+21.0,C*3B
$IIVHW,,,206,M,00.1,N,,*61
$IIVLW,01458,N,000.0,N*5B
$IIDPT,024.0,-1.0,*46
$IIHDG,207,,,,*52
$IIMTW,+21.0,C*3B
$GPRMB,A,0.00,L,,PERF,4622.300,N,00619.430,E,0.000,227.1,,V,A*7A
$GPRMB,A,0.00,L,,P1,N,,*76
$IIVLW,01458,N,000.0,N*5B
$IIDPT,024.0,-1.0,*46
$IIHDG,207,,,,*52
$IIMTW,+21.0,C*3B
$IIVHW,,,207,M,00.0,N,,*61
$IIVLW,01458,N,000.0,N*5B
$IIDPT,023.5,-1.0,*44
$IIHDG,207,,,,*52
$IIMTW,+21.0,C*3B
$IIVHW,,,207,M,00.0,N,,*61
$IIVLW,01458,N,000.0,N*5B
$IIDPT,023.5,-1.0,*44
$IIHDG,209,,,,*5C
$IIMTW,+21.0,C*3B
$GPRMB,A,0.00,L,,PERF,4622.300,N,00619.430,E,0.000,227.1,,V,A*7A
$GPRMB,A,0.00,L,,.0,N,,*09
$IIVLW,01458,N,000.0,N*5B
$IIDPT,023.5,-1.0,*44
$IIHDG,209,,,,*5C
$IIMTW,+21.0,C*3B
$IIVHW,,,209,M,00.0,N,,*6F
$IIVLW,01458,N,000.0,N*5B
$IIDPT,023.5,-1.0,*44
$IIHDG,209,,,,*5C
$IIMTW,+21.0,C*3B
$IIVHW,,,209,M,00.0,N,,*6F
$IIVLW,01458,N,000.0,N*5B
$IIDPT,023.5,-1.0,*44
$IIHDG,210,,,,*54
$IIMTW,+21.0,C*3B
$GPRMB,A,0.00,L,,PERF,4622.300,N,00619.430,E,0.000,227.1,,V,A*7A
$GPRMB,A,0.00,L,,.0,N,,*09
$IIVLW,01458,N,000.0,N*5B
$IIDPT,023.5,-1.0,*44
$IIHDG,210,,,,*54
$IIMTW,+21.0,C*3B
$IIVHW,,,210,M,00.0,N,,*67
$IIVLW,01458,N,000.0,N*5B
$IIDPT,023.5,-1.0,*44
$IIHDG,210,,,,*54
$IIMTW,+21.0,C*3B
$IIVHW,,,210,M,00.0,N,,*67
$IIVLW,01458,N,000.0,N*5B
$IIDPT,023.5,-1.0,*44
$IIHDG,210,,,,*54
$IIMTW,+21.0,C*3B
$GPRMB,A,0.00,L,,PERF,4622.300,N,00619.430,E,0.000,227.1,,V,A*7A
$GPRMB,A,0.00,L,,.0,N,,*09
$IIVLW,01458,N,000.0,N*5B
$IIDPT,023.5,-1.0,*44
$IIHDG,210,,,,*54
$IIMTW,+21.0,C*3B
$IIVHW,,,210,M,00.0,N,,*67
$IIVLW,01458,N,000.0,N*5B
$IIDPT,023.5,-1.0,*44
$IIHDG,210,,,,*54
$IIMTW,+21.0,C*3B
$IIVHW,,,210,M,00.0,N,,*67
$IIVLW,01458,N,000.0,N*5B
$IIDPT,023.5,-1.0,*44
$IIHDG,211,,,,*55
$IIMTW,+21.0,C*3B
$GPRMB,A,0.00,L,,PERF,4622.300,N,00619.430,E,0.000,227.1,,V,A*7A
$GPRMB,A,0.00,L,,.0,N,,*09
$IIVLW,01458,N,000.0,N*5B
$IIDPT,023.5,-1.0,*44
$IIHDG,211,,,,*55
$IIMTW,+21.0,C*3B
$IIVHW,,,211,M,00.0,N,,*66
$IIVLW,01458,N,000.0,N*5B
$IIDPT,023.5,-1.0,*44
$IIHDG,211,,,,*55
$IIMTW,+21.0,C*3B
$IIVHW,,,211,M,00.0,N,,*66
$IIVLW,01458,N,000.0,N*5B
$IIDPT,023.5,-1.0,*44
$IIHDG,211,,,,*55
$IIMTW,+21.0,C*3B
$GPRMB,A,0.00,L,,PERF,4622.300,N,00619.430,E,0.000,227.1,,V,A*7A
$GPRMB,A,0.00,L,,.0,N,,*09
$IIVLW,01458,N,000.0,N*5B
$IIDPT,017.7,-1.0,*41
$IIHDG,211,,,,*55
$IIMTW,+21.0,C*3B
$IIVHW,,,211,M,00.0,N,,*66
$IIVLW,01458,N,000.0,N*5B
$IIDPT,017.7,-1.0,*41
$IIHDG,211,,,,*55
$IIMTW,+21.0,C*3B
$IIVHW,,,211,M,00.0,N,,*66
$IIVLW,01458,N,000.0,N*5B
$IIDPT,017.5,-1.0,*43
$IIHDG,211,,,,*55
$IIMTW,+21.0,C*3B
$GPRMB,A,0.00,L,,PERF,4622.300,N,00619.430,E,0.000,227.1,,V,A*7A
$GPRMB,A,0.00,L,,.0,N,,*09
$IIVLW,01458,N,000.0,N*5B
$IIDPT,017.5,-1.0,*43
$IIHDG,211,,,,*55
$IIMTW,+21.0,C*3B
$IIVHW,,,211,M,00.0,N,,*66
$IIVLW,01458,N,000.0,N*5B
$IIDPT,017.5,-1.0,*43
$IIHDG,211,,,,*55
$IIMTW,+21.0,C*3B
$IIVHW,,,211,M,00.0,N,,*66
$IIVLW,01458,N,000.0,N*5B
$IIDPT,017.5,-1.0,*43
$IIHDG,212,,,,*56
$IIMTW,+21.0,C*3B
$GPRMB,A,0.00,L,,PERF,4622.300,N,00619.430,E,0.000,227.1,,V,A*7A
$GPRMB,A,0.00,L,0.0,N,,*15
$IIVLW,01458,N,000.0,N*5B
$IIDPT,017.5,-1.0,*43
$IIGLL,4630.059,N,00640.226,E,165735,A,A*5A
$IIHDG,212,,,,*56
$IIMTW,+21.0,C*3B
$IIRMC,165735,A,4630.059,N,00640.226,E,00.5,338,040913,,,A*41
$IIVHW,,,212,M,00.0,N,,*65
$IIVLW,01458,N,000.0,N*5B
$IIDPT,017.5,-1.0,*43
$IIGLL,4630.059,N,00640.226,E,165736,A,A*59
$IIHDG,212,,,,*56
$IIMTW,+21.0,C*3B
$IIRMC,165736,A,4630.059,N,00640.226,E,00.8,328,040913,,,A*4E
$IIVHW,,,212,M,00.0,N,,*65
$IIVLW,01458,N,000.0,N*5B
$IIDPT,017.4,-1.0,*42
$IIGLL,4630.059,N,00640.226,E,165737,A,A*58
$GPRMB,A,0.00,L,,PERF,4622.300,N,00619.430,E,296.407,227.1,,V,A*74
$GPRMB,A12,,,,*24
$IIMTW,+21.0,C*3B
$IIRMC,165737,A,4630.059,N,00640.226,E,00.6,319,040913,,,A*43
$IIVHW,,,212,M,00.0,N,,*65
$IIVLW,01458,N,000.0,N*5B
$IIDPT,017.3,-1.0,*45
$IIGLL,4630.058,N,00640.226,E,165738,A,A*56
$IIHDG,212,,,,*56
$IIMTW,+21.0,C*3B
$IIRMC,165738,A,4630.058,N,00640.226,E,00.5,312,040913,,,A*45
$IIVHW,,,212,M,00.0,N,,*65
$IIVLW,01458,N,000.0,N*5B
$IIDPT,016.8,-1.0,*4F
$IIGLL,4630.058,N,00640.226,E,165739,A,A*57
$IIHDG,212,,,,*56
$IIMTW,+21.0,C*3B
$IIRMC,165739,A,4630.058,N,00640.226,E,00.7,305,040913,,,A*40
$IIVHW,,,212,M,00.0,N,,*65
$IIVLW,01458,N,000.0,N*5B
$IIDPT,016.8,-1.0,*4F
$IIGLL,4630.058,N,00640.226,E,165740,A,A*59
$GPRMB,A,0.00,L,,PERF,4622.300,N,00619.430,E,260.083,227.1,,V,A*75
$GPRMB,A12,,,,*24
$IIMTW,+21.0,C*3B
$IIRMC,165740,A,4630.058,N,00640.226,E,00.5,298,040913,,,A*49
$IIVHW,,,212,M,00.0,N,,*65
$IIVLW,01458,N,000.0,N*5B
$IIDPT,016.6,-1.0,*41
$IIGLL,4630.058,N,00640.226,E,165741,A,A*58
$IIHDG,212,,,,*56
$IIMTW,+21.0,C*3B
$IIRMC,165741,A,4630.058,N,00640.226,E,00.5,291,040913,,,A*41
$IIVHW,,,212,M,00.0,N,,*65
$IIVLW,01458,N,000.0,N*5B
$IIDPT,016.6,-1.0,*41
$IIGLL,4630.058,N,00640.226,E,165742,A,A*5B
$IIHDG,212,,,,*56
$IIMTW,+21.0,C*3B
$IIRMC,165742,A,4630.058,N,00640.226,E,00.5,285,040913,,,A*47
$IIVHW,,,212,M,00.0,N,,*65
$IIVLW,01458,N,000.0,N*5B
$IIDPT,016.6,-1.0,*41
$IIGLL,4630.058,N,00640.226,E,165743,A,A*5A
$GPRMB,A,0.00,L,,PERF,4622.300,N,00619.430,E,185.981,227.1,,V,A*76
$GPRMB,A12,,,,*24
$IIMTW,+21.0,C*3B
$IIRMC,165743,A,4630.058,N,00640.226,E,00.6,279,040913,,,A*46
$IIVHW,,,212,M,00.0,N,,*65
$IIVLW,01458,N,000.0,N*5B
$IIDPT,016.6,-1.0,*41
$IIGLL,4630.058,N,00640.226,E,165744,A,A*5D
$IIHDG,212,,,,*56
$IIMTW,+21.0,C*3B
$IIRMC,165744,A,4630.058,N,00640.226,E,00.6,273,040913,,,A*4B
$IIVHW,,,212,M,00.0,N,,*65
$IIVLW,01458,N,000.0,N*5B
$IIDPT,016.6,-1.0,*41
$IIGLL,4630.057,N,00640.226,E,165745,A,A*53
$IIHDG,212,,,,*56
$IIMTW,+21.0,C*3B
$IIRMC,165745,A,4630.057,N,00640.226,E,00.4,268,040913,,,A*4D
$IIVHW,,,212,M,00.0,N,,*65
$IIVLW,01458,N,000.0,N*5B
$GPRMB,A,0.00,L,,PERF,4622.300,N,00619.430,E,148.203,227.1,,V,A*76
$IIGLL,4630.057,N,00640.225,E,165747,A,A*52
$IIMWV,270,R,01.7,N,A*10
$IIRMC,165747,A,4630.057,N,00640.225,E,00.6,259,040913,,,A*4C
$IIVWR,090,L,01.7,N,,,,*70
$IIGLL,4630.057,N,00640.225,E,165748,A,A*5D
$IIMWV,237,R,01.7,N,A*13
$IIMWV,250,T,01.8,N,A*1B
$IIRMC,165748,A,4630.057,N,00640.225,E,00.5,255,040913,,,A*4C
$IIVWR,123,L,01.7,N,,,,*79
$GPRMB,A,0.00,L,,PERF,4622.300,N,00619.430,E,5.647,227.1,,V,A*7A
$IIGLL,4630.057,N,00640.225,E,165749,A,A*5C
$IIMWV,245,R,01.7,N,A*16
$IIMWV,225,T,01.9,N,A*18
$IIRMC,165749,A,4630.057,N,00640.225,E,00.6,251,040913,,,A*4A
$IIVWR,115,L,01.7,N,,,,*7C
$IIGLL,4630.057,N,00640.225,E,165750,A,A*54
$IIMWV,251,R,04.2,N,A*13
$IIMWV,229,T,01.9,N,A*14
$IIRMC,165750,A,4630.057,N,00640.225,E,00.4,248,040913,,,A*48
$IIVWR,109,L,04.2,N,,,,*71
$IIGLL,4630.056,N,00640.225,E,165751,A,A*54
$IIMWV,247,R,02.0,N,A*10
$IIMWV,247,T,04.2,N,A*12
$IIRMC,165751,A,4630.056,N,00640.225,E,00.7,244,040913,,,A*47
$IIVWR,113,L,02.0,N,,,,*7E
$GPRMB,A,0.00,L,,PERF,4622.300,N,00619.430,E,9.022,227.1,,V,A*73
$IIGLL,4630.056,N,00640.225,E,165752,A,A*57
$IIMWV,258,R,01.8,N,A*15
$IIMWV,232,T,02.2,N,A*16
$IIRMC,165752,A,4630.056,N,00640.225,E,00.5,240,040913,,,A*42
$IIVWR,102,L,01.8,N,,,,*75
$IIGLL,4630.056,N,00640.225,E,165753,A,A*56
$IIMWV,251,R,03.2,N,A*14
$IIMWV,245,T,01.8,N,A*1F
$IIRMC,165753,A,4630.056,N,00640.225,E,00.5,237,040913,,,A*43
$IIVWR,109,L,03.2,N,,,,*76
$IIGLL,4630.056,N,00640.225,E,165754,A,A*51
$IIMWV,257,R,02.4,N,A*15
$IIMWV,243,T,03.3,N,A*10
$IIRMC,165754,A,4630.056,N,00640.225,E,00.6,234,040913,,,A*44
$IIVWR,103,L,02.4,N,,,,*7B
$GPRMB,A,0.00,L,,PERF,4622.300,N,00619.430,E,8.960,227.1,,V,A*7D
$IIGLL,4630.056,N,00640.225,E,165755,A,A*50
$IIHDG,210,,,,*54
$IIMWV,253,R,02.1,N,A*14
$IIMWV,244,T,02.5,N,A*10
$IIRMC,165755,A,4630.056,N,00640.225,E,00.5,231,040913,,,A*43
$IIVHW,,,210,M,,,,*37
$IIVWR,107,L,02.1,N,,,,*7A
$IIGLL,4630.056,N,00640.225,E,165756,A,A*53
$IIHDG,209,,,,*5C
$IIMTW,+00.0,C*38
$IIMWV,264,R,02.2,N,A*13
$IIMWV,241,T,02.2,N,A*12
$IIRMC,165756,A,4630.056,N,00640.225,E,00.6,228,040913,,,A*4B
$IIVHW,,,209,M,00.0,N,,*6F
$IIVLW,01458,N,000.0,N*5B
$IIVWR,096,L,02.2,N,,,,*70
$IIGLL,4630.055,N,00640.225,E,165757,A,A*51
$IIHDG,208,,,,*5D
$IIMTW,+20.5,C*3F
$IIMWV,250,R,02.4,N,A*12
$IIMWV,264,T,02.2,N,A*15
$IIRMC,165757,A,4630.055,N,00640.225,E,00.5,225,040913,,,A*47
$IIVHW,,,208,M,00.0,N,,*6E
$IIVLW,01458,N,000.0,N*5B
$GPRMB,A,0.00,L,,PERF,4622.300,N,00619.430,E,1.726,227.1,,V,A*78
$GPRMB,A,0.0,02.4,N,,,,*73
$IIDPT,014.4,-1.0,*41
$IIGLL,4630.055,N,00640.225,E,165758,A,A*5E
$IIHDG,208,,,,*5D
$IIMTW,+21.0,C*3B
$IIMWV,259,R,02.5,N,A*1A
$IIMWV,250,T,02.4,N,A*14
$IIRMC,165758,A,4630.055,N,00640.225,E,00.6,222,040913,,,A*4C
$IIVHW,,,208,M,00.0,N,,*6E
$IIVLW,01458,N,000.0,N*5B
$IIVWR,098,L,02.6,N,,,,*7A
$IIDPT,015.9,-1.0,*4D
$IIGLL,4630.055,N,00640.225,E,165759,A,A*5F
$IIHDG,207,,,,*52
$IIMTW,+21.0,C*3B
$IIMWV,262,R,02.6,N,A*11
$IIMWV,259,T,02.5,N,A*1C
$IIRMC,165759,A,4630.055,N,00640.225,E,00.5,220,040913,,,A*4C
$IIVHW,,,207,M,00.0,N,,*61
$IIVLW,01458,N,000.0,N*5B
$IIVWR,104,L,02.6,N,,,,*7E
$IIDPT,015.9,-1.0,*4D
$IIGLL,4630.055,N,00640.225,E,165800,A,A*5C
$IIHDG,206,,,,*53
$IIMTW,+21.0,C*3B
$IIMWV,256,R,02.6,N,A*16
$IIMWV,262,T,02.6,N,A*17
$GPRMB,A,0.00,L,,PERF,4622.300,N,00619.430,E,2.298,227.1,,V,A*7B
$GPRMB,A,0.00,L,,PERF,4622.300,N,00619.430,E,2.298,223,,,A*36
$IIVHW,,,205,M,00.0,N,,*63
$IIVLW,01458,N,000.0,N*5B
$IIVWR,099,L,02.6,N,,,,*7B
$IIDPT,015.9,-1.0,*4D
$IIGLL,4630.055,N,00640.225,E,165801,A,A*5D
$IIHDG,205,,,,*50
$IIMTW,+21.0,C*3B
$IIMWV,261,R,02.6,N,A*12
$IIMWV,256,T,02.6,N,A*10
$IIRMC,165802,A,4630.054,N,00640.225,E,00.6,212,040913,,,A*4E
$IIVHW,,,204,M,00.0,N,,*62
$IIVLW,01458,N,000.0,N*5B
$IIVWR,068,L,02.8,N,,,,*7B
$IIDPT,015.9,-1.0,*4D
$IIGLL,4630.054,N,00640.225,E,165802,A,A*5F
$IIHDG,204,,,,*51
$IIMTW,+21.0,C*3B
$IIMWV,292,R,02.8,N,A*10
$IIMWV,292,T,02.8,N,A*16
$IIRMC,165803,A,4630.054,N,00640.225,E,00.6,210,040913,,,A*4D
$IIVHW,,,203,M,00.0,N,,*65
$IIVLW,01458,N,000.0,N*5B
$IIVWR,098,L,01.8,N,,,,*77
$IIDPT,016.3,-1.0,*44
$IIGLL,4630.054,N,00640.225,E,165803,A,A*5E
$IIHDG,203,,,,*56
$GPRMB,A,0.00,L,,PERF,4622.300,N,00619.430,E,9.981,227.1,,V,A*73
$GPRMB,+21.0,C*3F
$IIMWV,277,R,01.9,N,A*19
$IIMWV,262,T,01.8,N,A*1A
$IIRMC,165804,A,4630.054,N,00640.225,E,00.6,208,040913,,,A*43
$IIVHW,,,202,M,00.0,N,,*64
$IIVLW,01458,N,000.0,N*5B
$IIVWR,083,L,01.9,N,,,,*7C
$IIDPT,016.3,-1.0,*44
$IIGLL,4630.054,N,00640.225,E,165804,A,A*59
$IIHDG,202,,,,*57
$IIMTW,+21.0,C*3B
$IIMWV,263,R,01.9,N,A*1C
$IIMWV,269,T,03.1,N,A*1A
$IIRMC,165806,A,4630.053,N,00640.225,E,00.6,204,040913,,,A*4A
$IIVHW,,,200,M,00.0,N,,*66
$IIVLW,01458,N,000.0,N*5B
$IIVWR,097,L,01.9,N,,,,*79
$IIDPT,016.3,-1.0,*44
$GPRMB,A,0.00,L,,PERF,4622.300,N,00619.430,E,0.344,227.1,,V,A*79
$GPRMB,A,0.00,L,,PERF,4.225,E,165806,A,A*3E
$IIHDG,199,,,,*56
$IIMTW,+21.0,C*3B
$IIMWV,278,R,02.0,N,A*1C
$IIMWV,263,T,01.9,N,A*1A
$IIRMC,165807,A,4630.053,N,00640.224,E,00.6,202,040913,,,A*4C
$IIVHW,,,199,M,00.0,N,,*65
$IIVLW,01458,N,000.0,N*5B
$IIVWR,082,L,02.0,N,,,,*77
$IIDPT,016.5,-1.0,*42
$IIGLL,4630.053,N,00640.224,E,165808,A,A*53
$IIHDG,197,,,,*58
$IIMTW,+21.0,C*3B
$IIMWV,265,R,04.1,N,A*17
$IIMWV,278,T,02.0,N,A*1A
$IIRMC,165808,A,4630.053,N,00640.224,E,00.6,200,040913,,,A*41
$IIVHW,,,197,M,00.0,N,,*6B
$IIVLW,01458,N,000.0,N*5B
$IIVWR,095,L,04.1,N,,,,*76
$IIDPT,016.2,-1.0,*45
$IIGLL,4630.053,N,00640.224,E,165809,A,A*52
$IIHDG,197,,,,*58
$IIMTW,+21.0,C*3B
$IIMWV,006,R,00.0,N,A*15
$IIMWV,265,T,04.1,N,A*11
$IIRMC,165809,A,4630.053,N,00640.224,E,00.6,198,040913,,,A*42
$IIVHW,,,197,M,00.0,N,,*6B
$GPRMB,A,0.00,L,,PERF,4622.300,N,00619.430,E,1.720,227.1,,V,A*7E
$GPRMB,A,0.00,L000.0,N*39
$IIVWR,067,L,03.2,N,,,,*7F
$IIDPT,016.2,-1.0,*45
$IIGLL,4630.052,N,00640.224,E,165810,A,A*5B
$IIHDG,195,,,,*5A
$IIMTW,+21.0,C*3B
$IIMWV,293,R,03.2,N,A*1A
$IIMWV,006,T,00.0,N,A*13
$IIRMC,165810,A,4630.052,N,00640.224,E,00.6,196,040913,,,A*45
$IIVHW,,,195,M,00.0,N,,*69
$IIVLW,01458,N,000.0,N*5B
$IIVWR,088,L,03.0,N,,,,*7C
$IIDPT,016.0,-1.0,*47
$IIGLL,4630.052,N,00640.224,E,165811,A,A*5A
$IIHDG,194,,,,*5B
$IIMTW,+21.0,C*3B
$IIMWV,272,R,03.0,N,A*17
$IIMWV,293,T,03.2,N,A*1C
$IIRMC,165811,A,4630.052,N,00640.224,E,00.7,194,040913,,,A*47
$IIVHW,,,192,M,00.0,N,,*6E
$IIVLW,01458,N,000.0,N*5B
$IIVWR,043,L,02.5,N,,,,*7F
$IIDPT,016.0,-1.0,*47
$IIGLL,4630.052,N,00640.224,E,165812,A,A*59
$IIHDG,192,,,,*5D
$IIMTW,+21.0,C*3B
$IIMWV,317,R,02.5,N,A*11
$IIMWV,272,T,03.0,N,A*11
$GPRMB,A,0.00,L,,PERF,4622.300,N,00619.430,E,1.088,227.1,,V,A*7B
$IIRMC,165813,A,4630.051,N,00640.224,E,00.6,191,040913,,,A*42
$IIVHW,,,192,M,00.0,N,,*6E
$IIVLW,01458,N,000.0,N*5B
$IIVWR,076,L,02.2,N,,,,*7E
$IIDPT,016.0,-1.0,*47
$IIGLL,4630.051,N,00640.224,E,165813,A,A*5B
$IIHDG,192,,,,*5D
$IIMTW,+21.0,C*3B
$IIMWV,284,R,02.2,N,A*1D
$IIMWV,284,T,02.2,N,A*1B
$IIRMC,165813,A,4630.051,N,00640.224,E,00.6,191,040913,,,A*42
$IIVHW,,,191,M,00.0,N,,*6D
$IIVLW,01458,N,000.0,N*5B
$IIVWR,063,L,02.9,N,,,,*71
$IIDPT,016.0,-1.0,*47
$IIGLL,4630.051,N,00640.224,E,165813,A,A*5B
$IIHDG,191,,,,*5E
$IIMTW,+21.0,C*3B
$IIMWV,283,R,02.7,N,A*1F
$IIMWV,297,T,02.9,N,A*12
$IIRMC,165815,A,4630.051,N,00640.224,E,00.6,188,040913,,,A*4C
$IIVHW,,,189,M,00.0,N,,*64
$IIVLW,01458,N,000.0,N*5B
$IIVWR,077,L,02.7,N,,,,*7A
$IIDPT,016.0,-1.0,*47
$IIGLL,4630.051,N,00640.224,E,165815,A,A*5D
$GPRMB,A,0.00,L,,PERF,4622.300,N,00619.430,E,12.096,227.1,,V,A*46
$IIHDG,189,,,,*57
$IIMTW,+21.0,C*3B
$IIMWV,299,R,04.1,N,A*14
$IIMWV,283,T,02.7,N,A*19
$IIRMC,165816,A,4630.051,N,00640.224,E,00.7,186,040913,,,A*40
$IIVHW,,,189,M,00.0,N,,*64
$IIVLW,01458,N,000.0,N*5B
$IIVWR,061,L,04.1,N,,,,*7D
$IIDPT,016.0,-1.0,*47
$IIGLL,4630.051,N,00640.224,E,165816,A,A*5E
$IIHDG,188,,,,*56
$IIMTW,+21.0,C*3B
$IIMWV,290,R,02.9,N,A*13
$IIMWV,299,T,04.1,N,A*12
$IIRMC,165817,A,4630.051,N,00640.224,E,00.7,183,040913,,,A*44
$IIVHW,,,188,M,00.0,N,,*65
$IIVLW,01458,N,000.0,N*5B
$IIVWR,070,L,02.9,N,,,,*73
$IIDPT,016.5,-1.0,*42
$IIGLL,4630.050,N,00640.224,E,165818,A,A*51
$IIHDG,187,,,,*59
$IIMTW,+21.0,C*3B
$IIMWV,293,R,03.4,N,A*1C
$IIMWV,290,T,02.9,N,A*15
$IIRMC,165818,A,4630.050,N,00640.224,E,00.6,182,040913,,,A*4A
$IIVHW,,,187,M,00.0,N,,*6A
$IIVLW,01458,N,000.0,N*5B
$GPRMB,A,0.00,L,,PERF,4622.300,N,00619.430,E,9.113,227.1,,V,A*70
$GPRMB,A,0.0,03.4,N,,,,*72
$IIDPT,016.4,-1.0,*43
$IIGLL,4630.050,N,00640.224,E,165818,A,A*51
$IIHDG,185,,,,*5B
$IIMTW,+21.0,C*3B
$IIMWV,274,R,02.6,N,A*16
$IIMWV,293,T,03.4,N,A*1A
$IIRMC,165818,A,4630.050,N,00640.224,E,00.6,182,040913,,,A*4A
$IIVHW,,,185,M,00.0,N,,*68
$IIVLW,01458,N,000.0,N*5B
$IIVWR,061,L,02.9,N,,,,*73
$IIDPT,016.4,-1.0,*43
$IIGLL,4630.050,N,00640.224,E,165820,A,A*5A
$IIHDG,185,,,,*5B
$IIMTW,+21.5,C*3E
$IIMWV,299,R,02.9,N,A*1A
$IIMWV,274,T,02.6,N,A*10
$IIRMC,165820,A,4630.050,N,00640.224,E,00.7,180,040913,,,A*42
$IIVHW,,,185,M,00.0,N,,*68
$IIVLW,01458,N,000.0,N*5B
$IIVWR,066,L,03.1,N,,,,*7D
$IIDPT,015.9,-1.0,*4D
$IIGLL,4630.050,N,00640.224,E,165821,A,A*5B
$IIHDG,185,,,,*5B
$IIMTW,+21.5,C*3E
$IIMWV,294,R,03.1,N,A*1E
$IIMWV,299,T,02.9,N,A*1C
$GPRMB,A,0.00,L,,PERF,4622.300,N,00619.430,E,15.112,227.1,,V,A*4C
$GPRMB,A,0.00,L,,PERF,4622.300,N,00619.430,E,15.112,13,,,A*30
$IIVHW,,,183,M,00.0,N,,*6E
$IIVLW,01458,N,000.0,N*5B
$IIVWR,006,R,00.0,N,,,,*67
$IIDPT,015.9,-1.0,*4D
$IIGLL,4630.050,N,00640.224,E,165822,A,A*58
$IIHDG,183,,,,*5D
$IIMTW,+21.5,C*3E
$IIMWV,006,R,00.0,N,A*15
$IIMWV,294,T,03.1,N,A*18
$IIRMC,165823,A,4630.050,N,00640.224,E,00.7,176,040913,,,A*48
$IIVHW,,,183,M,00.0,N,,*6E
$IIVLW,01458,N,000.0,N*5B
$IIVWR,057,L,03.1,N,,,,*7F
$IIDPT,015.9,-1.0,*4D
$IIGLL,4630.050,N,00640.224,E,165823,A,A*59
$IIHDG,183,,,,*5D
$IIMTW,+21.5,C*3E
$IIMWV,303,R,03.1,N,A*11
$IIMWV,303,T,03.1,N,A*17
$IIRMC,165824,A,4630.049,N,00640.225,E,00.7,176,040913,,,A*46
$IIVHW,,,182,M,00.0,N,,*6F
$IIVLW,01458,N,000.0,N*5B
$IIVWR,043,L,03.2,N,,,,*79
$IIDPT,015.9,-1.0,*4D
$IIGLL,4630.049,N,00640.225,E,165824,A,A*57
$IIHDG,182,,,,*5C
$GPRMB,A,0.00,L,,PERF,4622.300,N,00619.430,E,16.977,227.1,,V,A*44
$GPRMB,+21.5,C*3A
$IIMWV,298,R,02.6,N,A*14
$IIMWV,317,T,03.2,N,A*11
$IIRMC,165825,A,4630.049,N,00640.225,E,00.7,175,040913,,,A*44
$IIVHW,,,181,M,00.0,N,,*6C
$IIVLW,01458,N,000.0,N*5B
$IIVWR,062,L,02.6,N,,,,*7F
$IIDPT,015.9,-1.0,*4D
$IIGLL,4630.049,N,00640.225,E,165825,A,A*56
$IIHDG,181,,,,*5F
$IIMTW,+21.5,C*3E
$IIMWV,310,R,03.1,N,A*13
$IIMWV,298,T,02.6,N,A*12
$IIRMC,165826,A,4630.049,N,00640.225,E,00.7,173,040913,,,A*41
$IIVHW,,,180,M,00.0,N,,*6D
$IIVLW,01458,N,000.0,N*5B
$IIVWR,050,L,03.1,N,,,,*78
$IIDPT,015.9,-1.0,*4D
$IIGLL,4630.049,N,00640.225,E,165826,A,A*55
$IIHDG,179,,,,*58
$IIMTW,+21.5,C*3E
$IIMWV,294,R,02.4,N,A*1A
$IIMWV,310,T,03.1,N,A*15
$IIRMC,165827,A,4630.049,N,00640.226,E,00.7,173,040913,,,A*43
$IIVHW,,,179,M,00.0,N,,*6B
$IIVLW,01458,N,000.0,N*5B
$IIVWR,066,L,02.4,N,,,,*79
$IIDPT,015.9,-1.0,*4D
$GPRMB,A,0.00,L,,PERF,4622.300,N,00619.430,E,20.037,227.1,,V,A*4C
$IIGLL,4630.049,N,00640.226,E,165828,A,A*58
$IIHDG,179,,,,*58
$IIMTW,+21.5,C*3E
$IIMWV,301,R,04.0,N,A*15
$IIMWV,294,T,02.4,N,A*1C
$IIRMC,165828,A,4630.049,N,00640.226,E,00.7,172,040913,,,A*4D
$IIVHW,,,179,M,00.0,N,,*6B
$IIVLW,01458,N,000.0,N*5B
$IIVWR,059,L,04.0,N,,,,*77
$IIDPT,015.9,-1.0,*4D
$IIGLL,4630.049,N,00640.226,E,165829,A,A*59
$IIHDG,179,,,,*58
$IIMTW,+21.5,C*3E
$IIMWV,296,R,02.7,N,A*1B
$IIMWV,301,T,04.0,N,A*13
$IIRMC,165829,A,4630.049,N,00640.226,E,00.8,171,040913,,,A*40
$IIVHW,,,179,M,00.0,N,,*6B
$IIVLW,01458,N,000.0,N*5B
$IIVWR,056,L,03.1,N,,,,*7E
$IIDPT,015.9,-1.0,*4D
$IIGLL,4630.049,N,00640.226,E,165830,A,A*51
$IIHDG,178,,,,*59
$IIMTW,+21.5,C*3E
$IIMWV,304,R,03.1,N,A*16
$IIMWV,296,T,02.7,N,A*1D
$IIRMC,165830,A,4630.049,N,00640.226,E,00.7,170,040913,,,A*46
$GPRMB,A,0.00,L,,PERF,4622.300,N,00619.430,E,13.665,227.1,,V,A*4D
$GPRMB,A,0.00,L,,.0,N,,*09
$IIVLW,01458,N,000.0,N*5B
$IIVWR,062,L,04.0,N,,,,*7F
$IIDPT,015.9,-1.0,*4D
$IIGLL,4630.048,N,00640.226,E,165831,A,A*51
$IIHDG,178,,,,*59
$IIMTW,+21.5,C*3E
$IIMWV,298,R,04.0,N,A*14
$IIMWV,304,T,03.1,N,A*10
$IIRMC,165831,A,4630.048,N,00640.226,E,00.7,169,040913,,,A*4E
$IIVHW,,,178,M,00.0,N,,*6A
$IIVLW,01458,N,000.0,N*5B
$IIVWR,064,L,02.6,N,,,,*79
$IIDPT,015.9,-1.0,*4D
$IIGLL,4630.048,N,00640.227,E,165832,A,A*53
$IIHDG,178,,,,*59
$IIMTW,+21.5,C*3E
$IIMWV,296,R,02.6,N,A*1A
$IIMWV,298,T,04.0,N,A*12
$IIRMC,165833,A,4630.048,N,00640.227,E,00.7,168,040913,,,A*4C
$IIVHW,,,178,M,00.0,N,,*6A
$IIVLW,01458,N,000.0,N*5B
$IIVWR,059,L,03.1,N,,,,*71
$IIDPT,016.1,-1.0,*46
$IIGLL,4630.048,N,00640.227,E,165833,A,A*52
$IIHDG,178,,,,*59
$IIMTW,+21.5,C*3E
$GPRMB,A,0.00,L,,PERF,4622.300,N,00619.430,E,14.634,227.1,,V,A*4E
$GPRMB,A,0.0003.1,N,A*06
$IIMWV,301,T,03.1,N,A*15
$IIRMC,165834,A,4630.048,N,00640.227,E,00.7,167,040913,,,A*44
$IIVHW,,,177,M,00.0,N,,*65
$IIVLW,01458,N,000.0,N*5B
$IIVWR,058,L,02.4,N,,,,*74
$IIDPT,016.1,-1.0,*46
$IIGLL,4630.048,N,00640.227,E,165834,A,A*55
$IIHDG,177,,,,*56
$IIMTW,+21.5,C*3E
$IIMWV,303,R,03.0,N,A*10
$IIMWV,302,T,02.4,N,A*12
$IIRMC,165835,A,4630.048,N,00640.227,E,00.5,167,040913,,,A*47
$IIVHW,,,177,M,00.0,N,,*65
$IIVLW,01458,N,000.0,N*5B
$IIVWR,057,L,03.0,N,,,,*7E
$IIDPT,016.1,-1.0,*46
$IIGLL,4630.048,N,00640.227,E,165835,A,A*54
$IIHDG,177,,,,*56
$IIMTW,+21.0,C*3B
$IIMWV,310,R,02.5,N,A*16
$IIMWV,303,T,03.0,N,A*16
$IIRMC,165836,A,4630.048,N,00640.227,E,00.7,167,040913,,,A*46
$IIVHW,,,177,M,00.0,N,,*65
$IIVLW,01458,N,000.0,N*5B
$IIVWR,050,L,02.5,N,,,,*7D
$IIDPT,016.1,-1.0,*46
$GPRMB,A,0.00,L,,PERF,4622.300,N,00619.430,E,16.977,227.1,,V,A*44
$GPRMB,A,0.00,L,,PERF,46227,E,165836,A,A*27
$IIHDG,177,,,,*56
$IIMTW,+21.0,C*3B
$IIMWV,294,R,03.0,N,A*1F
$IIMWV,310,T,02.5,N,A*10
$IIRMC,165836,A,4630.048,N,00640.227,E,00.7,167,040913,,,A*46
$IIVHW,,,177,M,00.0,N,,*65
$IIVLW,01458,N,000.0,N*5B
$IIVWR,066,L,03.0,N,,,,*7C
$IIDPT,016.1,-1.0,*46
$IIGLL,4630.047,N,00640.227,E,165838,A,A*56
$IIHDG,177,,,,*56
$IIMTW,+21.0,C*3B
$IIMWV,302,R,02.5,N,A*15
$IIMWV,294,T,03.0,N,A*19
$IIRMC,165838,A,4630.047,N,00640.227,E,00.7,166,040913,,,A*46
$IIVHW,,,177,M,00.0,N,,*65
$IIVLW,01458,N,000.0,N*5B
$IIVWR,058,L,02.5,N,,,,*75
$IIDPT,016.1,-1.0,*46
$IIGLL,4630.047,N,00640.227,E,165839,A,A*57
$IIHDG,177,,,,*56
$IIMTW,+21.5,C*3E
$IIMWV,304,R,03.0,N,A*17
$IIMWV,302,T,02.5,N,A*13
$IIRMC,165839,A,4630.047,N,00640.227,E,00.7,165,040913,,,A*44
$IIVHW,,,177,M,00.0,N,,*65
$GPRMB,A,0.00,L,,PERF,4622.300,N,00619.430,E,16.519,227.1,,V,A*40
$GPRMB,A,0.00,L,,P.0,N*59
$IIVWR,054,L,02.7,N,,,,*7B
$IIDPT,016.1,-1.0,*46
$IIGLL,4630.047,N,00640.227,E,165840,A,A*59
$IIHDG,177,,,,*56
$IIMTW,+21.5,C*3E
$IIMWV,306,R,02.7,N,A*13
$IIMWV,304,T,03.0,N,A*11
$IIRMC,165840,A,4630.047,N,00640.227,E,00.7,165,040913,,,A*4A
$IIVHW,,,177,M,00.0,N,,*65
$IIVLW,01458,N,000.0,N*5B
$IIVWR,061,L,03.4,N,,,,*7F
$IIDPT,015.3,-1.0,*47
$IIGLL,4630.047,N,00640.228,E,165841,A,A*57
$IIHDG,177,,,,*56
$IIMTW,+21.5,C*3E
$IIMWV,299,R,03.4,N,A*16
$IIMWV,306,T,02.7,N,A*15
$IIRMC,165841,A,4630.047,N,00640.228,E,00.7,164,040913,,,A*45
$IIVHW,,,177,M,00.0,N,,*65
$IIVLW,01458,N,000.0,N*5B
$IIVWR,045,L,02.8,N,,,,*74
$IIDPT,015.3,-1.0,*47
$IIGLL,4630.047,N,00640.228,E,165842,A,A*54
$IIHDG,177,,,,*56
$IIMTW,+21.5,C*3E
$IIMWV,315,R,02.8,N,A*1E
$IIMWV,299,T,03.4,N,A*10
$GPRMB,A,0.00,L,,PERF,4622.300,N,00619.430,E,15.112,227.1,,V,A*4C
$IIRMC,165843,A,4630.047,N,00640.228,E,00.7,164,040913,,,A*47
$IIVHW,,,177,M,00.0,N,,*65
$IIVLW,01458,N,000.0,N*5B
$IIVWR,047,L,03.1,N,,,,*7E
$IIDPT,015.3,-1.0,*47
$IIGLL,4630.047,N,00640.228,E,165843,A,A*55
$IIHDG,177,,,,*56
$IIMTW,+21.5,C*3E
$IIMWV,313,R,03.1,N,A*10
$IIMWV,313,T,03.1,N,A*16
$IIRMC,165844,A,4630.046,N,00640.228,E,00.7,163,040913,,,A*46
$IIVHW,,,177,M,00.0,N,,*65
$IIVLW,01458,N,000.0,N*5B
$IIVWR,065,L,03.2,N,,,,*7D
$IIDPT,015.3,-1.0,*47
$IIGLL,4630.046,N,00640.228,E,165844,A,A*53
$IIHDG,177,,,,*56
$IIMTW,+21.5,C*3E
$IIMWV,322,R,02.4,N,A*16
$IIMWV,295,T,03.2,N,A*1A
$IIRMC,165845,A,4630.046,N,00640.228,E,00.7,163,040913,,,A*47
$IIVHW,,,177,M,00.0,N,,*65
$IIVLW,01458,N,000.0,N*5B
$IIVWR,038,L,02.4,N,,,,*72
$IIDPT,015.3,-1.0,*47
$IIGLL,4630.046,N,00640.228,E,165845,A,A*52
$GPRMB,A,0.00,L,,PERF,4622.300,N,00619.430,E,13.174,227.1,,V,A*4A
$IIHDG,177,,,,*56
$IIMTW,+21.5,C*3E
$IIMWV,301,R,04.1,N,A*14
$IIMWV,322,T,02.4,N,A*10
$IIRMC,165846,A,4630.046,N,00640.228,E,00.7,162,040913,,,A*45
$IIVHW,,,176,M,00.0,N,,*64
$IIVLW,01458,N,000.0,N*5B
$IIVWR,059,L,04.1,N,,,,*76
$IIDPT,015.3,-1.0,*47
$IIGLL,4630.046,N,00640.228,E,165846,A,A*51
$IIHDG,176,,,,*57
$IIMTW,+21.5,C*3E
$IIMWV,321,R,02.7,N,A*16
$IIMWV,301,T,04.1,N,A*12
$IIRMC,165847,A,4630.046,N,00640.228,E,00.7,162,040913,,,A*44
$IIVHW,,,176,M,00.0,N,,*64
$IIVLW,01458,N,000.0,N*5B
$IIVWR,039,L,02.7,N,,,,*70
$IIDPT,014.8,-1.0,*4D
$IIGLL,4630.046,N,00640.228,E,165848,A,A*5F
$IIHDG,176,,,,*57
$IIMTW,+21.5,C*3E
$IIMWV,313,R,03.3,N,A*12
$IIMWV,321,T,02.7,N,A*10
$IIRMC,165848,A,4630.046,N,00640.228,E,00.7,162,040913,,,A*4B
$IIVHW,,,176,M,00.0,N,,*64
$IIVLW,01458,N,000.0,N*5B
$GPRMB,A,0.00,L,,PERF,4622.300,N,00619.430,E,24.225,227.1,,V,A*49
$GPRMB,A,0.00,3.3,N,,,,*75
$IIDPT,014.5,-1.0,*40
$IIGLL,4630.046,N,00640.229,E,165849,A,A*5F
$IIHDG,176,,,,*57
$IIMTW,+21.5,C*3E
$IIMWV,297,R,02.6,N,A*1B
$IIMWV,313,T,03.3,N,A*14
$IIRMC,165849,A,4630.046,N,00640.229,E,00.7,161,040913,,,A*48
$IIVHW,,,176,M,00.0,N,,*64
$IIVLW,01458,N,000.0,N*5B
$IIVWR,049,L,03.3,N,,,,*72
$IIDPT,014.5,-1.0,*40
$IIGLL,4630.046,N,00640.229,E,165849,A,A*5F
$IIHDG,175,,,,*54
$IIMTW,+21.5,C*3E
$IIMWV,311,R,03.3,N,A*10
$IIMWV,297,T,02.6,N,A*1D
$IIRMC,165849,A,4630.046,N,00640.229,E,00.7,161,040913,,,A*48
$IIVHW,,,175,M,00.0,N,,*67
$IIVLW,01458,N,000.0,N*5B
$IIVWR,073,L,02.6,N,,,,*7F
$IIDPT,014.5,-1.0,*40
$IIGLL,4630.045,N,00640.229,E,165851,A,A*55
$IIHDG,175,,,,*54
$IIMTW,+21.5,C*3E
$IIMWV,287,R,02.6,N,A*1A
$IIMWV,311,T,03.3,N,A*16
$GPRMB,A,0.00,L,,PERF,4622.300,N,00619.430,E,20.451,227.1,,V,A*48
$GPRMB,A,0.00,L,,PERF,4622.300,N,00619.430,E,20.451,23,,,A*37
$IIVHW,,,175,M,00.0,N,,*67
$IIVLW,01458,N,000.0,N*5B
$IIVWR,040,L,03.1,N,,,,*79
$IIDPT,014.5,-1.0,*40
$IIGLL,4630.045,N,00640.229,E,165852,A,A*56
$IIHDG,175,,,,*54
$IIMTW,+21.5,C*3E
$IIMWV,320,R,03.1,N,A*10
$IIMWV,287,T,02.6,N,A*1C
$IIRMC,165853,A,4630.044,N,00640.229,E,00.7,160,040913,,,A*40
$IIVHW,,,175,M,00.0,N,,*67
$IIVLW,01458,N,000.0,N*5B
$IIVWR,061,L,04.0,N,,,,*7C
$IIDPT,014.5,-1.0,*40
$IIGLL,4630.044,N,00640.229,E,165853,A,A*56
$IIHDG,175,,,,*54
$IIMTW,+21.5,C*3E
$IIMWV,299,R,04.0,N,A*15
$IIMWV,299,T,04.0,N,A*13
$IIRMC,165854,A,4630.044,N,00640.229,E,00.7,159,040913,,,A*4D
$IIVHW,,,174,M,00.0,N,,*66
$IIVLW,01458,N,000.0,N*5B
$IIVWR,045,L,03.7,N,,,,*7A
$IIDPT,014.5,-1.0,*40
$IIGLL,4630.044,N,00640.229,E,165854,A,A*51
$IIHDG,174,,,,*55
$GPRMB,A,0.00,L,,PERF,4622.300,N,00619.430,E,15.112,227.1,,V,A*4C
$GPRMB,+21.5,C*3A
$IIMWV,298,R,02.7,N,A*15
$IIMWV,315,T,03.7,N,A*16
$IIRMC,165855,A,4630.044,N,00640.229,E,00.7,159,040913,,,A*4C
$IIVHW,,,174,M,00.0,N,,*66
$IIVLW,01458,N,000.0,N*5B
$IIVWR,062,L,02.7,N,,,,*7E
$IIDPT,015.2,-1.0,*46
$IIGLL,4630.044,N,00640.229,E,165855,A,A*50
$IIHDG,174,,,,*55
$IIMTW,+21.0,C*3B
$IIMWV,305,R,02.6,N,A*11
$IIMWV,313,T,03.1,N,A*16
$IIRMC,165857,A,4630.043,N,00640.229,E,00.7,158,040913,,,A*48
$IIVHW,,,172,M,00.0,N,,*60
$IIVLW,01458,N,000.0,N*5B
$IIVWR,055,L,02.6,N,,,,*7B
$IIDPT,015.2,-1.0,*46
$GPRMB,A,0.00,L,,PERF,4622.300,N,00619.430,E,21.259,227.1,,V,A*47
$GPRMB,A,0.00,L,,PERF,46229,E,165857,A,A*2E
$IIHDG,172,,,,*53
$IIMTW,+21.0,C*3B
$IIMWV,301,R,03.0,N,A*12
$IIMWV,305,T,02.6,N,A*17
$IIRMC,165858,A,4630.043,N,00640.230,E,00.7,158,040913,,,A*4F
$IIVHW,,,172,M,00.0,N,,*60
$IIVLW,01458,N,000.0,N*5B
$IIVWR,059,L,03.0,N,,,,*70
$IIDPT,015.2,-1.0,*46
$IIGLL,4630.043,N,00640.230,E,165859,A,A*53
$IIHDG,172,,,,*53
$IIMTW,+21.0,C*3B
$IIMWV,325,R,02.5,N,A*10
$IIMWV,301,T,03.0,N,A*14
$IIRMC,165859,A,4630.043,N,00640.230,E,00.8,157,040913,,,A*4E
$IIVHW,,,172,M,00.0,N,,*60
$IIVLW,01458,N,000.0,N*5B
$IIVWR,035,L,02.5,N,,,,*7E
$IIDPT,015.5,-1.0,*41
$IIGLL,4630.043,N,00640.230,E,165900,A,A*5E
$IIHDG,171,,,,*50
$IIMTW,+21.0,C*3B
$IIMWV,307,R,03.3,N,A*17
$IIMWV,325,T,02.5,N,A*16
$IIRMC,165900,A,4630.043,N,00640.230,E,00.7,157,040913,,,A*4C
$IIVHW,,,171,M,00.0,N,,*63
$GPRMB,A,0.00,L,,PERF,4622.300,N,00619.430,E,25.535,227.1,,V,A*4E
$GPRMB,A,0.00,L,,0.0,N*39
$IIVWR,037,L,02.6,N,,,,*7F
$IIDPT,015.6,-1.0,*42
$IIGLL,4630.042,N,00640.230,E,165901,A,A*5E
$IIHDG,171,,,,*50
$IIMTW,+21.0,C*3B
$IIMWV,323,R,02.6,N,A*15
$IIMWV,307,T,03.3,N,A*11
$IIRMC,165901,A,4630.042,N,00640.230,E,00.8,157,040913,,,A*43
$IIVHW,,,171,M,00.0,N,,*63
$IIVLW,01458,N,000.0,N*5B
$IIVWR,051,L,03.3,N,,,,*7B
$IIDPT,015.6,-1.0,*42
$IIGLL,4630.042,N,00640.231,E,165902,A,A*5C
$IIHDG,171,,,,*50
$IIMTW,+21.0,C*3B
$IIMWV,309,R,03.3,N,A*19
$IIMWV,323,T,02.6,N,A*13
$IIRMC,165902,A,4630.042,N,00640.231,E,00.7,158,040913,,,A*41
$IIVHW,,,171,M,00.0,N,,*63
$IIVLW,01458,N,000.0,N*5B
$IIVWR,041,L,02.6,N,,,,*7E
$IIDPT,015.3,-1.0,*47
$IIGLL,4630.042,N,00640.231,E,165903,A,A*5D
$IIHDG,171,,,,*50
$IIMTW,+21.0,C*3B
$IIMWV,319,R,02.6,N,A*1C
$IIMWV,309,T,03.3,N,A*1F
$GPRMB,A,0.00,L,,PERF,4622.300,N,00619.430,E,19.617,227.1,,V,A*42
$IIRMC,165904,A,4630.042,N,00640.231,E,00.7,159,040913,,,A*46
$IIVHW,,,171,M,00.0,N,,*63
$IIVLW,01458,N,000.0,N*5B
$IIVWR,040,L,03.1,N,,,,*79
$IIDPT,015.3,-1.0,*47
$IIGLL,4630.042,N,00640.231,E,165904,A,A*5A
$IIHDG,171,,,,*50
$IIMTW,+21.0,C*3B
$IIMWV,320,R,03.1,N,A*10
$IIMWV,320,T,03.1,N,A*16
$IIRMC,165905,A,4630.041,N,00640.231,E,00.8,158,040913,,,A*4A
$IIVHW,,,171,M,00.0,N,,*63
$IIVLW,01458,N,000.0,N*5B
$IIVWR,059,L,03.2,N,,,,*72
$IIDPT,015.3,-1.0,*47
$IIGLL,4630.041,N,00640.231,E,165905,A,A*58
$IIHDG,171,,,,*50
$IIMTW,+21.0,C*3B
$IIMWV,317,R,03.1,N,A*14
$IIMWV,301,T,03.2,N,A*16
$IIRMC,165906,A,4630.041,N,00640.231,E,00.7,158,040913,,,A*46
$IIVHW,,,171,M,00.0,N,,*63
$IIVLW,01458,N,000.0,N*5B
$IIVWR,043,L,03.1,N,,,,*7A
$IIDPT,015.3,-1.0,*47
$IIGLL,4630.041,N,00640.231,E,165906,A,A*5B
$GPRMB,A,0.00,L,,PERF,4622.300,N,00619.430,E,16.055,227.1,,V,A*4D
$IIHDG,171,,,,*50
$IIMTW,+21.0,C*3B
$IIMWV,314,R,03.2,N,A*14
$IIMWV,317,T,03.1,N,A*12
$IIRMC,165907,A,4630.041,N,00640.231,E,00.7,158,040913,,,A*47
$IIVHW,,,171,M,00.0,N,,*63
$IIVLW,01458,N,000.0,N*5B
$IIVWR,046,L,03.2,N,,,,*7C
$IIDPT,015.3,-1.0,*47
$IIGLL,4630.041,N,00640.231,E,165907,A,A*5A
$IIHDG,171,,,,*50
$IIMTW,+21.0,C*3B
$IIMWV,318,R,04.2,N,A*1F
$IIMWV,314,T,03.2,N,A*12
$IIRMC,165908,A,4630.041,N,00640.232,E,00.8,157,040913,,,A*4B
$IIVHW,,,171,M,00.0,N,,*63
$IIVLW,01458,N,000.0,N*5B
$IIVWR,042,L,04.2,N,,,,*7F
$IIDPT,015.3,-1.0,*47
$IIGLL,4630.040,N,00640.232,E,165909,A,A*56
$IIHDG,171,,,,*50
$IIMTW,+21.0,C*3B
$IIMWV,329,R,02.9,N,A*10
$IIMWV,318,T,04.2,N,A*19
$IIRMC,165909,A,4630.040,N,00640.232,E,00.7,157,040913,,,A*44
$IIVHW,,,171,M,00.0,N,,*63
$IIVLW,01458,N,000.0,N*5B
$GPRMB,A,0.00,L,,PERF,4622.300,N,00619.430,E,23.165,227.1,,V,A*49
$GPRMB,A,0.00,2.9,N,,,,*7E
$IIDPT,015.8,-1.0,*4C
$IIGLL,4630.040,N,00640.232,E,165910,A,A*5E
$IIHDG,171,,,,*50
$IIMTW,+21.0,C*3B
$IIMWV,301,R,03.0,N,A*12
$IIMWV,329,T,02.9,N,A*16
$IIRMC,165910,A,4630.040,N,00640.232,E,00.8,157,040913,,,A*43
$IIVHW,,,171,M,00.0,N,,*63
$IIVLW,01458,N,000.0,N*5B
$IIVWR,019,L,03.2,N,,,,*76
$IIDPT,015.9,-1.0,*4D
$IIGLL,4630.040,N,00640.232,E,165911,A,A*5F
$IIHDG,171,,,,*50
$IIMTW,+21.0,C*3B
$IIMWV,341,R,03.2,N,A*14
$IIMWV,301,T,03.0,N,A*14
$IIRMC,165911,A,4630.040,N,00640.232,E,00.7,156,040913,,,A*4C
$IIVHW,,,171,M,00.0,N,,*63
$IIVLW,01458,N,000.0,N*5B
$IIVWR,048,L,03.5,N,,,,*75
$IIDPT,015.9,-1.0,*4D
$IIGLL,4630.040,N,00640.232,E,165912,A,A*5C
$IIHDG,170,,,,*51
$IIMTW,+21.0,C*3B
$IIMWV,312,R,03.5,N,A*15
$IIMWV,341,T,03.2,N,A*12
$GPRMB,A,0.00,L,,PERF,4622.300,N,00619.430,E,29.474,227.1,,V,A*46
$GPRMB,A,0.00,L,,PERF,4622.300,N,00619.430,E,29.474,22,,,A*38
$IIVHW,,,170,M,00.0,N,,*62
$IIVLW,01458,N,000.0,N*5B
$IIVWR,034,L,03.6,N,,,,*7D
$IIDPT,016.0,-1.0,*47
$IIGLL,4630.040,N,00640.233,E,165913,A,A*5C
$IIHDG,170,,,,*51
$IIMTW,+21.0,C*3B
$IIMWV,326,R,03.6,N,A*11
$IIMWV,312,T,03.5,N,A*13
$IIRMC,165914,A,4630.039,N,00640.233,E,00.8,155,040913,,,A*4A
$IIVHW,,,170,M,00.0,N,,*62
$IIVLW,01458,N,000.0,N*5B
$IIVWR,025,L,02.5,N,,,,*7F
$IIDPT,016.0,-1.0,*47
$IIGLL,4630.039,N,00640.233,E,165914,A,A*55
$IIHDG,170,,,,*51
$IIMTW,+21.0,C*3B
$IIMWV,335,R,02.5,N,A*11
$IIMWV,335,T,02.5,N,A*17
$IIRMC,165915,A,4630.039,N,00640.233,E,00.7,155,040913,,,A*44
$IIVHW,,,170,M,00.0,N,,*62
$IIVLW,01458,N,000.0,N*5B
$IIVWR,047,L,02.8,N,,,,*76
$IIDPT,016.0,-1.0,*47
$IIGLL,4630.039,N,00640.233,E,165915,A,A*54
$IIHDG,170,,,,*51
$GPRMB,A,0.00,L,,PERF,4622.300,N,00619.430,E,28.251,227.1,,V,A*46
$GPRMB,A21.0,C*55
$IIMWV,326,R,03.1,N,A*16
$IIMWV,313,T,02.8,N,A*1E
$IIRMC,165916,A,4630.039,N,00640.233,E,00.7,155,040913,,,A*47
$IIVHW,,,170,M,00.0,N,,*62
$IIVLW,01458,N,000.0,N*5B
$IIVWR,034,L,03.1,N,,,,*7A
$IIDPT,016.0,-1.0,*47
$IIGLL,4630.039,N,00640.233,E,165916,A,A*57
$IIHDG,170,,,,*51
$IIMTW,+21.0,C*3B
$IIMWV,316,R,03.5,N,A*11
$IIMWV,326,T,03.1,N,A*10
$IIRMC,165917,A,4630.039,N,00640.234,E,00.7,155,040913,,,A*41
$IIVHW,,,170,M,00.0,N,,*62
$IIVLW,01458,N,000.0,N*5B
$IIVWR,044,L,03.5,N,,,,*79
$IIDPT,016.0,-1.0,*47
$IIGLL,4630.039,N,00640.234,E,165917,A,A*51
$IIHDG,170,,,,*51
$IIMTW,+21.0,C*3B
$IIMWV,307,R,03.6,N,A*12
$IIMWV,316,T,03.5,N,A*17
$IIRMC,165918,A,4630.039,N,00640.234,E,00.8,155,040913,,,A*41
$IIVHW,,,170,M,00.0,N,,*62
$IIVLW,01458,N,000.0,N*5B
$IIVWR,053,L,03.6,N,,,,*7C
$IIDPT,016.0,-1.0,*47
$GPRMB,A,0.00,L,,PERF,4622.300,N,00619.430,E,25.555,227.1,,V,A*48
$IIGLL,4630.038,N,00640.234,E,165919,A,A*5E
$IIHDG,170,,,,*51
$IIMTW,+21.0,C*3B
$IIMWV,314,R,02.7,N,A*10
$IIMWV,307,T,03.6,N,A*14
$IIRMC,165919,A,4630.038,N,00640.234,E,00.7,155,040913,,,A*4E
$IIVHW,,,170,M,00.0,N,,*62
$IIVLW,01458,N,000.0,N*5B
$IIVWR,046,L,02.7,N,,,,*78
$IIDPT,016.0,-1.0,*47
$IIGLL,4630.038,N,00640.234,E,165920,A,A*54
$IIHDG,170,,,,*51
$IIMTW,+21.0,C*3B
$IIMWV,301,R,02.9,N,A*1A
$IIMWV,314,T,02.7,N,A*16
$IIRMC,165920,A,4630.038,N,00640.234,E,00.8,154,040913,,,A*4A
$IIVHW,,,170,M,00.0,N,,*62
$IIVLW,01458,N,000.0,N*5B
$IIVWR,039,L,03.4,N,,,,*72
$IIDPT,016.0,-1.0,*47
$IIGLL,4630.038,N,00640.234,E,165921,A,A*55
$IIHDG,169,,,,*59
$IIMTW,+21.0,C*3B
$IIMWV,321,R,03.4,N,A*14
$IIMWV,301,T,02.9,N,A*1C
$IIRMC,165921,A,4630.038,N,00640.234,E,00.7,154,040913,,,A*44
$GPRMB,A,0.00,L,,PERF,4622.300,N,00619.430,E,16.055,227.1,,V,A*4D
$GPRMB,A,0.00,L,,.0,N,,*09
$IIVLW,01458,N,000.0,N*5B
$IIVWR,058,L,03.7,N,,,,*76
$IIDPT,016.0,-1.0,*47
$IIGLL,4630.038,N,00640.234,E,165921,A,A*55
$IIHDG,169,,,,*59
$IIMTW,+21.0,C*3B
$IIMWV,302,R,03.7,N,A*16
$IIMWV,321,T,03.4,N,A*12
$IIRMC,165921,A,4630.038,N,00640.234,E,00.7,154,040913,,,A*44
$IIVHW,,,169,M,00.0,N,,*6A
$IIVLW,01458,N,000.0,N*5B
$IIVWR,017,L,02.7,N,,,,*7C
$IIDPT,015.9,-1.0,*4D
$IIGLL,4630.038,N,00640.234,E,165923,A,A*57
$IIHDG,169,,,,*59
$IIMTW,+21.0,C*3B
$IIMWV,343,R,02.7,N,A*12
$IIMWV,302,T,03.7,N,A*10
$IIRMC,165924,A,4630.037,N,00640.234,E,00.7,154,040913,,,A*4E
$IIVHW,,,169,M,00.0,N,,*6A
$IIVLW,01458,N,000.0,N*5B
$IIVWR,046,L,04.0,N,,,,*79
$IIDPT,015.9,-1.0,*4D
$IIGLL,4630.037,N,00640.234,E,165924,A,A*5F
$IIHDG,169,,,,*59
$IIMTW,+21.5,C*3E
$GPRMB,A,0.00,L,,PERF,4622.300,N,00619.430,E,16.519,227.1,,V,A*40
$GPRMB,A,0.00,4.0,N,A*1C
$IIMWV,314,T,04.0,N,A*17
$IIRMC,165925,A,4630.037,N,00640.235,E,00.8,153,040913,,,A*46
$IIVHW,,,169,M,00.0,N,,*6A
$IIVLW,01458,N,000.0,N*5B
$IIVWR,037,L,03.0,N,,,,*78
$IIDPT,015.9,-1.0,*4D
$IIGLL,4630.037,N,00640.235,E,165925,A,A*5F
$IIHDG,169,,,,*59
$IIMTW,+21.5,C*3E
$IIMWV,327,R,03.4,N,A*12
$IIMWV,323,T,03.0,N,A*14
$IIRMC,165926,A,4630.037,N,00640.235,E,00.7,154,040913,,,A*4D
$IIVHW,,,169,M,00.0,N,,*6A
$IIVLW,01458,N,000.0,N*5B
$IIVWR,033,L,03.4,N,,,,*78
$IIDPT,015.9,-1.0,*4D
$IIGLL,4630.037,N,00640.235,E,165926,A,A*5C
$IIHDG,169,,,,*59
$IIMTW,+21.5,C*3E
$IIMWV,304,R,03.7,N,A*10
$IIMWV,327,T,03.4,N,A*14
$IIRMC,165927,A,4630.037,N,00640.235,E,00.8,153,040913,,,A*44
$IIVHW,,,169,M,00.0,N,,*6A
$IIVLW,01458,N,000.0,N*5B
$IIVWR,056,L,03.7,N,,,,*78
$IIDPT,015.9,-1.0,*4D
$GPRMB,A,0.00,L,,PERF,4622.300,N,00619.430,E,29.794,227.1,,V,A*4B
$GPRMB,A,0.00,L,,PERF,46235,E,165927,A,A*25
$IIHDG,169,,,,*59
$IIMTW,+21.5,C*3E
$IIMWV,006,R,00.0,N,A*15
$IIMWV,304,T,03.7,N,A*16
$IIRMC,165928,A,4630.037,N,00640.235,E,00.8,153,040913,,,A*4B
$IIVHW,,,169,M,00.0,N,,*6A
$IIVLW,01458,N,000.0,N*5B
$IIVWR,006,R,00.0,N,,,,*67
$IIDPT,015.9,-1.0,*4D
$IIGLL,4630.036,N,00640.235,E,165929,A,A*52
$IIHDG,169,,,,*59
$IIMTW,+21.5,C*3E
$IIMWV,306,R,03.1,N,A*14
$IIMWV,006,T,00.0,N,A*13
$IIRMC,165929,A,4630.036,N,00640.235,E,00.7,153,040913,,,A*44
$IIVHW,,,169,M,00.0,N,,*6A
$IIVLW,01458,N,000.0,N*5B
$IIVWR,054,L,03.1,N,,,,*7C
$IIDPT,015.9,-1.0,*4D
$IIGLL,4630.036,N,00640.235,E,165930,A,A*5A
$IIHDG,168,,,,*58
$IIMTW,+21.0,C*3B
$IIMWV,331,R,03.5,N,A*14
$IIMWV,306,T,03.1,N,A*12
$IIRMC,165930,A,4630.036,N,00640.235,E,00.7,153,040913,,,A*4C
$IIVHW,,,168,M,00.0,N,,*6B
$GPRMB,A,0.00,L,,PERF,4622.300,N,00619.430,E,18.322,227.1,,V,A*40
$GPRMB,A,0.00,L,00.0,N*25
$IIVWR,044,L,02.7,N,,,,*7A
$IIDPT,016.0,-1.0,*47
$IIGLL,4630.036,N,00640.235,E,165931,A,A*5B
$IIHDG,168,,,,*58
$IIMTW,+21.0,C*3B
$IIMWV,316,R,02.7,N,A*12
$IIMWV,331,T,03.5,N,A*12
$IIRMC,165931,A,4630.036,N,00640.235,E,00.7,153,040913,,,A*4D
$IIVHW,,,168,M,00.0,N,,*6B
$IIVLW,01458,N,000.0,N*5B
$IIVWR,038,L,03.1,N,,,,*76
$IIDPT,016.0,-1.0,*47
$IIGLL,4630.036,N,00640.236,E,165932,A,A*5B
$IIHDG,168,,,,*58
$IIMTW,+21.0,C*3B
$IIMWV,322,R,03.1,N,A*12
$IIMWV,316,T,02.7,N,A*14
$IIRMC,165932,A,4630.036,N,00640.236,E,00.8,152,040913,,,A*43
$IIVHW,,,167,M,00.0,N,,*64
$IIVLW,01458,N,000.0,N*5B
$IIVWR,039,L,03.6,N,,,,*70
$IIDPT,016.0,-1.0,*47
$IIGLL,4630.036,N,00640.236,E,165933,A,A*5A
$IIHDG,167,,,,*57
$IIMTW,+21.0,C*3B
$IIMWV,321,R,03.6,N,A*16
$IIMWV,322,T,03.1,N,A*14
$GPRMB,A,0.00,L,,PERF,4622.300,N,00619.430,E,27.994,227.1,,V,A*4B
$IIRMC,165934,A,4630.035,N,00640.236,E,00.7,152,040913,,,A*49
$IIVHW,,,167,M,00.0,N,,*64
$IIVLW,01458,N,000.0,N*5B
$IIVWR,050,L,02.8,N,,,,*70
$IIDPT,016.0,-1.0,*47
$IIGLL,4630.035,N,00640.236,E,165934,A,A*5E
$IIHDG,167,,,,*57
$IIMTW,+21.0,C*3B
$IIMWV,310,R,02.8,N,A*1B
$IIMWV,310,T,02.8,N,A*1D
$IIRMC,165935,A,4630.035,N,00640.236,E,00.8,151,040913,,,A*44
$IIVHW,,,167,M,00.0,N,,*64
$IIVLW,01458,N,000.0,N*5B
$IIVWR,044,L,03.1,N,,,,*7D
$IIDPT,015.8,-1.0,*4C
$IIGLL,4630.035,N,00640.236,E,165935,A,A*5F
$IIHDG,167,,,,*57
$IIMTW,+21.0,C*3B
$IIMWV,324,R,03.6,N,A*13
$IIMWV,316,T,03.1,N,A*13
$IIRMC,165936,A,4630.035,N,00640.236,E,00.8,151,040913,,,A*47
$IIVHW,,,166,M,00.0,N,,*65
$IIVLW,01458,N,000.0,N*5B
$IIVWR,036,L,03.6,N,,,,*7F
$IIDPT,015.8,-1.0,*4C
$IIGLL,4630.035,N,00640.236,E,165936,A,A*5C
$GPRMB,A,0.00,L,,PERF,4622.300,N,00619.430,E,25.555,227.1,,V,A*48
$IIHDG,166,,,,*56
$IIMTW,+21.0,C*3B
$IIMWV,316,R,02.7,N,A*12
$IIMWV,324,T,03.6,N,A*15
$IIRMC,165937,A,4630.035,N,00640.236,E,00.8,151,040913,,,A*46
$IIVHW,,,166,M,00.0,N,,*65
$IIVLW,01458,N,000.0,N*5B
$IIVWR,044,L,02.7,N,,,,*7A
$IIDPT,015.8,-1.0,*4C
$IIGLL,4630.035,N,00640.236,E,165937,A,A*5D
$IIHDG,165,,,,*55
$IIMTW,+21.0,C*3B
$IIMWV,339,R,03.1,N,A*18
$IIMWV,316,T,02.7,N,A*14
$IIRMC,165938,A,4630.034,N,00640.236,E,00.7,150,040913,,,A*46
$IIVHW,,,165,M,00.0,N,,*66
$IIVLW,01458,N,000.0,N*5B
$IIVWR,021,L,03.1,N,,,,*7E
$IIDPT,015.8,-1.0,*4C
$IIGLL,4630.034,N,00640.236,E,165939,A,A*52
$IIHDG,164,,,,*54
$IIMTW,+21.0,C*3B
$IIMWV,306,R,03.4,N,A*11
$IIMWV,339,T,03.1,N,A*1E
$IIRMC,165939,A,4630.034,N,00640.236,E,00.8,150,040913,,,A*48
$IIVHW,,,164,M,00.0,N,,*67
$IIVLW,01458,N,000.0,N*5B
$GPRMB,A,0.00,L,,PERF,4622.300,N,00619.430,E,33.166,227.1,,V,A*4B
$GPRMB,A,0.00,3.4,N,,,,*72
$IIDPT,015.8,-1.0,*4C
$IIGLL,4630.034,N,00640.236,E,165940,A,A*5C
$IIHDG,163,,,,*53
$IIMTW,+21.0,C*3B
$IIMWV,329,R,02.7,N,A*1E
$IIMWV,306,T,03.4,N,A*17
$IIRMC,165940,A,4630.034,N,00640.236,E,00.8,150,040913,,,A*46
$IIVHW,,,163,M,00.0,N,,*60
$IIVLW,01458,N,000.0,N*5B
$IIVWR,044,L,03.1,N,,,,*7D
$IIDPT,016.0,-1.0,*47
$IIGLL,4630.034,N,00640.236,E,165941,A,A*5D
$IIHDG,163,,,,*53
$IIMTW,+21.0,C*3B
$IIMWV,316,R,03.1,N,A*15
$IIMWV,329,T,02.7,N,A*18
$IIRMC,165941,A,4630.034,N,00640.236,E,00.7,149,040913,,,A*40
$IIVHW,,,163,M,00.0,N,,*60
$IIVLW,01458,N,000.0,N*5B
$IIVWR,031,L,03.4,N,,,,*7A
$IIDPT,016.0,-1.0,*47
$IIGLL,4630.034,N,00640.236,E,165942,A,A*5E
$IIHDG,162,,,,*52
$IIMTW,+21.0,C*3B
$IIMWV,329,R,03.4,N,A*1C
$IIMWV,316,T,03.1,N,A*13
$GPRMB,A,0.00,L,,PERF,4622.300,N,00619.430,E,22.423,227.1,,V,A*4F
$GPRMB,A,0.00,L,,PERF,4622.300,N,00619.430,E,22.423,22,,,A*31
$IIVHW,,,161,M,00.0,N,,*62
$IIVLW,01458,N,000.0,N*5B
$IIVWR,034,L,02.7,N,,,,*7D
$IIDPT,015.5,-1.0,*41
$IIGLL,4630.034,N,00640.237,E,165943,A,A*5E
$IIHDG,161,,,,*51
$IIMTW,+21.0,C*3B
$IIMWV,326,R,02.7,N,A*11
$IIMWV,329,T,03.4,N,A*1A
$IIRMC,165944,A,4630.033,N,00640.237,E,00.8,148,040913,,,A*4D
$IIVHW,,,161,M,00.0,N,,*62
$IIVLW,01458,N,000.0,N*5B
$IIVWR,040,L,03.7,N,,,,*7F
$IIDPT,015.5,-1.0,*41
$IIGLL,4630.033,N,00640.237,E,165944,A,A*5E
$IIHDG,161,,,,*51
$IIMTW,+21.0,C*3B
$IIMWV,320,R,03.7,N,A*16
$IIMWV,320,T,03.7,N,A*10
$IIRMC,165945,A,4630.033,N,00640.237,E,00.8,148,040913,,,A*4C
$IIVHW,,,160,M,00.0,N,,*63
$IIVLW,01458,N,000.0,N*5B
$IIVWR,039,L,04.0,N,,,,*71
$IIDPT,015.5,-1.0,*41
$IIGLL,4630.033,N,00640.237,E,165945,A,A*5F
$IIHDG,160,,,,*50
$GPRMB,A,0.00,L,,PERF,4622.300,N,00619.430,E,27.214,227.1,,V,A*48
$GPRMB,+21.0,C*3F
$IIMWV,333,R,02.9,N,A*1B
$IIMWV,321,T,04.0,N,A*11
$IIRMC,165946,A,4630.033,N,00640.237,E,00.8,147,040913,,,A*40
$IIVHW,,,160,M,00.0,N,,*63
$IIVLW,01458,N,000.0,N*5B
$IIVWR,027,L,02.9,N,,,,*71
$IIDPT,015.5,-1.0,*41
$IIGLL,4630.033,N,00640.237,E,165946,A,A*5C
$IIHDG,160,,,,*50
$IIMTW,+21.0,C*3B
$IIMWV,319,R,03.1,N,A*1A
$IIMWV,333,T,02.9,N,A*1D
$IIRMC,165947,A,4630.033,N,00640.237,E,00.8,147,040913,,,A*41
$IIVHW,,,159,M,00.0,N,,*69
$IIVLW,01458,N,000.0,N*5B
$IIVWR,041,L,03.1,N,,,,*78
$IIDPT,015.5,-1.0,*41
$IIGLL,4630.033,N,00640.237,E,165947,A,A*5D
$IIHDG,159,,,,*5A
$IIMTW,+21.0,C*3B
$IIMWV,325,R,03.5,N,A*11
$IIMWV,319,T,03.1,N,A*1C
$IIRMC,165948,A,4630.033,N,00640.237,E,00.8,147,040913,,,A*4E
$IIVHW,,,159,M,00.0,N,,*69
$IIVLW,01458,N,000.0,N*5B
$IIVWR,035,L,03.5,N,,,,*7F
$IIDPT,015.5,-1.0,*41
$GPRMB,A,0.00,L,,PERF,4622.300,N,00619.430,E,26.811,227.1,,V,A*46
$IIGLL,4630.033,N,00640.238,E,165949,A,A*5C
$IIHDG,159,,,,*5A
$IIMTW,+21.0,C*3B
$IIMWV,327,R,02.7,N,A*10
$IIMWV,325,T,03.5,N,A*17
$IIRMC,165949,A,4630.033,N,00640.238,E,00.8,146,040913,,,A*41
$IIVHW,,,159,M,00.0,N,,*69
$IIVLW,01458,N,000.0,N*5B
$IIVWR,033,L,02.7,N,,,,*7A
$IIDPT,015.5,-1.0,*41
$IIGLL,4630.032,N,00640.238,E,165950,A,A*55
$IIHDG,159,,,,*5A
$IIMTW,+21.0,C*3B
$IIMWV,328,R,03.1,N,A*18
$IIMWV,327,T,02.7,N,A*16
$IIRMC,165950,A,4630.032,N,00640.238,E,00.8,146,040913,,,A*48
$IIVHW,,,159,M,00.0,N,,*69
$IIVLW,01458,N,000.0,N*5B
$IIVWR,032,L,03.4,N,,,,*79
$IIDPT,015.6,-1.0,*42
$IIGLL,4630.032,N,00640.238,E,165951,A,A*54
$IIHDG,159,,,,*5A
$IIMTW,+21.0,C*3B
$IIMWV,328,R,03.4,N,A*1D
$IIMWV,328,T,03.1,N,A*1E
$IIRMC,165951,A,4630.032,N,00640.238,E,00.8,146,040913,,,A*49
$GPRMB,A,0.00,L,,PERF,4622.300,N,00619.430,E,30.127,227.1,,V,A*4D
$GPRMB,A,0.00,L,,PE,N,,*02
$IIVLW,01458,N,000.0,N*5B
$IIVWR,038,L,02.7,N,,,,*71
$IIDPT,015.6,-1.0,*42
$IIGLL,4630.032,N,00640.238,E,165952,A,A*57
$IIHDG,159,,,,*5A
$IIMTW,+21.0,C*3B
$IIMWV,322,R,02.7,N,A*15
$IIMWV,328,T,03.4,N,A*1B
$IIRMC,165952,A,4630.032,N,00640.238,E,00.8,146,040913,,,A*4A
$IIVHW,,,159,M,00.0,N,,*69
$IIVLW,01458,N,000.0,N*5B
$IIVWR,030,L,03.1,N,,,,*7E
$IIDPT,015.6,-1.0,*42
$IIGLL,4630.032,N,00640.238,E,165953,A,A*56
$IIHDG,159,,,,*5A
$IIMTW,+21.0,C*3B
$IIMWV,330,R,03.1,N,A*11
$IIMWV,322,T,02.7,N,A*13
$IIRMC,165954,A,4630.032,N,00640.238,E,00.8,145,040913,,,A*4F
$IIVHW,,,158,M,00.0,N,,*68
$IIVLW,01458,N,000.0,N*5B
$IIVWR,033,L,03.4,N,,,,*78
$IIDPT,015.6,-1.0,*42
$IIGLL,4630.032,N,00640.238,E,165954,A,A*51
$IIHDG,158,,,,*5B
$IIMTW,+21.0,C*3B
$GPRMB,A,0.00,L,,PERF,4622.300,N,00619.430,E,27.994,227.1,,V,A*4B
$GPRMB,A,0.00,L.4,N,A*60
$IIMWV,327,T,03.4,N,A*14
$IIRMC,165955,A,4630.032,N,00640.238,E,00.8,145,040913,,,A*4E
$IIVHW,,,158,M,00.0,N,,*68
$IIVLW,01458,N,000.0,N*5B
$IIVWR,041,L,02.7,N,,,,*7F
$IIDPT,015.6,-1.0,*42
$IIGLL,4630.032,N,00640.238,E,165955,A,A*50
$IIHDG,158,,,,*5B
$IIMTW,+21.0,C*3B
$IIMWV,327,R,03.1,N,A*17
$IIMWV,319,T,02.7,N,A*1B
$IIRMC,165956,A,4630.031,N,00640.239,E,00.8,145,040913,,,A*4F
$IIVHW,,,158,M,00.0,N,,*68
$IIVLW,01458,N,000.0,N*5B
$IIVWR,033,L,03.1,N,,,,*7D
$IIDPT,015.6,-1.0,*42
$IIGLL,4630.031,N,00640.239,E,165956,A,A*51
$IIHDG,158,,,,*5B
$IIMTW,+21.0,C*3B
$IIMWV,323,R,03.4,N,A*16
$IIMWV,327,T,03.1,N,A*11
$IIRMC,165957,A,4630.031,N,00640.239,E,00.8,145,040913,,,A*4E
$IIVHW,,,158,M,00.0,N,,*68
$IIVLW,01458,N,000.0,N*5B
$IIVWR,037,L,03.4,N,,,,*7C
$IIDPT,015.7,-1.0,*43
$GPRMB,A,0.00,L,,PERF,4622.300,N,00619.430,E,29.794,227.1,,V,A*4B
$GPRMB,A,0.00,L,,PERF,4622.3E,165957,A,A*27
$IIHDG,158,,,,*5B
$IIMTW,+21.0,C*3B
$IIMWV,323,R,02.7,N,A*14
$IIMWV,323,T,03.4,N,A*10
$IIRMC,165958,A,4630.031,N,00640.239,E,00.8,145,040913,,,A*41
$IIVHW,,,158,M,00.0,N,,*68
$IIVLW,01458,N,000.0,N*5B
$IIVWR,037,L,02.7,N,,,,*7E
$IIDPT,015.7,-1.0,*43
$IIGLL,4630.031,N,00640.239,E,165959,A,A*5E
$IIHDG,158,,,,*5B
$IIMTW,+21.0,C*3B
$IIMWV,329,R,03.1,N,A*19
$IIMWV,323,T,02.7,N,A*12
$IIRMC,165959,A,4630.031,N,00640.239,E,00.8,144,040913,,,A*41
$IIVHW,,,158,M,00.0,N,,*68
$IIVLW,01458,N,000.0,N*5B
$IIVWR,031,L,03.1,N,,,,*7F
$IIDPT,015.7,-1.0,*43
$IIGLL,4630.031,N,00640.239,E,170000,A,A*5F
$IIHDG,158,,,,*5B
$IIMTW,+21.0,C*3B
$IIMWV,334,R,03.4,N,A*10
$IIMWV,329,T,03.1,N,A*1F
$IIRMC,170000,A,4630.031,N,00640.239,E,00.8,144,040913,,,A*40
$IIVHW,,,158,M,00.0,N,,*68
$GPRMB,A,0.00,L,,PERF,4622.300,N,00619.430,E,30.451,227.1,,V,A*49
$GPRMB,A,0.00,L,,PE0,N*32
$IIVWR,039,L,02.7,N,,,,*70
$IIDPT,015.8,-1.0,*4C
$IIGLL,4630.031,N,00640.239,E,170001,A,A*5E
$IIHDG,158,,,,*5B
$IIMTW,+21.0,C*3B
$IIMWV,321,R,02.7,N,A*16
$IIMWV,334,T,03.4,N,A*16
$IIRMC,170001,A,4630.031,N,00640.239,E,00.8,144,040913,,,A*41
$IIVHW,,,158,M,00.0,N,,*68
$IIVLW,01458,N,000.0,N*5B
$IIVWR,035,L,04.1,N,,,,*7C
$IIDPT,015.8,-1.0,*4C
$IIGLL,4630.030,N,00640.240,E,170002,A,A*52
$IIHDG,158,,,,*5B
$IIMTW,+21.0,C*3B
$IIMWV,325,R,04.1,N,A*12
$IIMWV,321,T,02.7,N,A*10
$IIRMC,170002,A,4630.030,N,00640.240,E,00.8,144,040913,,,A*4D
$IIVHW,,,158,M,00.0,N,,*68
$IIVLW,01458,N,000.0,N*5B
$IIVWR,012,L,02.9,N,,,,*77
$IIDPT,015.8,-1.0,*4C
$IIGLL,4630.030,N,00640.240,E,170003,A,A*53
$IIHDG,158,,,,*5B
$IIMTW,+21.0,C*3B
$IIMWV,348,R,02.9,N,A*17
$IIMWV,325,T,04.1,N,A*14
$GPRMB,A,0.00,L,,PERF,4622.300,N,00619.430,E,29.101,227.1,,V,A*41
$IIRMC,170004,A,4630.030,N,00640.240,E,00.8,144,040913,,,A*4B
$IIVHW,,,158,M,00.0,N,,*68
$IIVLW,01458,N,000.0,N*5B
$IIVWR,038,L,03.1,N,,,,*76
$IIDPT,015.8,-1.0,*4C
$IIGLL,4630.030,N,00640.240,E,170004,A,A*54
$IIHDG,158,,,,*5B
$IIMTW,+21.0,C*3B
$IIMWV,322,R,03.1,N,A*12
$IIMWV,322,T,03.1,N,A*14
$IIRMC,170005,A,4630.030,N,00640.240,E,00.8,144,040913,,,A*4A
$IIVHW,,,157,M,00.0,N,,*67
$IIVLW,01458,N,000.0,N*5B
$IIVWR,030,L,03.5,N,,,,*7A
$IIDPT,015.8,-1.0,*4C
$IIGLL,4630.030,N,00640.240,E,170005,A,A*55
$IIHDG,157,,,,*54
$IIMTW,+21.0,C*3B
$IIMWV,324,R,02.7,N,A*13
$IIMWV,330,T,03.5,N,A*13
$IIRMC,170006,A,4630.030,N,00640.240,E,00.7,144,040913,,,A*46
$IIVHW,,,157,M,00.0,N,,*67
$IIVLW,01458,N,000.0,N*5B
$IIVWR,036,L,02.7,N,,,,*7F
$IIDPT,015.8,-1.0,*4C
$IIGLL,4630.030,N,00640.240,E,170006,A,A*56
$GPRMB,A,0.00,L,,PERF,4622.300,N,00619.430,E,26.996,227.1,,V,A*48
$GPHDG,157,,,,*43
$IIMTW,+21.0,C*3B
$IIMWV,330,R,03.1,N,A*11
$IIMWV,324,T,02.7,N,A*15
$IIRMC,170007,A,4630.030,N,00640.240,E,00.8,143,040913,,,A*4F
$IIVHW,,,157,M,00.0,N,,*67
$IIVLW,01458,N,000.0,N*5B
$IIVWR,030,L,03.1,N,,,,*7E
$IIDPT,015.8,-1.0,*4C
$IIGLL,4630.030,N,00640.240,E,170007,A,A*57
$IIHDG,157,,,,*54
$IIMTW,+21.0,C*3B
$IIMWV,328,R,03.4,N,A*1D
$IIMWV,330,T,03.1,N,A*17
$IIRMC,170008,A,4630.029,N,00640.240,E,00.8,143,040913,,,A*48
$IIVHW,,,157,M,00.0,N,,*67
$IIVLW,01458,N,000.0,N*5B
$IIVWR,032,L,03.4,N,,,,*79
$IIDPT,015.8,-1.0,*4C
$IIGLL,4630.029,N,00640.241,E,170009,A,A*50
$IIHDG,157,,,,*54
$IIMTW,+21.0,C*3B
$IIMWV,323,R,02.7,N,A*14
$IIMWV,328,T,03.4,N,A*1B
$IIRMC,170009,A,4630.029,N,00640.241,E,00.8,143,040913,,,A*48
$IIVHW,,,157,M,00.0,N,,*67
$IIVLW,01458,N,000.0,N*5B
$GPRMB,A,0.00,L,,PERF,4622.300,N,00619.430,E,30.127,227.1,,V,A*4D
$GPRMB,A,0.00,L,7,N,,,,*0C
$IIDPT,015.8,-1.0,*4C
$IIGLL,4630.029,N,00640.241,E,170010,A,A*58
$IIHDG,157,,,,*54
$IIMTW,+21.0,C*3B
$IIMWV,342,R,02.1,N,A*15
$IIMWV,323,T,02.7,N,A*12
$IIRMC,170010,A,4630.029,N,00640.241,E,00.8,143,040913,,,A*40
$IIVHW,,,157,M,00.0,N,,*67
$IIVLW,01458,N,000.0,N*5B
$IIVWR,042,L,02.9,N,,,,*72
$IIDPT,015.6,-1.0,*42
$IIGLL,4630.029,N,00640.241,E,170011,A,A*59
$IIHDG,155,,,,*56
$IIMTW,+21.0,C*3B
$IIMWV,318,R,02.9,N,A*12
$IIMWV,342,T,02.1,N,A*13
$IIRMC,170011,A,4630.029,N,00640.241,E,00.7,143,040913,,,A*4E
$IIVHW,,,155,M,00.0,N,,*65
$IIVLW,01458,N,000.0,N*5B
$IIVWR,032,L,03.0,N,,,,*7D
$IIDPT,015.6,-1.0,*42
$IIGLL,4630.029,N,00640.241,E,170012,A,A*5A
$IIHDG,157,,,,*54
$IIMTW,+21.0,C*3B
$IIMWV,328,R,03.0,N,A*19
$IIMWV,318,T,02.9,N,A*14
$GPRMB,A,0.00,L,,PERF,4622.300,N,00619.430,E,23.165,227.1,,V,A*49
$GPRMB,A,0.00,L,,PERF,4622.300,N,00619.430,E,23.165,227.,A*2E
$IIVHW,,,157,M,00.0,N,,*67
$IIVLW,01458,N,000.0,N*5B
$IIVWR,010,L,03.2,N,,,,*7F
$IIDPT,015.6,-1.0,*42
$IIGLL,4630.029,N,00640.241,E,170013,A,A*5B
$IIHDG,157,,,,*54
$IIMTW,+21.0,C*3B
$IIMWV,350,R,03.2,N,A*14
$IIMWV,328,T,03.0,N,A*1F
$IIRMC,170014,A,4630.029,N,00640.242,E,00.8,143,040913,,,A*47
$IIVHW,,,155,M,00.0,N,,*65
$IIVLW,01458,N,000.0,N*5B
$IIVWR,048,L,03.5,N,,,,*75
$IIDPT,015.6,-1.0,*42
$IIGLL,4630.029,N,00640.242,E,170014,A,A*5F
$IIHDG,155,,,,*56
$IIMTW,+21.0,C*3B
$IIMWV,312,R,03.5,N,A*15
$IIMWV,312,T,03.5,N,A*13
$IIRMC,170015,A,4630.028,N,00640.242,E,00.8,143,040913,,,A*47
$IIVHW,,,155,M,00.0,N,,*65
$IIVLW,01458,N,000.0,N*5B
$IIVWR,025,L,03.8,N,,,,*73
$IIDPT,015.6,-1.0,*42
$IIGLL,4630.028,N,00640.242,E,170015,A,A*5F
$IIHDG,155,,,,*56
$GPRMB,A,0.00,L,,PERF,4622.300,N,00619.430,E,23.771,227.1,,V,A*4A
$GPRMB,A,0.0,C*4A
$IIMWV,333,R,03.7,N,A*14
$IIMWV,335,T,03.8,N,A*1B
$IIRMC,170016,A,4630.028,N,00640.242,E,00.8,143,040913,,,A*44
$IIVHW,,,155,M,00.0,N,,*65
$IIVLW,01458,N,000.0,N*5B
$IIVWR,027,L,03.7,N,,,,*7E
$IIDPT,015.6,-1.0,*42
$IIGLL,4630.028,N,00640.242,E,170016,A,A*5C
$IIHDG,155,,,,*56
$IIMTW,+21.0,C*3B
$IIMWV,314,R,03.1,N,A*17
$IIMWV,333,T,02.7,N,A*13
$IIRMC,170018,A,4630.028,N,00640.242,E,00.8,143,040913,,,A*4A
$IIVHW,,,155,M,00.0,N,,*65
$IIVLW,01458,N,000.0,N*5B
$IIVWR,046,L,03.1,N,,,,*7F
$IIDPT,015.6,-1.0,*42
$GPRMB,A,0.00,L,,PERF,4622.300,N,00619.430,E,31.653,227.1,,V,A*48
$GPRMB,A,0.00,L,,PERF,4622.,E,170018,A,A*3E
$IIHDG,155,,,,*56
$IIMTW,+21.0,C*3B
$IIMWV,339,R,03.5,N,A*1C
$IIMWV,314,T,03.1,N,A*11
$IIRMC,170019,A,4630.028,N,00640.242,E,00.8,142,040913,,,A*4A
$IIVHW,,,155,M,00.0,N,,*65
$IIVLW,01458,N,000.0,N*5B
$IIVWR,021,L,03.5,N,,,,*7A
$IIDPT,015.6,-1.0,*42
$IIGLL,4630.028,N,00640.243,E,170020,A,A*58
$IIHDG,154,,,,*57
$IIMTW,+21.0,C*3B
$IIMWV,341,R,02.7,N,A*10
$IIMWV,339,T,03.5,N,A*1A
$IIRMC,170020,A,4630.028,N,00640.243,E,00.7,142,040913,,,A*4E
$IIVHW,,,154,M,00.0,N,,*64
$IIVLW,01458,N,000.0,N*5B
$IIVWR,019,L,02.7,N,,,,*72
$IIDPT,015.6,-1.0,*42
$IIGLL,4630.028,N,00640.243,E,170021,A,A*59
$IIHDG,154,,,,*57
$IIMTW,+21.0,C*3B
$IIMWV,326,R,04.1,N,A*11
$IIMWV,341,T,02.7,N,A*16
$IIRMC,170021,A,4630.028,N,00640.243,E,00.8,142,040913,,,A*40
$IIVHW,,,154,M,00.0,N,,*64
$GPRMB,A,0.00,L,,PERF,4622.300,N,00619.430,E,33.590,227.1,,V,A*46
$GPRMB,A,0.00,L,,P.0,N*59
$IIVWR,030,L,02.9,N,,,,*77
$IIDPT,015.6,-1.0,*42
$IIGLL,4630.027,N,00640.243,E,170022,A,A*55
$IIHDG,154,,,,*57
$IIMTW,+21.5,C*3E
$IIMWV,330,R,02.9,N,A*18
$IIMWV,326,T,04.1,N,A*17
$IIRMC,170022,A,4630.027,N,00640.243,E,00.8,142,040913,,,A*4C
$IIVHW,,,154,M,00.0,N,,*64
$IIVLW,01458,N,000.0,N*5B
$IIVWR,041,L,03.1,N,,,,*78
$IIDPT,015.6,-1.0,*42
$IIGLL,4630.027,N,00640.243,E,170023,A,A*54
$IIHDG,154,,,,*57
$IIMTW,+21.5,C*3E
$IIMWV,319,R,03.1,N,A*1A
$IIMWV,330,T,02.9,N,A*1E
$IIRMC,170023,A,4630.027,N,00640.243,E,00.7,142,040913,,,A*42
$IIVHW,,,154,M,00.0,N,,*64
$IIVLW,01458,N,000.0,N*5B
$IIVWR,034,L,03.5,N,,,,*7E
$IIDPT,015.6,-1.0,*42
$IIGLL,4630.027,N,00640.244,E,170024,A,A*54
$IIHDG,154,,,,*57
$IIMTW,+21.5,C*3E
$IIMWV,326,R,03.5,N,A*12
$IIMWV,319,T,03.1,N,A*1C
$GPRMB,A,0.00,L,,PERF,4622.300,N,00619.430,E,23.526,227.1,,V,A*4A
$IIRMC,170025,A,4630.027,N,00640.244,E,00.7,142,040913,,,A*43
$IIVHW,,,154,M,00.0,N,,*64
$IIVLW,01458,N,000.0,N*5B
$IIVWR,033,L,02.7,N,,,,*7A
$IIDPT,015.8,-1.0,*4C
$IIGLL,4630.027,N,00640.244,E,170025,A,A*55
$IIHDG,154,,,,*57
$IIMTW,+21.0,C*3B
$IIMWV,327,R,02.7,N,A*10
$IIMWV,327,T,02.7,N,A*16
$IIRMC,170026,A,4630.027,N,00640.244,E,00.8,142,040913,,,A*4F
$IIVHW,,,154,M,00.0,N,,*64
$IIVLW,01458,N,000.0,N*5B
$IIVWR,044,L,03.1,N,,,,*7D
$IIDPT,015.8,-1.0,*4C
$IIGLL,4630.027,N,00640.244,E,170026,A,A*56
$IIHDG,154,,,,*57
$IIMTW,+21.0,C*3B
$IIMWV,336,R,03.4,N,A*12
$IIMWV,316,T,03.1,N,A*13
$IIRMC,170027,A,4630.026,N,00640.244,E,00.9,142,040913,,,A*4E
$IIVHW,,,154,M,00.0,N,,*64
$IIVLW,01458,N,000.0,N*5B
$IIVWR,024,L,03.4,N,,,,*7E
$IIDPT,015.8,-1.0,*4C
$IIGLL,4630.026,N,00640.244,E,170027,A,A*56
$GPRMB,A,0.00,L,,PERF,4622.300,N,00619.430,E,28.812,227.1,,V,A*4B
$IIHDG,154,,,,*57
$IIMTW,+21.5,C*3E
$IIMWV,321,R,02.7,N,A*16
$IIMWV,336,T,03.4,N,A*14
$IIRMC,170028,A,4630.026,N,00640.244,E,00.8,142,040913,,,A*40
$IIVHW,,,154,M,00.0,N,,*64
$IIVLW,01458,N,000.0,N*5B
$IIVWR,039,L,02.7,N,,,,*70
$IIDPT,015.8,-1.0,*4C
$IIGLL,4630.026,N,00640.244,E,170028,A,A*59
$IIHDG,154,,,,*57
$IIMTW,+21.0,C*3B
$IIMWV,324,R,03.1,N,A*14
$IIMWV,321,T,02.7,N,A*10
$IIRMC,170029,A,4630.026,N,00640.245,E,00.8,141,040913,,,A*43
$IIVHW,,,154,M,00.0,N,,*64
$IIVLW,01458,N,000.0,N*5B
$IIVWR,036,L,03.1,N,,,,*78
$IIDPT,015.6,-1.0,*42
$IIGLL,4630.026,N,00640.245,E,170030,A,A*51
$IIHDG,153,,,,*50
$IIMTW,+21.0,C*3B
$IIMWV,348,R,03.4,N,A*1B
$IIMWV,324,T,03.1,N,A*12
$IIRMC,170030,A,4630.026,N,00640.245,E,00.7,141,040913,,,A*44
$IIVHW,,,153,M,00.0,N,,*63
$IIVLW,01458,N,000.0,N*5B
$GPRMB,A,0.00,L,,PERF,4622.300,N,00619.430,E,25.219,227.1,,V,A*47
$GPRMB,A,0.0003.4,N,,,,*6E
$IIDPT,015.6,-1.0,*42
$IIGLL,4630.026,N,00640.245,E,170031,A,A*50
$IIHDG,153,,,,*50
$IIMTW,+21.0,C*3B
$IIMWV,300,R,03.7,N,A*14
$IIMWV,348,T,03.4,N,A*1D
$IIRMC,170031,A,4630.026,N,00640.245,E,00.9,141,040913,,,A*4B
$IIVHW,,,153,M,00.0,N,,*63
$IIVLW,01458,N,000.0,N*5B
$IIVWR,012,L,03.7,N,,,,*78
$IIDPT,015.6,-1.0,*42
$IIGLL,4630.025,N,00640.245,E,170032,A,A*50
$IIHDG,153,,,,*50
$IIMTW,+21.0,C*3B
$IIMWV,348,R,03.7,N,A*18
$IIMWV,300,T,03.7,N,A*12
$IIRMC,170032,A,4630.025,N,00640.245,E,00.8,141,040913,,,A*4A
$IIVHW,,,153,M,00.0,N,,*63
$IIVLW,01458,N,000.0,N*5B
$IIVWR,036,L,02.7,N,,,,*7F
$IIDPT,015.6,-1.0,*42
$IIGLL,4630.025,N,00640.246,E,170033,A,A*52
$IIHDG,153,,,,*50
$IIMTW,+21.0,C*3B
$IIMWV,324,R,02.7,N,A*13
$IIMWV,348,T,03.7,N,A*1E
$GPRMB,A,0.00,L,,PERF,4622.300,N,00619.430,E,34.749,227.1,,V,A*47
$GPRMB,A,0.00,L,,PERF,4622.300,N,00619.430,E,34.749,23,,,A*38
$IIVHW,,,154,M,00.0,N,,*64
$IIVLW,01458,N,000.0,N*5B
$IIVWR,037,L,03.1,N,,,,*79
$IIDPT,015.6,-1.0,*42
$IIGLL,4630.025,N,00640.246,E,170034,A,A*55
$IIHDG,154,,,,*57
$IIMTW,+21.0,C*3B
$IIMWV,323,R,03.1,N,A*13
$IIMWV,324,T,02.7,N,A*15
$IIRMC,170035,A,4630.025,N,00640.246,E,00.8,141,040913,,,A*4E
$IIVHW,,,154,M,00.0,N,,*64
$IIVLW,01458,N,000.0,N*5B
$IIVWR,029,L,03.5,N,,,,*72
$IIDPT,015.6,-1.0,*42
$IIGLL,4630.025,N,00640.246,E,170035,A,A*54
$IIHDG,154,,,,*57
$IIMTW,+21.0,C*3B
$IIMWV,331,R,03.5,N,A*14
$IIMWV,331,T,03.5,N,A*12
$IIRMC,170036,A,4630.025,N,00640.246,E,00.9,141,040913,,,A*4C
$IIVHW,,,154,M,00.0,N,,*64
$IIVLW,01458,N,000.0,N*5B
$IIVWR,044,L,02.7,N,,,,*7A
$IIDPT,015.6,-1.0,*42
$IIGLL,4630.025,N,00640.246,E,170036,A,A*57
$IIHDG,154,,,,*57
$GPRMB,A,0.00,L,,PERF,4622.300,N,00619.430,E,35.031,227.1,,V,A*4E
$GPRMB,+21.0,C*3F
$IIMWV,336,R,03.1,N,A*17
$IIMWV,316,T,02.7,N,A*14
$IIRMC,170037,A,4630.024,N,00640.247,E,00.8,141,040913,,,A*4C
$IIVHW,,,154,M,00.0,N,,*64
$IIVLW,01458,N,000.0,N*5B
$IIVWR,024,L,03.1,N,,,,*7B
$IIDPT,015.3,-1.0,*47
$IIGLL,4630.024,N,00640.247,E,170037,A,A*56
$IIHDG,154,,,,*57
$IIMTW,+21.0,C*3B
$IIMWV,320,R,03.4,N,A*15
$IIMWV,336,T,03.1,N,A*11
$IIRMC,170038,A,4630.024,N,00640.247,E,00.8,141,040913,,,A*43
$IIVHW,,,153,M,00.0,N,,*63
$IIVLW,01458,N,000.0,N*5B
$IIVWR,040,L,03.4,N,,,,*7C
$IIDPT,015.3,-1.0,*47
$IIGLL,4630.024,N,00640.247,E,170038,A,A*59
$IIHDG,153,,,,*50
$IIMTW,+21.0,C*3B
$IIMWV,333,R,02.7,N,A*15
$IIMWV,320,T,03.4,N,A*13
$IIRMC,170039,A,4630.024,N,00640.247,E,00.8,141,040913,,,A*42
$IIVHW,,,153,M,00.0,N,,*63
$IIVLW,01458,N,000.0,N*5B
$IIVWR,027,L,02.7,N,,,,*7F
$IIDPT,015.3,-1.0,*47
$GPRMB,A,0.00,L,,PERF,4622.300,N,00619.430,E,27.214,227.1,,V,A*48
$IIGLL,4630.024,N,00640.247,E,170040,A,A*56
$IIHDG,153,,,,*50
$IIMTW,+21.0,C*3B
$IIMWV,314,R,02.4,N,A*13
$IIMWV,333,T,02.7,N,A*13
$IIRMC,170040,A,4630.024,N,00640.247,E,00.8,141,040913,,,A*4C
$IIVHW,,,153,M,00.0,N,,*63
$IIVLW,01458,N,000.0,N*5B
$IIVWR,046,L,02.4,N,,,,*7B
$IIDPT,015.3,-1.0,*47
$IIGLL,4630.024,N,00640.248,E,170041,A,A*58
$IIHDG,153,,,,*50
$IIMTW,+21.0,C*3B
$IIMWV,320,R,03.0,N,A*11
$IIMWV,314,T,02.4,N,A*15
$IIRMC,170041,A,4630.024,N,00640.248,E,00.9,141,040913,,,A*43
$IIVHW,,,153,M,00.0,N,,*63
$IIVLW,01458,N,000.0,N*5B
$IIVWR,033,L,03.4,N,,,,*78
$IIDPT,015.3,-1.0,*47
$IIGLL,4630.024,N,00640.248,E,170042,A,A*5B
$IIHDG,153,,,,*50
$IIMTW,+21.0,C*3B
$IIMWV,327,R,03.4,N,A*12
$IIMWV,320,T,03.0,N,A*17
$IIRMC,170042,A,4630.024,N,00640.248,E,00.8,141,040913,,,A*41
$GPRMB,A,0.00,L,,PERF,4622.300,N,00619.430,E,27.214,227.1,,V,A*48
$GPRMB,A,0.00,L,,P0,N,,*77
$IIVLW,01458,N,000.0,N*5B
$IIVWR,064,L,02.7,N,,,,*78
$IIDPT,015.3,-1.0,*47
$IIGLL,4630.023,N,00640.248,E,170043,A,A*5D
$IIHDG,154,,,,*57
$IIMTW,+21.0,C*3B
$IIMWV,296,R,02.7,N,A*1B
$IIMWV,327,T,03.4,N,A*14
$IIRMC,170043,A,4630.023,N,00640.248,E,00.9,141,040913,,,A*46
$IIVHW,,,154,M,00.0,N,,*64
$IIVLW,01458,N,000.0,N*5B
$IIVWR,024,L,02.4,N,,,,*7F
$IIDPT,015.3,-1.0,*47
$IIGLL,4630.023,N,00640.248,E,170044,A,A*5A
$IIHDG,154,,,,*57
$IIMTW,+21.0,C*3B
$IIMWV,336,R,02.4,N,A*13
$IIMWV,296,T,02.7,N,A*1D
$IIRMC,170045,A,4630.023,N,00640.249,E,00.8,142,040913,,,A*43
$IIVHW,,,154,M,00.0,N,,*64
$IIVLW,01458,N,000.0,N*5B
$IIVWR,064,L,04.0,N,,,,*79
$IIDPT,015.3,-1.0,*47
$IIGLL,4630.023,N,00640.249,E,170045,A,A*5A
$IIHDG,154,,,,*57
$IIMTW,+21.0,C*3B
$GPRMB,A,0.00,L,,PERF,4622.300,N,00619.430,E,15.573,227.1,,V,A*4F
$GPRMB,A,0.00,L.0,N,A*64
$IIMWV,296,T,04.0,N,A*1C
$IIRMC,170046,A,4630.023,N,00640.249,E,00.9,141,040913,,,A*42
$IIVHW,,,154,M,00.0,N,,*64
$IIVLW,01458,N,000.0,N*5B
$IIVWR,021,L,02.9,N,,,,*77
$IIDPT,015.3,-1.0,*47
$IIGLL,4630.023,N,00640.249,E,170046,A,A*59
$IIHDG,154,,,,*57
$IIMTW,+21.0,C*3B
$IIMWV,331,R,02.1,N,A*11
$IIMWV,339,T,02.9,N,A*17
$IIRMC,170047,A,4630.023,N,00640.249,E,00.8,141,040913,,,A*42
$IIVHW,,,154,M,00.0,N,,*64
$IIVLW,01458,N,000.0,N*5B
$IIVWR,029,L,02.1,N,,,,*77
$IIDPT,015.4,-1.0,*40
$IIGLL,4630.023,N,00640.249,E,170047,A,A*58
$IIHDG,154,,,,*57
$IIMTW,+21.0,C*3B
$IIMWV,309,R,02.9,N,A*12
$IIMWV,331,T,02.1,N,A*17
$IIRMC,170048,A,4630.022,N,00640.249,E,00.9,141,040913,,,A*4D
$IIVHW,,,154,M,00.0,N,,*64
$IIVLW,01458,N,000.0,N*5B
$IIVWR,051,L,02.9,N,,,,*70
$IIDPT,015.4,-1.0,*40
$GPRMB,A,0.00,L,,PERF,4622.300,N,00619.430,E,35.031,227.1,,V,A*4E
$GPRMB,A,0.00,L,,PERF,46249,E,170048,A,A*2A
$IIHDG,154,,,,*57
$IIMTW,+21.0,C*3B
$IIMWV,332,R,03.4,N,A*16
$IIMWV,309,T,02.9,N,A*14
$IIRMC,170049,A,4630.022,N,00640.250,E,00.8,142,040913,,,A*46
$IIVHW,,,154,M,00.0,N,,*64
$IIVLW,01458,N,000.0,N*5B
$IIVWR,028,L,03.4,N,,,,*72
$IIDPT,015.4,-1.0,*40
$IIGLL,4630.022,N,00640.250,E,170050,A,A*57
$IIHDG,154,,,,*57
$IIMTW,+21.0,C*3B
$IIMWV,303,R,04.0,N,A*17
$IIMWV,332,T,03.4,N,A*10
$IIRMC,170050,A,4630.022,N,00640.250,E,00.9,142,040913,,,A*4F
$IIVHW,,,154,M,00.0,N,,*64
$IIVLW,01458,N,000.0,N*5B
$IIVWR,057,L,04.0,N,,,,*79
$IIDPT,015.4,-1.0,*40
$IIGLL,4630.022,N,00640.250,E,170051,A,A*56
$IIHDG,154,,,,*57
$IIMTW,+21.5,C*3E
$IIMWV,340,R,03.5,N,A*12
$IIMWV,303,T,04.0,N,A*11
$IIRMC,170051,A,4630.022,N,00640.250,E,00.8,141,040913,,,A*4C
$IIVHW,,,154,M,00.0,N,,*64
$GPRMB,A,0.00,L,,PERF,4622.300,N,00619.430,E,19.349,227.1,,V,A*4C
$GPRMB,A,0.00,L,,0.0,N*39
$IIVWR,052,L,03.6,N,,,,*7D
$IIDPT,015.4,-1.0,*40
$IIGLL,4630.022,N,00640.250,E,170052,A,A*55
$IIHDG,154,,,,*57
$IIMTW,+21.5,C*3E
$IIMWV,308,R,03.6,N,A*1D
$IIMWV,340,T,03.5,N,A*14
$IIRMC,170052,A,4630.022,N,00640.250,E,00.8,142,040913,,,A*4C
$IIVHW,,,154,M,00.0,N,,*64
$IIVLW,01458,N,000.0,N*5B
$IIVWR,027,L,03.5,N,,,,*7C
$IIDPT,015.5,-1.0,*41
$IIGLL,4630.022,N,00640.250,E,170053,A,A*54
$IIHDG,154,,,,*57
$IIMTW,+21.5,C*3E
$IIMWV,333,R,03.5,N,A*16
$IIMWV,308,T,03.6,N,A*1B
$IIRMC,170053,A,4630.022,N,00640.250,E,00.9,141,040913,,,A*4F
$IIVHW,,,154,M,00.0,N,,*64
$IIVLW,01458,N,000.0,N*5B
$IIVWR,001,R,03.6,N,,,,*65
$IIDPT,015.5,-1.0,*41
$IIGLL,4630.021,N,00640.251,E,170054,A,A*51
$IIHDG,154,,,,*57
$IIMTW,+21.0,C*3B
$IIMWV,001,R,03.6,N,A*17
$IIMWV,333,T,03.5,N,A*10
$GPRMB,A,0.00,L,,PERF,4622.300,N,00619.430,E,35.688,227.1,,V,A*4A
$IIRMC,170055,A,4630.021,N,00640.251,E,00.9,142,040913,,,A*48
$IIVHW,,,154,M,00.0,N,,*64
$IIVLW,01458,N,000.0,N*5B
$IIVWR,039,L,02.7,N,,,,*70
$IIDPT,015.5,-1.0,*41
$IIGLL,4630.021,N,00640.251,E,170055,A,A*50
$IIHDG,154,,,,*57
$IIMTW,+21.0,C*3B
$IIMWV,321,R,02.7,N,A*16
$IIMWV,321,T,02.7,N,A*10
$IIRMC,170056,A,4630.021,N,00640.251,E,00.8,142,040913,,,A*4A
$IIVHW,,,154,M,00.0,N,,*64
$IIVLW,01458,N,000.0,N*5B
$IIVWR,015,L,03.1,N,,,,*79
$IIDPT,015.5,-1.0,*41
$IIGLL,4630.021,N,00640.251,E,170056,A,A*53
$IIHDG,154,,,,*57
$IIMTW,+21.0,C*3B
$IIMWV,328,R,03.4,N,A*1D
$IIMWV,345,T,03.1,N,A*15
$IIRMC,170057,A,4630.021,N,00640.252,E,00.8,142,040913,,,A*48
$IIVHW,,,154,M,00.0,N,,*64
$IIVLW,01458,N,000.0,N*5B
$IIVWR,032,L,03.4,N,,,,*79
$IIDPT,015.3,-1.0,*47
$IIGLL,4630.021,N,00640.252,E,170057,A,A*51
$GPRMB,A,0.00,L,,PERF,4622.300,N,00619.430,E,34.315,227.1,,V,A*4A
$IIHDG,154,,,,*57
$IIMTW,+21.0,C*3B
$IIMWV,330,R,02.7,N,A*16
$IIMWV,328,T,03.4,N,A*1B
