$IIVHW,,,272,M,00.0,N,,*63
$IIVLW,01459,N,000.0,N*5A
$IIVWR,038,L,05.8,N,,,,*79
$IIDPT,001.8,-1.0,*49
$IIHDG,272,,,,*50
$IIMTW,+16.0,C*3F
$IIMWV,322,R,05.8,N,A*1D
$IIMWV,322,T,05.8,N,A*1B
$IIVHW,,,271,M,00.0,N,,*60
$IIVLW,01459,N,000.0,N*5A
$IIVWR,039,L,07.1,N,,,,*73
$IIDPT,001.8,-1.0,*49
$IIHDG,271,,,,*53
$IIMTW,+16.0,C*3F
$IIMWV,321,R,07.1,N,A*15
$IIMWV,321,T,07.1,N,A*13
$IIVHW,,,271,M,00.0,N,,*60
$IIVLW,01459,N,000.0,N*5A
$IIVWR,030,L,07.1,N,,,,*7A
$IIDPT,001.9,-1.0,*48
$IIHDG,271,,,,*53
$IIMTW,+16.0,C*3F
$IIMWV,330,R,07.1,N,A*15
$GPRMB,A,0.00,L,,PERF,4622.300,N,00619.430,E,0.000,227.1,,V,A*7A
$IIMWV,330,T,07.1,N,A*13
$IIVHW,,,271,M,00.0,N,,*60
$IIVLW,01459,N,000.0,N*5A
$IIVWR,037,L,07.3,N,,,,*7F
$IIDPT,001.9,-1.0,*48
$IIHDG,271,,,,*53
$IIMTW,+16.0,C*3F
$IIMWV,323,R,07.3,N,A*15
$IIMWV,323,T,07.3,N,A*13
$IIVHW,,,271,M,00.0,N,,*60
$IIVLW,01459,N,000.0,N*5A
$IIVWR,038,L,08.7,N,,,,*7B
$IIDPT,001.9,-1.0,*48
$IIHDG,271,,,,*53
$IIMTW,+16.0,C*3F
$IIMWV,322,R,08.7,N,A*1F
$IIMWV,322,T,08.7,N,A*19
$IIVHW,,,270,M,00.0,N,,*61
$IIVLW,01459,N,000.0,N*5A
$IIVWR,031,L,09.6,N,,,,*72
$IIDPT,001.9,-1.0,*48
$IIHDG,270,,,,*52
$IIMTW,+16.0,C*3F
$IIMWV,329,R,09.6,N,A*14
$GPRMB,A,0.00,L,,PERF,4622.300,N,00619.430,E,0.000,227.1,,V,A*7A
$IIMWV,329,T,09.6,N,A*12
$IIVHW,,,270,M,00.0,N,,*61
$IIVLW,01459,N,000.0,N*5A
$IIVWR,035,L,09.3,N,,,,*73
$IIDPT,001.9,-1.0,*48
$IIHDG,270,,,,*52
$IIMTW,+16.0,C*3F
$IIMWV,325,R,09.3,N,A*1D
$IIMWV,325,T,09.3,N,A*1B
$IIVHW,,,270,M,00.0,N,,*61
$IIVLW,01459,N,000.0,N*5A
$IIVWR,034,L,09.1,N,,,,*70
$IIDPT,001.9,-1.0,*48
$IIHDG,270,,,,*52
$IIMTW,+16.0,C*3F
$IIMWV,326,R,09.1,N,A*1C
$IIMWV,326,T,09.1,N,A*1A
$IIVHW,,,270,M,00.0,N,,*61
$IIVLW,01459,N,000.0,N*5A
$IIVWR,027,L,09.1,N,,,,*72
$IIDPT,001.9,-1.0,*48
$IIHDG,270,,,,*52
$IIMTW,+16.0,C*3F
$IIMWV,333,R,09.1,N,A*18
$GPRMB,A,0.00,L,,PERF,4622.300,N,00619.430,E,0.000,227.1,,V,A*7A
$IIMWV,333,T,09.1,N,A*1E
$IIVHW,,,270,M,00.0,N,,*61
$IIVLW,01459,N,000.0,N*5A
$IIVWR,028,L,08.7,N,,,,*7A
$IIDPT,001.7,-1.0,*46
$IIHDG,270,,,,*52
$IIMTW,+16.0,C*3F
$IIMWV,332,R,08.7,N,A*1E
$IIMWV,332,T,08.7,N,A*18
$IIVHW,,,270,M,00.0,N,,*61
$IIVLW,01459,N,000.0,N*5A
$IIVWR,028,L,08.6,N,,,,*7B
$IIDPT,001.7,-1.0,*46
$IIHDG,270,,,,*52
$IIMTW,+16.0,C*3F
$IIMWV,332,R,08.6,N,A*1F
$IIMWV,332,T,08.6,N,A*19
$IIVHW,,,270,M,00.0,N,,*61
$IIVLW,01459,N,000.0,N*5A
$IIVWR,037,L,07.5,N,,,,*79
$IIDPT,001.7,-1.0,*46
$IIHDG,270,,,,*52
$IIMTW,+16.0,C*3F
$IIMWV,323,R,07.5,N,A*13
$GPRMB,A,0.00,L,,PERF,4622.300,N,00619.430,E,0.000,227.1,,V,A*7A
$IIMWV,323,T,07.5,N,A*15
$IIVHW,,,270,M,00.0,N,,*61
$IIVLW,01459,N,000.0,N*5A
$IIVWR,035,L,07.4,N,,,,*7A
$IIDPT,001.7,-1.0,*46
$IIHDG,270,,,,*52
$IIMTW,+16.0,C*3F
$IIMWV,325,R,07.4,N,A*14
$IIMWV,325,T,07.4,N,A*12
$IIVHW,,,270,M,00.0,N,,*61
$IIVLW,01459,N,000.0,N*5A
$IIVWR,033,L,07.4,N,,,,*7C
$IIDPT,001.8,-1.0,*49
$IIHDG,270,,,,*52
$IIMTW,+16.0,C*3F
$IIMWV,327,R,07.4,N,A*16
$IIMWV,327,T,07.4,N,A*10
$IIVHW,,,270,M,00.0,N,,*61
$IIVLW,01459,N,000.0,N*5A
$IIVWR,031,L,08.9,N,,,,*7C
$IIDPT,001.8,-1.0,*49
$IIHDG,270,,,,*52
$IIMTW,+16.0,C*3F
$IIMWV,329,R,08.9,N,A*1A
$GPRMB,A,0.00,L,,PERF,4622.300,N,00619.430,E,0.000,227.1,,V,A*7A
$IIMWV,329,T,08.9,N,A*1C
$IIVHW,,,269,M,00.0,N,,*69
$IIVLW,01459,N,000.0,N*5A
$IIVWR,028,L,08.6,N,,,,*7B
$IIDPT,001.8,-1.0,*49
$IIHDG,269,,,,*5A
$IIMTW,+16.0,C*3F
$IIMWV,332,R,08.6,N,A*1F
$IIMWV,332,T,08.6,N,A*19
$IIVHW,,,269,M,00.0,N,,*69
$IIVLW,01459,N,000.0,N*5A
$IIVWR,005,L,07.2,N,,,,*7F
$IIDPT,001.8,-1.0,*49
$IIHDG,269,,,,*5A
$IIMTW,+16.0,C*3F
$IIMWV,355,R,07.2,N,A*15
$IIMWV,355,T,07.2,N,A*13
$IIVHW,,,269,M,00.0,N,,*69
$IIVLW,01459,N,000.0,N*5A
$IIVWR,028,L,07.5,N,,,,*77
$IIDPT,001.8,-1.0,*49
$IIHDG,269,,,,*5A
$IIMTW,+16.0,C*3F
$IIMWV,332,R,07.5,N,A*13
$GPRMB,A,0.00,L,,PERF,4622.300,N,00619.430,E,0.000,227.1,,V,A*7A
$IIMWV,332,T,07.5,N,A*15
$IIVHW,,,269,M,00.0,N,,*69
$IIVLW,01459,N,000.0,N*5A
$IIVWR,026,L,05.9,N,,,,*77
$IIDPT,001.8,-1.0,*49
$IIHDG,269,,,,*5A
$IIMTW,+16.0,C*3F
$IIMWV,334,R,05.9,N,A*1B
$IIMWV,334,T,05.9,N,A*1D
$IIVHW,,,269,M,00.0,N,,*69
$IIVLW,01459,N,000.0,N*5A
$IIVWR,027,L,07.2,N,,,,*7F
$IIDPT,001.8,-1.0,*49
$IIHDG,269,,,,*5A
$IIMTW,+16.0,C*3F
$IIMWV,333,R,07.2,N,A*15
$IIMWV,333,T,07.2,N,A*13
$IIVHW,,,270,M,00.0,N,,*61
$IIVLW,01459,N,000.0,N*5A
$IIVWR,021,L,09.2,N,,,,*77
$IIDPT,001.8,-1.0,*49
$IIHDG,270,,,,*52
$IIMTW,+16.0,C*3F
$IIMWV,339,R,09.2,N,A*11
$GPRMB,A,0.00,L,,PERF,4622.300,N,00619.430,E,0.000,227.1,,V,A*7A
$IIMWV,339,T,09.2,N,A*17
$IIVHW,,,270,M,00.0,N,,*61
$IIVLW,01459,N,000.0,N*5A
$IIVWR,003,L,09.3,N,,,,*76
$IIDPT,001.8,-1.0,*49
$IIHDG,270,,,,*52
$IIMTW,+16.0,C*3F
$IIMWV,357,R,09.3,N,A*18
$IIMWV,357,T,09.3,N,A*1E
$IIVHW,,,270,M,00.0,N,,*61
$IIVLW,01459,N,000.0,N*5A
$IIVWR,015,L,07.2,N,,,,*7E
$IIDPT,001.8,-1.0,*49
$IIHDG,270,,,,*52
$IIMTW,+16.0,C*3F
$IIMWV,345,R,07.2,N,A*14
$IIMWV,345,T,07.2,N,A*12
$IIVHW,,,269,M,00.0,N,,*69
$IIVLW,01459,N,000.0,N*5A
$IIVWR,028,L,08.1,N,,,,*7C
$IIDPT,001.9,-1.0,*48
$IIHDG,269,,,,*5A
$IIMTW,+16.0,C*3F
$IIMWV,332,R,08.1,N,A*18
$GPRMB,A,0.00,L,,PERF,4622.300,N,00619.430,E,0.000,227.1,,V,A*7A
$IIMWV,332,T,08.1,N,A*1E
$IIVHW,,,269,M,00.0,N,,*69
$IIVLW,01459,N,000.0,N*5A
$IIVWR,026,L,09.5,N,,,,*77
$IIDPT,001.9,-1.0,*48
$IIHDG,269,,,,*5A
$IIMTW,+16.0,C*3F
$IIMWV,334,R,09.5,N,A*1B
$IIMWV,334,T,09.5,N,A*1D
$IIVHW,,,269,M,00.0,N,,*69
$IIVLW,01459,N,000.0,N*5A
$IIVWR,024,L,09.2,N,,,,*72
$IIDPT,001.9,-1.0,*48
$IIHDG,269,,,,*5A
$IIMTW,+16.0,C*3F
$IIMWV,336,R,09.2,N,A*1E
$IIMWV,336,T,09.2,N,A*18
$IIVHW,,,269,M,00.0,N,,*69
$IIVLW,01459,N,000.0,N*5A
$IIVWR,032,L,09.6,N,,,,*71
$IIDPT,001.9,-1.0,*48
$IIHDG,269,,,,*5A
$IIMTW,+16.0,C*3F
$IIMWV,328,R,09.6,N,A*15
$GPRMB,A,0.00,L,,PERF,4622.300,N,00619.430,E,0.000,227.1,,V,A*7A
$IIMWV,328,T,09.6,N,A*13
$IIVHW,,,269,M,00.0,N,,*69
$IIVLW,01459,N,000.0,N*5A
$IIVWR,029,L,08.2,N,,,,*7E
$IIDPT,001.9,-1.0,*48
$IIHDG,269,,,,*5A
$IIMTW,+16.0,C*3F
$IIMWV,331,R,08.2,N,A*18
$IIMWV,331,T,08.2,N,A*1E
$IIVHW,,,269,M,00.0,N,,*69
$IIVLW,01459,N,000.0,N*5A
$IIVWR,034,L,07.6,N,,,,*79
$IIDPT,001.9,-1.0,*48
$IIHDG,269,,,,*5A
$IIMTW,+16.0,C*3F
$IIMWV,326,R,07.6,N,A*15
$IIMWV,326,T,07.6,N,A*13
$IIVHW,,,269,M,00.0,N,,*69
$IIVLW,01459,N,000.0,N*5A
$IIVWR,022,L,07.6,N,,,,*7E
$IIDPT,001.9,-1.0,*48
$IIHDG,269,,,,*5A
$IIMTW,+16.0,C*3F
$IIMWV,338,R,07.6,N,A*1A
$GPRMB,A,0.00,L,,PERF,4622.300,N,00619.430,E,0.000,227.1,,V,A*7A
$IIMWV,338,T,07.6,N,A*1C
$IIVHW,,,269,M,00.0,N,,*69
$IIVLW,01459,N,000.0,N*5A
$IIVWR,022,L,06.3,N,,,,*7A
$IIDPT,001.9,-1.0,*48
$IIHDG,269,,,,*5A
$IIMTW,+16.0,C*3F
$IIMWV,338,R,06.3,N,A*1E
$IIMWV,338,T,06.3,N,A*18
$IIRMC,163135,A,4630.087,N,00641.051,E,00.4,000,110913,,,A*4C
$IIVHW,,,269,M,00.0,N,,*69
$IIVLW,01459,N,000.0,N*5A
$IIVWR,024,L,07.2,N,,,,*7C
$IIDPT,001.9,-1.0,*48
$IIGLL,4630.087,N,00641.051,E,163135,A,A*5A
$IIHDG,269,,,,*5A
$IIMTW,+16.0,C*3F
$IIMWV,006,R,00.0,N,A*15
$IIMWV,336,T,07.2,N,A*16
$IIRMC,163136,A,4630.086,N,00641.051,E,00.2,356,110913,,,A*48
$IIVHW,,,269,M,00.0,N,,*69
$IIVLW,01459,N,000.0,N*5A
$IIVWR,006,R,00.0,N,,,,*67
$IIDPT,001.9,-1.0,*48
$GPRMB,A,0.00,L,,PERF,4622.300,N,00619.430,E,8.114,227.1,,V,A*76
$GPRMB,A,0.00,L,,PERF,1.051,E,163136,A,A*36
$IIHDG,269,,,,*5A
$IIMTW,+16.0,C*3F
$IIMWV,006,R,00.0,N,A*15
$IIMWV,006,T,00.0,N,A*13
$IIRMC,163137,A,4630.086,N,00641.051,E,00.2,356,110913,,,A*49
$IIVHW,,,269,M,00.0,N,,*69
$IIVLW,01459,N,000.0,N*5A
$IIVWR,006,R,00.0,N,,,,*67
$IIDPT,001.9,-1.0,*48
$IIGLL,4630.086,N,00641.051,E,163137,A,A*59
$IIHDG,270,,,,*52
$IIMTW,+16.0,C*3F
$IIMWV,006,R,00.0,N,A*15
$IIMWV,006,T,00.0,N,A*13
$IIRMC,163138,A,4630.086,N,00641.051,E,00.3,006,110913,,,A*41
$IIVHW,,,270,M,00.0,N,,*61
$IIVLW,01459,N,000.0,N*5A
$IIVWR,006,R,00.0,N,,,,*67
$IIDPT,001.9,-1.0,*48
$IIGLL,4630.086,N,00641.051,E,163139,A,A*57
$IIHDG,270,,,,*52
$IIMTW,+16.0,C*3F
$IIMWV,006,T,00.0,N,A*13
$IIRMC,163139,A,4630.086,N,00641.051,E,00.3,006,110913,,,A*40
$IIVHW,,,270,M,00.0,N,,*61
$IIVLW,01459,N,000.0,N*5A
$GPRMB,A,0.00,L,,PERF,4622.300,N,00619.430,E,109.821,227.1,,V,A*79
$GPRMB,A,0.00,L,0,*45
$IIGLL,4630.086,N,00641.051,E,163140,A,A*59
$IIHDG,269,,,,*5A
$IIMTW,+16.0,C*3F
$IIMWV,326,R,09.0,N,A*1D
$IIRMC,163140,A,4630.086,N,00641.051,E,00.3,006,110913,,,A*4E
$IIVHW,,,269,M,00.0,N,,*69
$IIVLW,01459,N,000.0,N*5A
$IIVWR,034,L,09.0,N,,,,*71
$IIDPT,001.9,-1.0,*48
$IIGLL,4630.087,N,00641.051,E,163141,A,A*59
$IIHDG,269,,,,*5A
$IIMTW,+16.0,C*3F
$IIMWV,330,R,09.9,N,A*13
$IIMWV,326,T,09.0,N,A*1B
$IIRMC,163141,A,4630.087,N,00641.051,E,00.3,006,110913,,,A*4E
$IIVHW,,,269,M,00.0,N,,*69
$IIVLW,01459,N,000.0,N*5A
$IIVWR,030,L,09.9,N,,,,*7C
$IIDPT,001.9,-1.0,*48
$IIGLL,4630.087,N,00641.051,E,163142,A,A*5A
$IIHDG,269,,,,*5A
$IIMTW,+16.0,C*3F
$IIMWV,326,R,09.5,N,A*18
$IIMWV,330,T,09.9,N,A*15
$IIRMC,163142,A,4630.087,N,00641.051,E,00.3,006,110913,,,A*4D
$GPRMB,A,0.00,L,,PERF,4622.300,N,00619.430,E,11.462,227.1,,V,A*4A
$GPRMB,A,0.00,L,,PERF,,*74
$IIVLW,01459,N,000.0,N*5A
$IIVWR,026,L,07.8,N,,,,*74
$IIDPT,001.9,-1.0,*48
$IIGLL,4630.087,N,00641.051,E,163143,A,A*5B
$IIHDG,269,,,,*5A
$IIMTW,+16.0,C*3F
$IIMWV,334,R,07.8,N,A*18
$IIMWV,326,T,09.5,N,A*1E
$IIRMC,163143,A,4630.087,N,00641.051,E,00.3,006,110913,,,A*4C
$IIVHW,,,269,M,00.0,N,,*69
$IIVLW,01459,N,000.0,N*5A
$IIVWR,026,L,07.5,N,,,,*79
$IIDPT,001.9,-1.0,*48
$IIGLL,4630.087,N,00641.050,E,163144,A,A*5D
$IIHDG,269,,,,*5A
$IIMTW,+16.0,C*3F
$IIMWV,334,R,07.5,N,A*15
$IIMWV,334,T,07.8,N,A*1E
$IIRMC,163144,A,4630.087,N,00641.050,E,00.3,006,110913,,,A*4A
$IIVHW,,,270,M,00.0,N,,*61
$IIVLW,01459,N,000.0,N*5A
$IIVWR,019,L,06.7,N,,,,*76
$IIDPT,001.9,-1.0,*48
$IIGLL,4630.087,N,00641.050,E,163145,A,A*5C
$IIHDG,270,,,,*52
$IIMTW,+16.0,C*3F
$IIMWV,341,R,06.7,N,A*14
$IIMWV,334,T,07.5,N,A*13
$GPRMB,A,0.00,L,,PERF,4622.300,N,00619.430,E,11.896,227.1,,V,A*4D
$IIRMC,163146,A,4630.087,N,00641.050,E,00.3,006,110913,,,A*48
$IIVHW,,,270,M,00.0,N,,*61
$IIVLW,01459,N,000.0,N*5A
$IIVWR,006,L,06.4,N,,,,*7B
$IIDPT,001.9,-1.0,*48
$IIGLL,4630.087,N,00641.050,E,163146,A,A*5F
$IIHDG,270,,,,*52
$IIMTW,+16.0,C*3F
$IIMWV,354,R,06.4,N,A*13
$IIMWV,354,T,06.4,N,A*15
$IIRMC,163147,A,4630.087,N,00641.050,E,00.3,006,110913,,,A*49
$IIVHW,,,270,M,00.0,N,,*61
$IIVLW,01459,N,000.0,N*5A
$IIVWR,028,L,06.5,N,,,,*76
$IIDPT,001.9,-1.0,*48
$IIGLL,4630.087,N,00641.050,E,163147,A,A*5E
$IIHDG,270,,,,*52
$IIMTW,+16.0,C*3F
$IIMWV,319,R,05.9,N,A*14
$IIMWV,332,T,06.5,N,A*14
$IIRMC,163148,A,4630.087,N,00641.050,E,00.3,006,110913,,,A*46
$IIVHW,,,270,M,00.0,N,,*61
$IIVLW,01459,N,000.0,N*5A
$IIVWR,041,L,05.9,N,,,,*76
$IIDPT,001.9,-1.0,*48
$GPRMB,A,0.00,L,,PERF,4622.300,N,00619.430,E,11.686,227.1,,V,A*42
$GPRMB,A,0.00,L,,PERF,1.050,E,163148,A,A*3E
$IIHDG,270,,,,*52
$IIMTW,+16.0,C*3F
$IIMWV,320,R,06.4,N,A*10
$IIMWV,319,T,05.9,N,A*12
$IIRMC,163149,A,4630.087,N,00641.050,E,00.3,006,110913,,,A*47
$IIVHW,,,270,M,00.0,N,,*61
$IIVLW,01459,N,000.0,N*5A
$IIVWR,040,L,06.4,N,,,,*79
$IIDPT,001.9,-1.0,*48
$IIGLL,4630.087,N,00641.050,E,163149,A,A*50
$IIHDG,270,,,,*52
$IIMTW,+16.0,C*3F
$IIMWV,320,R,05.5,N,A*12
$IIMWV,326,T,05.7,N,A*10
$IIRMC,163151,A,4630.087,N,00641.050,E,00.3,006,110913,,,A*4E
$IIVHW,,,270,M,00.0,N,,*61
$IIVLW,01459,N,000.0,N*5A
$IIVWR,040,L,05.5,N,,,,*7B
$GPRMB,A,0.00,L,,PERF,4622.300,N,00619.430,E,10.972,227.1,,V,A*47
$GPRMB,001.9,-1.0,*42
$IIGLL,4630.087,N,00641.050,E,163152,A,A*5A
$IIHDG,270,,,,*52
$IIMTW,+16.0,C*3F
$IIMWV,306,R,04.9,N,A*1B
$IIMWV,320,T,05.5,N,A*14
$IIRMC,163152,A,4630.087,N,00641.050,E,00.3,006,110913,,,A*4D
$IIVHW,,,270,M,00.0,N,,*61
$IIVLW,01459,N,000.0,N*5A
$IIVWR,054,L,04.9,N,,,,*73
$IIDPT,001.9,-1.0,*48
$IIGLL,4630.087,N,00641.050,E,163153,A,A*5B
$IIHDG,270,,,,*52
$IIMTW,+16.0,C*3F
$IIMWV,292,R,04.7,N,A*19
$IIMWV,306,T,04.9,N,A*1D
$IIRMC,163153,A,4630.087,N,00641.050,E,00.3,006,110913,,,A*4C
$IIVHW,,,270,M,00.0,N,,*61
$IIVLW,01459,N,000.0,N*5A
$IIVWR,028,L,04.6,N,,,,*77
$IIDPT,001.9,-1.0,*48
$IIGLL,4630.087,N,00641.050,E,163154,A,A*5C
$IIHDG,271,,,,*53
$IIMTW,+16.0,C*3F
$IIMWV,332,R,04.6,N,A*13
$IIMWV,292,T,04.7,N,A*1F
$GPRMB,A,0.00,L,,PERF,4622.300,N,00619.430,E,4.958,227.1,,V,A*7A
$GPRMB,A,0.00,L,,PERF,4622.300,N,00619.430,E,4.958,227.1,A*2C
$IIVHW,,,271,M,00.0,N,,*60
$IIVLW,01459,N,000.0,N*5A
$IIVWR,052,L,04.6,N,,,,*7A
$IIDPT,001.9,-1.0,*48
$IIGLL,4630.087,N,00641.050,E,163155,A,A*5D
$IIHDG,271,,,,*53
$IIMTW,+16.0,C*3F
$IIMWV,308,R,04.6,N,A*1A
$IIMWV,332,T,04.6,N,A*15
$IIRMC,163155,A,4630.087,N,00641.050,E,00.3,006,110913,,,A*4A
$IIVHW,,,271,M,00.0,N,,*60
$IIVLW,01459,N,000.0,N*5A
$IIVWR,028,L,03.5,N,,,,*73
$IIDPT,001.9,-1.0,*48
$IIGLL,4630.087,N,00641.050,E,163156,A,A*5E
$IIHDG,271,,,,*53
$IIMTW,+16.0,C*3F
$IIMWV,332,R,03.5,N,A*17
$IIMWV,308,T,04.6,N,A*1C
$IIRMC,163157,A,4630.087,N,00641.050,E,00.3,006,110913,,,A*48
$IIVHW,,,271,M,00.0,N,,*60
$IIVLW,01459,N,000.0,N*5A
$IIVWR,027,L,05.7,N,,,,*78
$IIDPT,001.9,-1.0,*48
$IIGLL,4630.087,N,00641.050,E,163157,A,A*5F
$IIHDG,271,,,,*53
$GPRMB,A,0.00,L,,PERF,4622.300,N,00619.430,E,8.148,227.1,,V,A*7F
$GPRMB,A,6.0,C*4C
$IIMWV,333,R,05.7,N,A*12
$IIMWV,333,T,05.7,N,A*14
$IIRMC,163158,A,4630.087,N,00641.050,E,00.3,006,110913,,,A*47
$IIVHW,,,271,M,00.0,N,,*60
$IIVLW,01459,N,000.0,N*5A
$IIVWR,035,L,05.4,N,,,,*78
$IIDPT,001.9,-1.0,*48
$IIGLL,4630.087,N,00641.050,E,163158,A,A*50
$IIHDG,271,,,,*53
$IIMTW,+16.0,C*3F
$IIMWV,006,R,00.0,N,A*15
$IIMWV,325,T,05.4,N,A*10
$IIRMC,163159,A,4630.087,N,00641.050,E,00.3,006,110913,,,A*46
$IIVHW,,,271,M,00.0,N,,*60
$IIVLW,01459,N,000.0,N*5A
$IIVWR,006,R,00.0,N,,,,*67
$IIDPT,001.9,-1.0,*48
$IIGLL,4630.087,N,00641.050,E,163159,A,A*51
$IIHDG,271,,,,*53
$IIMTW,+16.0,C*3F
$IIMWV,331,R,06.1,N,A*15
$IIMWV,006,T,00.0,N,A*13
$IIRMC,163200,A,4630.087,N,00641.050,E,00.3,006,110913,,,A*49
$IIVHW,,,271,M,00.0,N,,*60
$IIVLW,01459,N,000.0,N*5A
$IIVWR,029,L,06.1,N,,,,*73
$IIDPT,001.9,-1.0,*48
$GPRMB,A,0.00,L,,PERF,4622.300,N,00619.430,E,109.821,227.1,,V,A*79
$IIGLL,4630.087,N,00641.050,E,163200,A,A*5E
$IIHDG,271,,,,*53
$IIMTW,+16.0,C*3F
$IIMWV,330,R,04.3,N,A*14
$IIMWV,331,T,06.1,N,A*13
$IIRMC,163201,A,4630.087,N,00641.050,E,00.3,006,110913,,,A*48
$IIVHW,,,271,M,00.0,N,,*60
$IIVLW,01459,N,000.0,N*5A
$IIVWR,030,L,04.3,N,,,,*7B
$IIDPT,001.9,-1.0,*48
$IIGLL,4630.087,N,00641.051,E,163202,A,A*5D
$IIHDG,271,,,,*53
$IIMTW,+16.0,C*3F
$IIMWV,332,R,04.5,N,A*10
$IIMWV,330,T,04.3,N,A*12
$IIRMC,163202,A,4630.087,N,00641.051,E,00.3,006,110913,,,A*4A
$IIVHW,,,271,M,00.0,N,,*60
$IIVLW,01459,N,000.0,N*5A
$IIVWR,028,L,04.5,N,,,,*74
$IIDPT,001.9,-1.0,*48
$IIGLL,4630.087,N,00641.051,E,163203,A,A*5C
$IIHDG,271,,,,*53
$IIMTW,+16.0,C*3F
$IIMWV,338,R,04.6,N,A*19
$IIMWV,332,T,04.5,N,A*16
$IIRMC,163203,A,4630.087,N,00641.051,E,00.3,006,110913,,,A*4B
$GPRMB,A,0.00,L,,PERF,4622.300,N,00619.430,E,11.686,227.1,,V,A*42
$GPRMB,A,0.00,L,,PERN,,*7C
$IIVLW,01459,N,000.0,N*5A
$IIVWR,021,L,05.1,N,,,,*78
$IIDPT,001.9,-1.0,*48
$IIGLL,4630.087,N,00641.051,E,163204,A,A*5B
$IIHDG,271,,,,*53
$IIMTW,+16.0,C*3F
$IIMWV,339,R,05.1,N,A*1E
$IIMWV,338,T,04.6,N,A*1F
$IIRMC,163204,A,4630.087,N,00641.051,E,00.3,006,110913,,,A*4C
$IIVHW,,,271,M,00.0,N,,*60
$IIVLW,01459,N,000.0,N*5A
$IIVWR,019,L,06.4,N,,,,*75
$IIDPT,001.9,-1.0,*48
$IIGLL,4630.087,N,00641.051,E,163205,A,A*5A
$IIHDG,271,,,,*53
$IIMTW,+16.0,C*3F
$IIMWV,341,R,06.4,N,A*17
$IIMWV,339,T,05.1,N,A*18
$IIRMC,163205,A,4630.087,N,00641.051,E,00.3,006,110913,,,A*4D
$IIVHW,,,271,M,00.0,N,,*60
$IIVLW,01459,N,000.0,N*5A
$IIVWR,025,L,06.5,N,,,,*7B
$IIDPT,001.9,-1.0,*48
$IIGLL,4630.087,N,00641.051,E,163206,A,A*59
$IIHDG,271,,,,*53
$IIMTW,+16.0,C*3F
$IIMWV,335,R,06.5,N,A*15
$IIMWV,341,T,06.4,N,A*11
$GPRMB,A,0.00,L,,PERF,4622.300,N,00619.430,E,12.514,227.1,,V,A*49
$IIRMC,163207,A,4630.087,N,00641.051,E,00.3,006,110913,,,A*4F
$IIVHW,,,271,M,00.0,N,,*60
$IIVLW,01459,N,000.0,N*5A
$IIVWR,025,L,07.8,N,,,,*77
$IIDPT,001.9,-1.0,*48
$IIGLL,4630.087,N,00641.051,E,163207,A,A*58
$IIHDG,271,,,,*53
$IIMTW,+16.0,C*3F
$IIMWV,335,R,07.8,N,A*19
$IIMWV,335,T,07.8,N,A*1F
$IIRMC,163208,A,4630.087,N,00641.051,E,00.3,006,110913,,,A*40
$IIVHW,,,271,M,00.0,N,,*60
$IIVLW,01459,N,000.0,N*5A
$IIVWR,031,L,08.3,N,,,,*76
$IIDPT,001.9,-1.0,*48
$IIGLL,4630.087,N,00641.051,E,163208,A,A*57
$IIHDG,271,,,,*53
$IIMTW,+16.0,C*3F
$IIMWV,327,R,09.3,N,A*1F
$IIMWV,329,T,08.3,N,A*16
$IIRMC,163209,A,4630.087,N,00641.051,E,00.3,006,110913,,,A*41
$IIVHW,,,271,M,00.0,N,,*60
$IIVLW,01459,N,000.0,N*5A
$IIVWR,033,L,09.3,N,,,,*75
$IIDPT,001.9,-1.0,*48
$GPRMB,A,0.00,L,,PERF,4622.300,N,00619.430,E,11.345,227.1,,V,A*48
$GPRMB,A,0.00,L,,PER641.051,E,163209,A,A*51
$IIHDG,271,,,,*53
$IIMTW,+16.0,C*3F
$IIMWV,323,R,09.6,N,A*1E
$IIMWV,327,T,09.3,N,A*19
$IIRMC,163210,A,4630.087,N,00641.051,E,00.3,006,110913,,,A*49
$IIVHW,,,271,M,00.0,N,,*60
$IIVLW,01459,N,000.0,N*5A
$IIVWR,037,L,09.6,N,,,,*74
$IIDPT,001.9,-1.0,*48
$IIGLL,4630.087,N,00641.051,E,163210,A,A*5E
$IIHDG,271,,,,*53
$IIMTW,+16.0,C*3F
$IIMWV,326,R,08.1,N,A*1D
$IIMWV,323,T,09.6,N,A*18
$IIRMC,163211,A,4630.087,N,00641.051,E,00.3,006,110913,,,A*48
$IIVHW,,,271,M,00.0,N,,*60
$IIVLW,01459,N,000.0,N*5A
$IIVWR,034,L,08.1,N,,,,*71
$IIDPT,001.9,-1.0,*48
$IIGLL,4630.087,N,00641.051,E,163212,A,A*5C
$IIHDG,272,,,,*50
$IIMTW,+16.5,C*3A
$IIMWV,330,R,07.4,N,A*10
$IIMWV,326,T,08.1,N,A*1B
$IIRMC,163212,A,4630.087,N,00641.051,E,00.3,006,110913,,,A*4B
$IIVHW,,,272,M,00.0,N,,*63
$GPRMB,A,0.00,L,,PERF,4622.300,N,00619.430,E,10.972,227.1,,V,A*47
$GPRMB,A,0.00,L000.0,N*39
$IIVWR,030,L,07.4,N,,,,*7F
$IIDPT,001.9,-1.0,*48
$IIGLL,4630.087,N,00641.051,E,163213,A,A*5D
$IIHDG,272,,,,*50
$IIMTW,+16.5,C*3A
$IIMWV,327,R,07.2,N,A*10
$IIMWV,330,T,07.4,N,A*16
$IIRMC,163213,A,4630.087,N,00641.051,E,00.3,006,110913,,,A*4A
$IIVHW,,,272,M,00.0,N,,*63
$IIVLW,01459,N,000.0,N*5A
$IIVWR,035,L,08.6,N,,,,*77
$IIDPT,001.9,-1.0,*48
$IIGLL,4630.087,N,00641.051,E,163214,A,A*5A
$IIHDG,272,,,,*50
$IIMTW,+16.0,C*3F
$IIMWV,325,R,08.6,N,A*19
$IIMWV,327,T,07.2,N,A*16
$IIRMC,163214,A,4630.087,N,00641.051,E,00.3,006,110913,,,A*4D
$IIVHW,,,272,M,00.0,N,,*63
$IIVLW,01459,N,000.0,N*5A
$IIVWR,028,L,08.5,N,,,,*78
$IIDPT,001.9,-1.0,*48
$IIGLL,4630.087,N,00641.051,E,163215,A,A*5B
$IIHDG,272,,,,*50
$IIMTW,+16.0,C*3F
$IIMWV,332,R,08.5,N,A*1C
$IIMWV,325,T,08.6,N,A*1F
$GPRMB,A,0.00,L,,PERF,4622.300,N,00619.430,E,10.841,227.1,,V,A*46
$GPRMB,A,0.00,L,,PERF,4622.30641.051,E,00.3,006,110913,,,A*56
$IIVHW,,,272,M,00.0,N,,*63
$IIVLW,01459,N,000.0,N*5A
$IIVWR,025,L,07.9,N,,,,*76
$IIDPT,001.9,-1.0,*48
$IIGLL,4630.087,N,00641.051,E,163216,A,A*58
$IIHDG,272,,,,*50
$IIMTW,+16.0,C*3F
$IIMWV,335,R,07.9,N,A*18
$IIMWV,332,T,08.5,N,A*1A
$IIRMC,163217,A,4630.087,N,00641.051,E,00.2,011,110913,,,A*49
$IIVHW,,,272,M,00.0,N,,*63
$IIVLW,01459,N,000.0,N*5A
$IIVWR,029,L,07.9,N,,,,*7A
$IIDPT,001.9,-1.0,*48
$IIGLL,4630.087,N,00641.051,E,163217,A,A*59
$IIHDG,272,,,,*50
$IIMTW,+16.0,C*3F
$IIMWV,331,R,07.9,N,A*1C
$IIMWV,331,T,07.9,N,A*1A
$IIRMC,163218,A,4630.087,N,00641.051,E,00.2,011,110913,,,A*46
$IIVHW,,,272,M,00.0,N,,*63
$IIVLW,01459,N,000.0,N*5A
$IIVWR,033,L,07.4,N,,,,*7C
$IIDPT,001.9,-1.0,*48
$IIGLL,4630.087,N,00641.051,E,163218,A,A*56
$GPRMB,A,0.00,L,,PERF,4622.300,N,00619.430,E,7.768,227.1,,V,A*74
$IIHDG,272,,,,*50
$IIMTW,+16.0,C*3F
$IIMWV,326,R,07.3,N,A*10
$IIMWV,327,T,07.4,N,A*10
$IIRMC,163219,A,4630.087,N,00641.051,E,00.2,011,110913,,,A*47
$IIVHW,,,272,M,00.0,N,,*63
$IIVLW,01459,N,000.0,N*5A
$IIVWR,034,L,07.3,N,,,,*7C
$IIDPT,001.9,-1.0,*48
$IIGLL,4630.087,N,00641.051,E,163219,A,A*57
$IIHDG,272,,,,*50
$IIMTW,+16.0,C*3F
$IIMWV,327,R,07.6,N,A*14
$IIMWV,326,T,07.3,N,A*16
$IIRMC,163220,A,4630.087,N,00641.051,E,00.2,011,110913,,,A*4D
$IIVHW,,,272,M,00.0,N,,*63
$IIVLW,01459,N,000.0,N*5A
$IIVWR,033,L,07.6,N,,,,*7E
$IIDPT,001.9,-1.0,*48
$IIGLL,4630.087,N,00641.051,E,163220,A,A*5D
$IIHDG,272,,,,*50
$IIMTW,+16.0,C*3F
$IIMWV,327,R,07.6,N,A*14
$IIMWV,327,T,07.6,N,A*12
$IIRMC,163220,A,4630.087,N,00641.051,E,00.2,011,110913,,,A*4D
$IIVHW,,,272,M,00.0,N,,*63
$IIVLW,01459,N,000.0,N*5A
$IIVWR,033,L,07.6,N,,,,*7E
$GPRMB,A,0.00,L,,PERF,4622.300,N,00619.430,E,7.449,227.1,,V,A*74
$GPRPT,001.9,-1.0,*49
$IIGLL,4630.087,N,00641.051,E,163220,A,A*5D
$IIHDG,271,,,,*53
$IIMTW,+16.0,C*3F
$IIMWV,321,R,08.2,N,A*19
$IIMWV,327,T,07.6,N,A*12
$IIRMC,163220,A,4630.087,N,00641.051,E,00.2,011,110913,,,A*4D
$IIVHW,,,271,M,00.0,N,,*60
$IIVLW,01459,N,000.0,N*5A
$IIVWR,039,L,08.2,N,,,,*7F
$IIDPT,001.9,-1.0,*48
$IIGLL,4630.087,N,00641.052,E,163223,A,A*5D
$IIHDG,271,,,,*53
$IIMTW,+16.0,C*3F
$IIMWV,310,R,07.9,N,A*1F
$IIMWV,321,T,08.2,N,A*1F
$IIRMC,163223,A,4630.087,N,00641.052,E,00.2,011,110913,,,A*4D
$IIVHW,,,271,M,00.0,N,,*60
$IIVLW,01459,N,000.0,N*5A
$IIVWR,048,L,07.9,N,,,,*7D
$IIDPT,001.9,-1.0,*48
$IIGLL,4630.087,N,00641.052,E,163224,A,A*5A
$IIHDG,271,,,,*53
$IIMTW,+16.0,C*3F
$IIMWV,312,R,07.9,N,A*1D
$IIMWV,310,T,07.9,N,A*19
$GPRMB,A,0.00,L,,PERF,4622.300,N,00619.430,E,5.709,227.1,,V,A*71
$GPRMB,A,0.00,L,,PERF,4622.300,N,00619.430,E,5.709,227,,,A*38
$IIVHW,,,271,M,00.0,N,,*60
$IIVLW,01459,N,000.0,N*5A
$IIVWR,048,L,07.4,N,,,,*70
$IIDPT,001.9,-1.0,*48
$IIGLL,4630.087,N,00641.052,E,163225,A,A*5B
$IIHDG,272,,,,*50
$IIMTW,+16.0,C*3F
$IIMWV,312,R,07.4,N,A*10
$IIMWV,312,T,07.9,N,A*1B
$IIRMC,163225,A,4630.087,N,00641.052,E,00.2,011,110913,,,A*4B
$IIVHW,,,272,M,00.0,N,,*63
$IIVLW,01459,N,000.0,N*5A
$IIVWR,028,L,07.2,N,,,,*70
$IIDPT,001.9,-1.0,*48
$IIGLL,4630.087,N,00641.052,E,163226,A,A*58
$IIHDG,272,,,,*50
$IIMTW,+16.0,C*3F
$IIMWV,332,R,07.2,N,A*14
$IIMWV,312,T,07.4,N,A*16
$IIRMC,163227,A,4630.087,N,00641.052,E,00.2,011,110913,,,A*49
$IIVHW,,,272,M,00.0,N,,*63
$IIVLW,01459,N,000.0,N*5A
$IIVWR,034,L,06.6,N,,,,*78
$IIDPT,001.9,-1.0,*48
$IIGLL,4630.087,N,00641.052,E,163227,A,A*59
$IIHDG,272,,,,*50
$GPRMB,A,0.00,L,,PERF,4622.300,N,00619.430,E,5.943,227.1,,V,A*71
$GPRMB,+16.0,C*3B
$IIMWV,326,R,06.6,N,A*14
$IIMWV,326,T,06.6,N,A*12
$IIRMC,163228,A,4630.087,N,00641.052,E,00.2,011,110913,,,A*46
$IIVHW,,,272,M,00.0,N,,*63
$IIVLW,01459,N,000.0,N*5A
$IIVWR,044,L,05.6,N,,,,*7C
$IIDPT,001.9,-1.0,*48
$IIGLL,4630.087,N,00641.052,E,163228,A,A*56
$IIHDG,272,,,,*50
$IIMTW,+16.0,C*3F
$IIMWV,304,R,07.1,N,A*12
$IIMWV,316,T,05.6,N,A*12
$IIRMC,163229,A,4630.087,N,00641.052,E,00.2,011,110913,,,A*47
$IIVHW,,,272,M,00.0,N,,*63
$IIVLW,01459,N,000.0,N*5A
$IIVWR,056,L,07.1,N,,,,*7A
$IIDPT,001.9,-1.0,*48
$IIGLL,4630.087,N,00641.052,E,163229,A,A*57
$IIHDG,272,,,,*50
$IIMTW,+16.0,C*3F
$IIMWV,308,R,07.3,N,A*1C
$IIMWV,304,T,07.1,N,A*14
$IIRMC,163230,A,4630.087,N,00641.052,E,00.2,011,110913,,,A*4F
$IIVHW,,,272,M,00.0,N,,*63
$IIVLW,01459,N,000.0,N*5A
$IIVWR,052,L,07.3,N,,,,*7C
$IIDPT,001.9,-1.0,*48
$GPRMB,A,0.00,L,,PERF,4622.300,N,00619.430,E,4.966,227.1,,V,A*77
$IIGLL,4630.087,N,00641.052,E,163230,A,A*5F
$IIHDG,272,,,,*50
$IIMTW,+16.0,C*3F
$IIMWV,318,R,07.3,N,A*1D
$IIMWV,308,T,07.3,N,A*1A
$IIRMC,163231,A,4630.087,N,00641.052,E,00.2,011,110913,,,A*4E
$IIVHW,,,272,M,00.0,N,,*63
$IIVLW,01459,N,000.0,N*5A
$IIVWR,042,L,07.3,N,,,,*7D
$IIDPT,001.9,-1.0,*48
$IIGLL,4630.087,N,00641.053,E,163232,A,A*5C
$IIHDG,272,,,,*50
$IIMTW,+16.0,C*3F
$IIMWV,328,R,07.4,N,A*19
$IIMWV,318,T,07.3,N,A*1B
$IIRMC,163232,A,4630.087,N,00641.053,E,00.2,011,110913,,,A*4C
$IIVHW,,,272,M,00.0,N,,*63
$IIVLW,01459,N,000.0,N*5A
$IIVWR,032,L,07.4,N,,,,*7D
$IIDPT,001.9,-1.0,*48
$IIGLL,4630.087,N,00641.053,E,163233,A,A*5D
$IIHDG,271,,,,*53
$IIMTW,+16.0,C*3F
$IIMWV,344,R,06.6,N,A*10
$IIMWV,328,T,07.4,N,A*1F
$IIRMC,163233,A,4630.087,N,00641.053,E,00.2,011,110913,,,A*4D
$GPRMB,A,0.00,L,,PERF,4622.300,N,00619.430,E,7.532,227.1,,V,A*79
$GPRMB,A,0.00,L,,PE,N,,*02
$IIVLW,01459,N,000.0,N*5A
$IIVWR,029,L,05.8,N,,,,*79
$IIDPT,001.9,-1.0,*48
$IIGLL,4630.087,N,00641.053,E,163233,A,A*5D
$IIHDG,271,,,,*53
$IIMTW,+16.0,C*3F
$IIMWV,331,R,05.8,N,A*1F
$IIMWV,344,T,06.6,N,A*16
$IIRMC,163233,A,4630.087,N,00641.053,E,00.2,011,110913,,,A*4D
$IIVHW,,,271,M,00.0,N,,*60
$IIVLW,01459,N,000.0,N*5A
$IIVWR,012,L,04.9,N,,,,*71
$IIDPT,001.9,-1.0,*48
$IIGLL,4630.087,N,00641.053,E,163235,A,A*5B
$IIHDG,271,,,,*53
$IIMTW,+16.0,C*3F
$IIMWV,348,R,04.9,N,A*11
$IIMWV,331,T,05.8,N,A*19
$IIRMC,163235,A,4630.087,N,00641.053,E,00.2,011,110913,,,A*4B
$IIVHW,,,270,M,00.0,N,,*61
$IIVLW,01459,N,000.0,N*5A
$IIVWR,022,L,04.7,N,,,,*7C
$IIDPT,001.9,-1.0,*48
$IIGLL,4630.087,N,00641.053,E,163235,A,A*5B
$IIHDG,270,,,,*52
$IIMTW,+16.0,C*3F
$IIMWV,338,R,04.7,N,A*18
$IIMWV,348,T,04.9,N,A*17
$GPRMB,A,0.00,L,,PERF,4622.300,N,00619.430,E,8.687,227.1,,V,A*7B
$IIRMC,163237,A,4630.087,N,00641.053,E,00.2,011,110913,,,A*49
$IIVHW,,,270,M,00.0,N,,*61
$IIVLW,01459,N,000.0,N*5A
$IIVWR,039,L,03.8,N,,,,*7E
$IIDPT,001.9,-1.0,*48
$IIGLL,4630.087,N,00641.053,E,163237,A,A*59
$IIHDG,270,,,,*52
$IIMTW,+16.0,C*3F
$IIMWV,321,R,03.8,N,A*18
$IIMWV,321,T,03.8,N,A*1E
$IIRMC,163238,A,4630.087,N,00641.053,E,00.2,011,110913,,,A*46
$IIVHW,,,270,M,00.0,N,,*61
$IIVLW,01459,N,000.0,N*5A
$IIVWR,030,L,03.3,N,,,,*7C
$IIDPT,001.9,-1.0,*48
$IIGLL,4630.087,N,00641.053,E,163238,A,A*56
$IIHDG,270,,,,*52
$IIMTW,+16.0,C*3F
$IIMWV,313,R,04.3,N,A*15
$IIMWV,330,T,03.3,N,A*15
$IIRMC,163239,A,4630.087,N,00641.054,E,00.2,011,110913,,,A*40
$IIVHW,,,270,M,00.0,N,,*61
$IIVLW,01459,N,000.0,N*5A
$IIVWR,047,L,04.3,N,,,,*7B
$IIDPT,001.9,-1.0,*48
$GPRMB,A,0.00,L,,PERF,4622.300,N,00619.430,E,7.691,227.1,,V,A*73
$GPRMB,A,0.00,L,,PE0641.054,E,163239,A,A*35
$IIHDG,270,,,,*52
$IIMTW,+16.0,C*3F
$IIMWV,347,R,02.9,N,A*18
$IIMWV,313,T,04.3,N,A*13
$IIRMC,163240,A,4630.087,N,00641.054,E,00.2,011,110913,,,A*4E
$IIVHW,,,270,M,00.0,N,,*61
$IIVLW,01459,N,000.0,N*5A
$IIVWR,013,L,02.9,N,,,,*76
$IIDPT,001.9,-1.0,*48
$IIGLL,4630.087,N,00641.054,E,163240,A,A*5E
$IIHDG,271,,,,*53
$IIMTW,+16.0,C*3F
$IIMWV,331,R,04.0,N,A*16
$IIMWV,347,T,02.9,N,A*1E
$IIRMC,163241,A,4630.087,N,00641.054,E,00.2,011,110913,,,A*4F
$IIVHW,,,271,M,00.0,N,,*60
$IIVLW,01459,N,000.0,N*5A
$IIVWR,029,L,04.0,N,,,,*70
$IIDPT,001.9,-1.0,*48
$IIGLL,4630.087,N,00641.054,E,163242,A,A*5C
$IIHDG,271,,,,*53
$IIMTW,+16.0,C*3F
$IIMWV,328,R,04.4,N,A*1A
$IIMWV,331,T,04.0,N,A*10
$IIRMC,163242,A,4630.087,N,00641.054,E,00.2,011,110913,,,A*4C
$IIVHW,,,271,M,00.0,N,,*60
$GPRMB,A,0.00,L,,PERF,4622.300,N,00619.430,E,7.768,227.1,,V,A*74
$GPRMB,A,0.0,N,000.0,N*27
$IIVWR,032,L,04.4,N,,,,*7E
$IIDPT,001.9,-1.0,*48
$IIGLL,4630.087,N,00641.054,E,163243,A,A*5D
$IIHDG,271,,,,*53
$IIMTW,+16.0,C*3F
$IIMWV,334,R,04.5,N,A*16
$IIMWV,328,T,04.4,N,A*1C
$IIRMC,163243,A,4630.087,N,00641.054,E,00.2,011,110913,,,A*4D
$IIVHW,,,271,M,00.0,N,,*60
$IIVLW,01459,N,000.0,N*5A
$IIVWR,018,L,07.2,N,,,,*73
$IIDPT,001.9,-1.0,*48
$IIGLL,4630.087,N,00641.054,E,163244,A,A*5A
$IIHDG,271,,,,*53
$IIMTW,+16.0,C*3F
$IIMWV,342,R,07.2,N,A*13
$IIMWV,334,T,04.5,N,A*10
$IIRMC,163244,A,4630.087,N,00641.054,E,00.2,011,110913,,,A*4A
$IIVHW,,,271,M,00.0,N,,*60
$IIVLW,01459,N,000.0,N*5A
$IIVWR,030,L,05.8,N,,,,*71
$IIDPT,001.9,-1.0,*48
$IIGLL,4630.087,N,00641.054,E,163245,A,A*5B
$IIHDG,271,,,,*53
$IIMTW,+16.0,C*3F
$IIMWV,330,R,05.8,N,A*1E
$IIMWV,342,T,07.2,N,A*15
$GPRMB,A,0.00,L,,PERF,4622.300,N,00619.430,E,8.447,227.1,,V,A*75
$GPRMB,A,0.00,L,,PERF,462N,00641.054,E,00.2,011,110913,,,A*29
$IIVHW,,,271,M,00.0,N,,*60
$IIVLW,01459,N,000.0,N*5A
$IIVWR,044,L,04.9,N,,,,*72
$IIDPT,001.9,-1.0,*48
$IIGLL,4630.088,N,00641.054,E,163246,A,A*57
$IIHDG,271,,,,*53
$IIMTW,+16.0,C*3F
$IIMWV,316,R,04.9,N,A*1A
$IIMWV,330,T,05.8,N,A*18
$IIRMC,163247,A,4630.088,N,00641.054,E,00.2,011,110913,,,A*46
$IIVHW,,,271,M,00.0,N,,*60
$IIVLW,01459,N,000.0,N*5A
$IIVWR,020,L,04.0,N,,,,*79
$IIDPT,001.7,-1.0,*46
$IIGLL,4630.088,N,00641.054,E,163247,A,A*56
$IIHDG,271,,,,*53
$IIMTW,+16.0,C*3F
$IIMWV,340,R,04.0,N,A*10
$IIMWV,340,T,04.0,N,A*16
$IIRMC,163247,A,4630.088,N,00641.054,E,00.2,011,110913,,,A*46
$IIVHW,,,271,M,00.0,N,,*60
$IIVLW,01459,N,000.0,N*5A
$IIVWR,034,L,03.9,N,,,,*72
$IIDPT,001.7,-1.0,*46
$IIGLL,4630.088,N,00641.054,E,163247,A,A*56
$GPRMB,A,0.00,L,,PERF,4622.300,N,00619.430,E,8.346,227.1,,V,A*73
$IIHDG,271,,,,*53
$IIMTW,+16.0,C*3F
$IIMWV,326,R,05.8,N,A*19
$IIMWV,326,T,03.9,N,A*18
$IIRMC,163247,A,4630.088,N,00641.054,E,00.2,011,110913,,,A*46
$IIVHW,,,270,M,00.0,N,,*61
$IIVLW,01459,N,000.0,N*5A
$IIVWR,034,L,05.8,N,,,,*75
$IIDPT,001.7,-1.0,*46
$IIGLL,4630.088,N,00641.054,E,163247,A,A*56
$IIHDG,270,,,,*52
$IIMTW,+16.0,C*3F
$IIMWV,334,R,06.9,N,A*18
$IIMWV,326,T,05.8,N,A*1F
$IIRMC,163247,A,4630.088,N,00641.054,E,00.2,011,110913,,,A*46
$IIVHW,,,270,M,00.0,N,,*61
$IIVLW,01459,N,000.0,N*5A
$IIVWR,026,L,06.9,N,,,,*74
$IIDPT,001.7,-1.0,*46
$IIGLL,4630.088,N,00641.054,E,163247,A,A*56
$IIHDG,269,,,,*5A
$IIMTW,+16.0,C*3F
$IIMWV,335,R,07.4,N,A*15
$IIMWV,334,T,06.9,N,A*1E
$IIRMC,163251,A,4630.088,N,00641.054,E,00.2,011,110913,,,A*41
$IIVHW,,,269,M,00.0,N,,*69
$IIVLW,01459,N,000.0,N*5A
$IIVWR,025,L,07.4,N,,,,*7B
$GPRMB,A,0.00,L,,PERF,4622.300,N,00619.430,E,7.983,227.1,,V,A*7F
$IIDPT,001.7,-1.0,*46
$IIGLL,4630.088,N,00641.054,E,163252,A,A*52
$IIHDG,269,,,,*5A
$IIMTW,+16.0,C*3F
$IIMWV,333,R,08.7,N,A*1F
$IIMWV,335,T,07.4,N,A*13
$IIRMC,163252,A,4630.088,N,00641.054,E,00.2,011,110913,,,A*42
$IIVHW,,,269,M,00.0,N,,*69
$IIVLW,01459,N,000.0,N*5A
$IIVWR,027,L,08.7,N,,,,*75
$IIDPT,001.7,-1.0,*46
$IIGLL,4630.088,N,00641.054,E,163253,A,A*53
$IIHDG,269,,,,*5A
$IIMTW,+16.0,C*3F
$IIMWV,336,R,09.7,N,A*1B
$IIMWV,333,T,08.7,N,A*19
$IIRMC,163253,A,4630.088,N,00641.054,E,00.2,011,110913,,,A*43
$IIVHW,,,269,M,00.0,N,,*69
$IIVLW,01459,N,000.0,N*5A
$IIVWR,029,L,08.9,N,,,,*75
$IIDPT,001.7,-1.0,*46
$IIGLL,4630.088,N,00641.054,E,163254,A,A*54
$IIHDG,269,,,,*5A
$IIMTW,+16.0,C*3F
$IIMWV,331,R,08.9,N,A*13
$IIMWV,336,T,09.7,N,A*1D
$GPRMB,A,0.00,L,,PERF,4622.300,N,00619.430,E,8.114,227.1,,V,A*76
$GPRMB,A,0.00,L,,PERF,4622.300,N,00619.430,E,8.114,913,,,A*33
$IIVHW,,,269,M,00.0,N,,*69
$IIVLW,01459,N,000.0,N*5A
$IIVWR,024,L,08.6,N,,,,*77
$IIDPT,001.7,-1.0,*46
$IIGLL,4630.088,N,00641.054,E,163255,A,A*55
$IIHDG,268,,,,*5B
$IIMTW,+16.0,C*3F
$IIMWV,336,R,08.6,N,A*1B
$IIMWV,331,T,08.9,N,A*15
$IIRMC,163255,A,4630.088,N,00641.054,E,00.2,011,110913,,,A*45
$IIVHW,,,268,M,00.0,N,,*68
$IIVLW,01459,N,000.0,N*5A
$IIVWR,031,L,09.2,N,,,,*76
$IIDPT,001.7,-1.0,*46
$IIGLL,4630.088,N,00641.055,E,163256,A,A*57
$IIHDG,268,,,,*5B
$IIMTW,+16.0,C*3F
$IIMWV,329,R,09.2,N,A*10
$IIMWV,336,T,08.6,N,A*1D
$IIRMC,163257,A,4630.088,N,00641.055,E,00.2,011,110913,,,A*46
$IIVHW,,,268,M,00.0,N,,*68
$IIVLW,01459,N,000.0,N*5A
$IIVWR,030,L,09.3,N,,,,*76
$IIDPT,001.7,-1.0,*46
$IIGLL,4630.088,N,00641.055,E,163257,A,A*56
$IIHDG,268,,,,*5B
$GPRMB,A,0.00,L,,PERF,4622.300,N,00619.430,E,8.114,227.1,,V,A*76
$GPRTW,+16.0,C*37
$IIMWV,330,R,09.3,N,A*19
$IIMWV,330,T,09.3,N,A*1F
$IIRMC,163258,A,4630.088,N,00641.054,E,00.2,011,110913,,,A*48
$IIVHW,,,267,M,00.0,N,,*67
$IIVLW,01459,N,000.0,N*5A
$IIVWR,029,L,09.9,N,,,,*74
$IIDPT,001.7,-1.0,*46
$IIGLL,4630.088,N,00641.054,E,163258,A,A*58
$IIHDG,267,,,,*54
$IIMTW,+16.0,C*3F
$IIMWV,337,R,09.5,N,A*18
$IIMWV,331,T,09.9,N,A*14
$IIRMC,163259,A,4630.088,N,00641.054,E,00.2,011,110913,,,A*49
$IIVHW,,,267,M,00.0,N,,*67
$IIVLW,01459,N,000.0,N*5A
$IIVWR,023,L,09.5,N,,,,*72
$IIDPT,001.7,-1.0,*46
$IIGLL,4630.088,N,00641.054,E,163259,A,A*59
$IIHDG,267,,,,*54
$IIMTW,+16.0,C*3F
$IIMWV,338,R,09.9,N,A*1B
$IIMWV,337,T,09.5,N,A*1E
$IIRMC,163300,A,4630.088,N,00641.055,E,00.2,015,110913,,,A*41
$IIVHW,,,267,M,00.0,N,,*67
$IIVLW,01459,N,000.0,N*5A
$IIVWR,022,L,09.9,N,,,,*7F
$GPRMB,A,0.00,L,,PERF,4622.300,N,00619.430,E,8.175,227.1,,V,A*71
$GPRMB,A,0.00,L,,PERF,4622.300,N,00619.430,E,8.175,227.1,,V,A*71
$IIGLL,4630.088,N,00641.055,E,163300,A,A*55
$IIHDG,267,,,,*54
$IIMTW,+16.0,C*3F
$IIMWV,335,R,09.8,N,A*17
$IIMWV,338,T,09.9,N,A*1D
$IIRMC,163301,A,4630.088,N,00641.055,E,00.2,015,110913,,,A*40
$IIVHW,,,267,M,00.0,N,,*67
$IIVLW,01459,N,000.0,N*5A
$IIVWR,025,L,09.8,N,,,,*79
$IIDPT,001.7,-1.0,*46
$IIGLL,4630.087,N,00641.055,E,163302,A,A*58
$IIHDG,267,,,,*54
$IIMTW,+16.0,C*3F
$IIMWV,331,R,09.7,N,A*1C
$IIMWV,335,T,09.8,N,A*11
$IIRMC,163302,A,4630.087,N,00641.055,E,00.4,005,110913,,,A*4B
$IIVHW,,,267,M,00.0,N,,*67
$IIVLW,01459,N,000.0,N*5A
$IIVWR,029,L,09.7,N,,,,*7A
$IIDPT,001.7,-1.0,*46
$IIGLL,4630.087,N,00641.055,E,163303,A,A*59
$IIHDG,267,,,,*54
$IIMTW,+16.0,C*3F
$IIMWV,334,R,09.4,N,A*1A
$IIMWV,331,T,09.7,N,A*1A
$IIRMC,163303,A,4630.087,N,00641.055,E,00.4,356,110913,,,A*4F
$GPRMB,A,0.00,L,,PERF,4622.300,N,00619.430,E,15.536,227.1,,V,A*4E
$GPRMB,A,0.00,L,0.0,N,,*15
$IIVLW,01459,N,000.0,N*5A
$IIVWR,025,L,09.1,N,,,,*70
$IIDPT,001.7,-1.0,*46
$IIGLL,4630.087,N,00641.054,E,163304,A,A*5F
$IIHDG,267,,,,*54
$IIMTW,+16.0,C*3F
$IIMWV,335,R,09.1,N,A*1E
$IIMWV,334,T,09.4,N,A*1C
$IIRMC,163304,A,4630.087,N,00641.054,E,00.4,346,110913,,,A*48
$IIVHW,,,267,M,00.0,N,,*67
$IIVLW,01459,N,000.0,N*5A
$IIVWR,032,L,09.1,N,,,,*76
$IIDPT,001.8,-1.0,*49
$IIGLL,4630.087,N,00641.054,E,163305,A,A*5E
$IIHDG,267,,,,*54
$IIMTW,+16.0,C*3F
$IIMWV,328,R,09.1,N,A*12
$IIMWV,335,T,09.1,N,A*18
$IIRMC,163305,A,4630.087,N,00641.054,E,00.3,353,110913,,,A*4A
$IIVHW,,,267,M,00.0,N,,*67
$IIVLW,01459,N,000.0,N*5A
$IIVWR,038,L,09.2,N,,,,*7F
$IIDPT,001.9,-1.0,*48
$IIGLL,4630.087,N,00641.054,E,163306,A,A*5D
$IIHDG,267,,,,*54
$IIMTW,+16.0,C*3F
$IIMWV,322,R,09.2,N,A*1B
$GPRMB,A,0.00,L,,PERF,4622.300,N,00619.430,E,11.995,227.1,,V,A*4F
$GPRMB,A,0.00,L,,PERF,4622.300,N,00619.430,E,11.995,227.1,,V,A*4F
$IIRMC,163307,A,4630.087,N,00641.054,E,00.3,005,110913,,,A*48
$IIVHW,,,267,M,00.0,N,,*67
$IIVLW,01459,N,000.0,N*5A
$IIVWR,040,L,08.7,N,,,,*74
$IIDPT,001.9,-1.0,*48
$IIGLL,4630.087,N,00641.054,E,163307,A,A*5C
$IIHDG,267,,,,*54
$IIMTW,+16.0,C*3F
$IIMWV,320,R,08.7,N,A*1D
$IIMWV,320,T,08.7,N,A*1B
$IIRMC,163308,A,4630.087,N,00641.054,E,00.4,009,110913,,,A*4C
$IIVHW,,,267,M,00.0,N,,*67
$IIVLW,01459,N,000.0,N*5A
$IIVWR,047,L,07.6,N,,,,*7D
$IIDPT,001.9,-1.0,*48
$IIGLL,4630.087,N,00641.054,E,163308,A,A*53
$IIHDG,267,,,,*54
$IIMTW,+16.0,C*3F
$IIMWV,315,R,07.6,N,A*15
$IIMWV,313,T,07.6,N,A*15
$IIRMC,163309,A,4630.087,N,00641.055,E,00.4,014,110913,,,A*40
$IIVHW,,,267,M,00.0,N,,*67
$IIVLW,01459,N,000.0,N*5A
$IIVWR,045,L,07.6,N,,,,*7F
$IIDPT,001.9,-1.0,*48
$GPRMB,A,0.00,L,,PERF,4622.300,N,00619.430,E,12.114,227.1,,V,A*4D
$GPRMB,A,0.00,L,N,00641.055,E,163309,A,A*5D
$IIHDG,267,,,,*54
$IIMTW,+16.0,C*3F
$IIMWV,318,R,07.8,N,A*16
$IIMWV,315,T,07.6,N,A*13
$IIRMC,163310,A,4630.088,N,00641.055,E,00.5,019,110913,,,A*4B
$IIVHW,,,267,M,00.0,N,,*67
$IIVLW,01459,N,000.0,N*5A
$IIVWR,042,L,07.8,N,,,,*76
$IIDPT,001.9,-1.0,*48
$IIGLL,4630.088,N,00641.055,E,163310,A,A*54
$IIHDG,266,,,,*55
$IIMTW,+16.0,C*3F
$IIMWV,324,R,07.1,N,A*10
$IIMWV,318,T,07.8,N,A*10
$IIRMC,163311,A,4630.088,N,00641.056,E,00.5,024,110913,,,A*47
$IIVHW,,,266,M,00.0,N,,*66
$IIVLW,01459,N,000.0,N*5A
$IIVWR,036,L,07.1,N,,,,*7C
$IIDPT,002.0,-1.0,*42
$IIGLL,4630.088,N,00641.056,E,163312,A,A*55
$IIHDG,266,,,,*55
$IIMTW,+16.0,C*3F
$IIMWV,328,R,06.1,N,A*1D
$IIMWV,324,T,07.1,N,A*16
$IIRMC,163312,A,4630.088,N,00641.056,E,00.4,031,110913,,,A*41
$IIVHW,,,266,M,00.0,N,,*66
$GPRMB,A,0.00,L,,PERF,4622.300,N,00619.430,E,14.370,227.1,,V,A*4B
$GPRMB,A,0.9,N,000.0,N*2E
$IIVWR,032,L,06.1,N,,,,*79
$IIDPT,002.0,-1.0,*42
$IIGLL,4630.088,N,00641.056,E,163312,A,A*55
$IIHDG,265,,,,*56
$IIMTW,+16.0,C*3F
$IIMWV,337,R,05.6,N,A*17
$IIMWV,328,T,06.1,N,A*1B
$IIRMC,163312,A,4630.088,N,00641.056,E,00.4,031,110913,,,A*41
$IIVHW,,,265,M,00.0,N,,*65
$IIVLW,01459,N,000.0,N*5A
$IIVWR,025,L,06.0,N,,,,*7E
$IIDPT,002.0,-1.0,*42
$IIGLL,4630.087,N,00641.057,E,163314,A,A*5D
$IIHDG,265,,,,*56
$IIMTW,+16.0,C*3F
$IIMWV,335,R,06.0,N,A*10
$IIMWV,337,T,05.6,N,A*11
$IIRMC,163314,A,4630.087,N,00641.057,E,00.6,039,110913,,,A*43
$IIVHW,,,265,M,00.0,N,,*65
$IIVLW,01459,N,000.0,N*5A
$IIVWR,022,L,06.9,N,,,,*70
$IIDPT,002.0,-1.0,*42
$IIGLL,4630.087,N,00641.057,E,163315,A,A*5C
$IIHDG,265,,,,*56
$IIMTW,+16.0,C*3F
$IIMWV,338,R,06.9,N,A*14
$IIMWV,335,T,06.0,N,A*16
$GPRMB,A,0.00,L,,PERF,4622.300,N,00619.430,E,24.148,227.1,,V,A*41
$GPRMB,A,0.00,L,,PERF,462N,00641.057,E,00.5,045,110913,,,A*2C
$IIVHW,,,264,M,00.0,N,,*64
$IIVLW,01459,N,000.0,N*5A
$IIVWR,024,L,08.0,N,,,,*71
$IIDPT,002.0,-1.0,*42
$IIGLL,4630.087,N,00641.057,E,163316,A,A*5F
$IIHDG,264,,,,*57
$IIMTW,+16.0,C*3F
$IIMWV,336,R,08.0,N,A*1D
$IIMWV,338,T,06.9,N,A*12
$IIRMC,163317,A,4630.086,N,00641.058,E,00.7,054,110913,,,A*44
$IIVHW,,,264,M,00.0,N,,*64
$IIVLW,01459,N,000.0,N*5A
$IIVWR,026,L,08.4,N,,,,*77
$IIDPT,002.0,-1.0,*42
$IIGLL,4630.086,N,00641.058,E,163317,A,A*50
$IIHDG,264,,,,*57
$IIMTW,+16.0,C*3F
$IIMWV,334,R,08.4,N,A*1B
$IIMWV,334,T,08.4,N,A*1D
$IIRMC,163318,A,4630.086,N,00641.058,E,00.7,056,110913,,,A*49
$IIVHW,,,262,M,00.0,N,,*62
$IIVLW,01459,N,000.0,N*5A
$IIVWR,017,L,08.9,N,,,,*78
$IIDPT,002.0,-1.0,*42
$GPRMB,A,0.00,L,,PERF,4622.300,N,00619.430,E,28.017,227.1,,V,A*46
$GPRMB,A,0.00,L,,PERF,4622.300,N,00619.430,E,28.017,227.1,,V,A*46
$IIHDG,262,,,,*51
$IIMTW,+16.0,C*3F
$IIMWV,343,R,08.6,N,A*19
$IIMWV,343,T,08.9,N,A*10
$IIRMC,163319,A,4630.086,N,00641.058,E,00.8,058,110913,,,A*49
$IIVHW,,,261,M,00.0,N,,*61
$IIVLW,01459,N,000.0,N*5A
$IIVWR,017,L,08.6,N,,,,*77
$IIDPT,002.0,-1.0,*42
$IIGLL,4630.086,N,00641.058,E,163319,A,A*5E
$IIHDG,261,,,,*52
$IIMTW,+16.0,C*3F
$IIMWV,341,R,09.4,N,A*18
$IIMWV,343,T,08.6,N,A*1F
$IIRMC,163320,A,4630.086,N,00641.059,E,00.8,060,110913,,,A*49
$IIVHW,,,259,M,00.0,N,,*6A
$IIVLW,01459,N,000.0,N*5A
$IIVWR,019,L,09.4,N,,,,*7A
$IIDPT,002.0,-1.0,*42
$IIGLL,4630.086,N,00641.059,E,163320,A,A*55
$IIHDG,258,,,,*58
$IIMTW,+16.0,C*3F
$IIMWV,348,R,08.8,N,A*1C
$IIMWV,341,T,09.4,N,A*1E
$IIRMC,163321,A,4630.087,N,00641.060,E,00.7,063,110913,,,A*4F
$IIVHW,,,258,M,00.0,N,,*6B
$IIVLW,01459,N,000.0,N*5A
$IIVWR,012,L,08.8,N,,,,*7C
$GPRMB,A,0.00,L,,PERF,4622.300,N,00619.430,E,29.474,227.1,,V,A*46
$IIDPT,002.0,-1.0,*42
$IIGLL,4630.087,N,00641.060,E,163322,A,A*5C
$IIHDG,256,,,,*56
$IIMTW,+16.0,C*3F
$IIMWV,353,R,09.0,N,A*1F
$IIMWV,348,T,08.8,N,A*1A
$IIRMC,163322,A,4630.087,N,00641.060,E,00.8,064,110913,,,A*44
$IIVHW,,,256,M,00.0,N,,*65
$IIVLW,01459,N,000.0,N*5A
$IIVWR,007,L,09.0,N,,,,*71
$IIDPT,002.0,-1.0,*42
$IIGLL,4630.087,N,00641.060,E,163323,A,A*5D
$IIHDG,254,,,,*54
$IIMTW,+16.0,C*3F
$IIMWV,352,R,08.6,N,A*19
$IIMWV,353,T,09.0,N,A*19
$IIRMC,163323,A,4630.087,N,00641.060,E,00.9,066,110913,,,A*46
$IIVHW,,,254,M,00.0,N,,*67
$IIVLW,01459,N,000.0,N*5A
$IIVWR,003,R,07.9,N,,,,*6C
$IIDPT,002.0,-1.0,*42
$IIGLL,4630.087,N,00641.061,E,163324,A,A*5B
$IIHDG,252,,,,*52
$IIMTW,+16.0,C*3F
$IIMWV,003,R,07.9,N,A*1E
$IIMWV,352,T,08.6,N,A*1F
$GPRMB,A,0.00,L,,PERF,4622.300,N,00619.430,E,39.663,227.1,,V,A*43
$GPRMB,A,0.00,L,,PERF,4622.300,N,00619.430,E,39.660913,,,A*29
$IIVHW,,,252,M,00.0,N,,*61
$IIVLW,01459,N,000.0,N*5A
$IIVWR,007,R,07.7,N,,,,*66
$IIDPT,002.0,-1.0,*42
$IIGLL,4630.087,N,00641.062,E,163325,A,A*59
$IIHDG,249,,,,*58
$IIMTW,+16.0,C*3F
$IIMWV,007,R,07.7,N,A*14
$IIMWV,003,T,07.9,N,A*18
$IIRMC,163325,A,4630.087,N,00641.062,E,01.2,071,110913,,,A*4E
$IIVHW,,,246,M,00.0,N,,*64
$IIVLW,01459,N,000.0,N*5A
$IIVWR,027,R,07.7,N,,,,*64
$IIDPT,002.0,-1.0,*42
$IIGLL,4630.087,N,00641.062,E,163325,A,A*59
$IIHDG,246,,,,*57
$IIMTW,+16.0,C*3F
$IIMWV,027,R,07.7,N,A*16
$IIMWV,007,T,07.7,N,A*12
$IIRMC,163325,A,4630.087,N,00641.062,E,01.2,071,110913,,,A*4E
$IIVHW,,,243,M,00.0,N,,*61
$IIVLW,01459,N,000.0,N*5A
$IIVWR,010,R,07.7,N,,,,*60
$IIDPT,002.0,-1.0,*42
$IIGLL,4630.087,N,00641.062,E,163325,A,A*59
$IIHDG,243,,,,*52
$GPRMB,A,0.00,L,,PERF,4622.300,N,00619.430,E,53.064,227.1,,V,A*4E
$GIMTW,+16.0,C*31
$IIMWV,010,R,07.7,N,A*12
$IIMWV,010,T,07.7,N,A*14
$IIRMC,163328,A,4630.087,N,00641.063,E,00.8,074,110913,,,A*4C
$IIVHW,,,240,M,00.0,N,,*62
$IIVLW,01459,N,000.0,N*5A
$IIVWR,003,L,07.0,N,,,,*7B
$IIDPT,002.0,-1.0,*42
$IIGLL,4630.087,N,00641.063,E,163328,A,A*55
$IIHDG,240,,,,*51
$IIMTW,+16.0,C*3F
$IIMWV,002,R,06.1,N,A*16
$IIMWV,357,T,07.0,N,A*13
$IIRMC,163329,A,4630.087,N,00641.063,E,01.0,075,110913,,,A*45
$IIVHW,,,238,M,00.0,N,,*6D
$IIVLW,01459,N,000.0,N*5A
$IIVWR,002,R,06.1,N,,,,*64
$IIDPT,002.0,-1.0,*42
$IIGLL,4630.087,N,00641.063,E,163329,A,A*54
$IIHDG,238,,,,*5E
$IIMTW,+16.0,C*3F
$IIMWV,042,R,06.2,N,A*11
$IIMWV,002,T,06.1,N,A*10
$IIRMC,163330,A,4630.087,N,00641.064,E,01.6,074,110913,,,A*4D
$IIVHW,,,236,M,00.0,N,,*63
$IIVLW,01459,N,000.0,N*5A
$IIVWR,042,R,06.2,N,,,,*63
$GPRMB,A,0.00,L,,PERF,4622.300,N,00619.430,E,71.182,227.1,,V,A*47
$GPRMB,A,0.00,L,,P*25
$IIGLL,4630.087,N,00641.064,E,163330,A,A*5B
$IIHDG,232,,,,*54
$IIMTW,+16.0,C*3F
$IIMWV,071,R,06.0,N,A*13
$IIMWV,042,T,06.2,N,A*17
$IIRMC,163330,A,4630.087,N,00641.064,E,01.6,074,110913,,,A*4D
$IIVHW,,,232,M,00.0,N,,*67
$IIVLW,01459,N,000.0,N*5A
$IIVWR,071,R,06.0,N,,,,*61
$IIDPT,002.0,-1.0,*42
$IIGLL,4630.088,N,00641.065,E,163332,A,A*57
$IIHDG,228,,,,*5F
$IIMTW,+16.0,C*3F
$IIMWV,036,R,03.5,N,A*10
$IIMWV,071,T,06.0,N,A*15
$IIRMC,163332,A,4630.088,N,00641.065,E,01.2,071,110913,,,A*40
$IIVHW,,,228,M,00.0,N,,*6C
$IIVLW,01459,N,000.0,N*5A
$IIVWR,036,R,03.5,N,,,,*62
$IIDPT,002.1,-1.0,*43
$IIGLL,4630.088,N,00641.065,E,163333,A,A*56
$IIHDG,224,,,,*53
$IIMTW,+16.0,C*3F
$IIMWV,351,R,04.0,N,A*10
$IIMWV,036,T,03.5,N,A*16
$IIRMC,163333,A,4630.088,N,00641.065,E,01.3,069,110913,,,A*49
$GPRMB,A,0.00,L,,PERF,4622.300,N,00619.430,E,46.774,227.1,,V,A*4C
$GPRMB,A,0.00,L00.0,N,,*09
$IIVLW,01459,N,000.0,N*5A
$IIVWR,011,R,02.9,N,,,,*6A
$IIDPT,002.6,-1.0,*44
$IIGLL,4630.089,N,00641.065,E,163334,A,A*50
$IIHDG,221,,,,*56
$IIMTW,+16.0,C*3F
$IIMWV,011,R,02.9,N,A*18
$IIMWV,351,T,04.0,N,A*16
$IIRMC,163334,A,4630.089,N,00641.065,E,01.2,070,110913,,,A*46
$IIVHW,,,221,M,00.0,N,,*65
$IIVLW,01459,N,000.0,N*5A
$IIVWR,019,R,04.1,N,,,,*6C
$IIDPT,002.3,-1.0,*41
$IIGLL,4630.089,N,00641.065,E,163335,A,A*51
$IIHDG,216,,,,*52
$IIMTW,+16.0,C*3F
$IIMWV,019,R,04.1,N,A*1E
$IIMWV,011,T,02.9,N,A*1E
$IIRMC,163335,A,4630.089,N,00641.065,E,01.3,070,110913,,,A*46
$IIVHW,,,212,M,00.0,N,,*65
$IIVLW,01459,N,000.0,N*5A
$IIVWR,011,R,02.9,N,,,,*6A
$IIDPT,002.1,-1.0,*43
$IIGLL,4630.089,N,00641.065,E,163336,A,A*52
$IIHDG,212,,,,*56
$IIMTW,+16.0,C*3F
$IIMWV,011,R,02.9,N,A*18
$GPRMB,A,0.00,L,,PERF,4622.300,N,00619.430,E,56.754,227.1,,V,A*4F
$GPRMB,A,0.00,L,,PERF*74
$IIRMC,163337,A,4630.090,N,00641.065,E,00.9,067,110913,,,A*41
$IIVHW,,,208,M,00.0,N,,*6E
$IIVLW,01459,N,000.0,N*5A
$IIVWR,019,R,04.5,N,,,,*68
$IIDPT,002.0,-1.0,*42
$IIGLL,4630.090,N,00641.065,E,163337,A,A*5B
$IIHDG,208,,,,*5D
$IIMTW,+16.0,C*3F
$IIMWV,019,R,04.5,N,A*1A
$IIMWV,019,T,04.5,N,A*1C
$IIRMC,163338,A,4630.091,N,00641.066,E,00.9,065,110913,,,A*4E
$IIVHW,,,203,M,00.0,N,,*65
$IIVLW,01459,N,000.0,N*5A
$IIVWR,042,R,03.5,N,,,,*61
$IIDPT,001.9,-1.0,*48
$IIGLL,4630.091,N,00641.066,E,163338,A,A*56
$IIHDG,203,,,,*56
$IIMTW,+16.0,C*3F
$IIMWV,035,R,05.6,N,A*16
$IIMWV,042,T,03.5,N,A*15
$IIRMC,163339,A,4630.091,N,00641.066,E,00.8,062,110913,,,A*49
$IIVHW,,,200,M,00.0,N,,*66
$IIVLW,01459,N,000.0,N*5A
$IIVWR,035,R,05.6,N,,,,*64
$IIDPT,001.9,-1.0,*48
$GPRMB,A,0.00,L,,PERF,4622.300,N,00619.430,E,26.401,227.1,,V,A*4B
$GPRMB,A,0.00,1,N,00641.066,E,163339,A,A*23
$IIHDG,200,,,,*55
$IIMTW,+16.0,C*3F
$IIMWV,053,R,06.7,N,A*14
$IIMWV,035,T,05.6,N,A*10
$IIRMC,163340,A,4630.091,N,00641.066,E,00.7,060,110913,,,A*4A
$IIVHW,,,197,M,00.0,N,,*6B
$IIVLW,01459,N,000.0,N*5A
$IIVWR,053,R,06.7,N,,,,*66
$IIDPT,001.9,-1.0,*48
$IIGLL,4630.091,N,00641.066,E,163340,A,A*59
$IIHDG,193,,,,*5C
$IIMTW,+16.0,C*3F
$IIMWV,059,R,06.7,N,A*1E
$IIMWV,053,T,06.7,N,A*12
$IIRMC,163341,A,4630.091,N,00641.066,E,00.5,061,110913,,,A*48
$IIVHW,,,193,M,00.0,N,,*6F
$IIVLW,01459,N,000.0,N*5A
$IIVWR,059,R,06.7,N,,,,*6C
$IIDPT,001.8,-1.0,*49
$IIGLL,4630.091,N,00641.066,E,163342,A,A*5B
$IIHDG,190,,,,*5F
$IIMTW,+16.0,C*3F
$IIMWV,069,R,07.9,N,A*12
$IIMWV,059,T,06.7,N,A*18
$IIRMC,163342,A,4630.091,N,00641.066,E,00.5,062,110913,,,A*48
$IIVHW,,,190,M,00.0,N,,*6C
$GPRMB,A,0.00,L,,PERF,4622.300,N,00619.430,E,11.480,227.1,,V,A*46
$GPRMB,A,459,N,000.0,N*31
$IIVWR,069,R,07.9,N,,,,*60
$IIDPT,001.7,-1.0,*46
$IIGLL,4630.091,N,00641.066,E,163343,A,A*5A
$IIHDG,187,,,,*59
$IIMTW,+16.0,C*3F
$IIMWV,054,R,08.3,N,A*19
$IIMWV,069,T,07.9,N,A*14
$IIRMC,163343,A,4630.091,N,00641.066,E,00.5,060,110913,,,A*4B
$IIVHW,,,187,M,00.0,N,,*6A
$IIVLW,01459,N,000.0,N*5A
$IIVWR,050,R,09.6,N,,,,*6B
$IIDPT,001.5,-1.0,*44
$IIGLL,4630.092,N,00641.066,E,163344,A,A*5E
$IIHDG,185,,,,*5B
$IIMTW,+16.0,C*3F
$IIMWV,050,R,09.6,N,A*19
$IIMWV,054,T,08.3,N,A*1F
$IIRMC,163344,A,4630.092,N,00641.066,E,00.5,059,110913,,,A*45
$IIVHW,,,185,M,00.0,N,,*68
$IIVLW,01459,N,000.0,N*5A
$IIVWR,064,R,09.8,N,,,,*62
$IIDPT,001.5,-1.0,*44
$IIGLL,4630.092,N,00641.066,E,163345,A,A*5F
$IIHDG,181,,,,*5F
$IIMTW,+16.0,C*3F
$IIMWV,064,R,09.8,N,A*10
$IIMWV,050,T,09.6,N,A*1F
$GPRMB,A,0.00,L,,PERF,4622.300,N,00619.430,E,14.328,227.1,,V,A*46
$GPRMB,A,0.00,L,,PERF,92,N,00641.066,E,00.3,057,110913,,,A*3C
$IIVHW,,,178,M,00.0,N,,*6A
$IIVLW,01459,N,000.0,N*5A
$IIVWR,065,R,08.9,N,,,,*63
$IIDPT,001.6,-1.0,*47
$IIGLL,4630.092,N,00641.065,E,163346,A,A*5F
$IIHDG,178,,,,*59
$IIMTW,+16.0,C*3F
$IIMWV,065,R,08.9,N,A*11
$IIMWV,064,T,09.8,N,A*16
$IIRMC,163347,A,4630.092,N,00641.065,E,00.2,062,110913,,,A*4A
$IIVHW,,,175,M,00.0,N,,*67
$IIVLW,01459,N,000.0,N*5A
$IIVWR,056,R,09.5,N,,,,*6E
$IIDPT,001.9,-1.0,*48
$IIGLL,4630.092,N,00641.065,E,163347,A,A*5E
$IIHDG,175,,,,*54
$IIMTW,+16.0,C*3F
$IIMWV,056,R,09.5,N,A*1C
$IIMWV,056,T,09.5,N,A*1A
$IIRMC,163348,A,4630.093,N,00641.065,E,00.3,062,110913,,,A*45
$IIVHW,,,172,M,00.0,N,,*60
$IIVLW,01459,N,000.0,N*5A
$IIVWR,069,R,09.9,N,,,,*6E
$IIDPT,001.9,-1.0,*48
$GPRMB,A,0.00,L,,PERF,4622.300,N,00619.430,E,7.401,227.1,,V,A*78
$GPRMB,A,0.00,L,,PERF,4622.300,N,00619.4*2D
$IIHDG,172,,,,*53
$IIMTW,+16.0,C*3F
$IIMWV,078,R,10.0,N,A*1D
$IIMWV,069,T,09.9,N,A*1A
$IIRMC,163349,A,4630.093,N,00641.065,E,00.3,061,110913,,,A*47
$IIVHW,,,168,M,00.0,N,,*6B
$IIVLW,01459,N,000.0,N*5A
$IIVWR,078,R,10.0,N,,,,*6F
$IIDPT,001.8,-1.0,*49
$IIGLL,4630.093,N,00641.065,E,163349,A,A*51
$IIHDG,168,,,,*58
$IIMTW,+16.0,C*3F
$IIMWV,086,R,10.0,N,A*1C
$IIMWV,078,T,10.0,N,A*1B
$IIRMC,163350,A,4630.093,N,00641.065,E,00.3,062,110913,,,A*4C
$IIVHW,,,165,M,00.0,N,,*66
$IIVLW,01459,N,000.0,N*5A
$IIVWR,086,R,10.0,N,,,,*6E
$IIDPT,001.7,-1.0,*46
$GPRMB,A,0.00,L,,PERF,4622.300,N,00619.430,E,2.752,227.1,,V,A*78
$IIGLL,4630.093,N,00641.065,E,163350,A,A*59
$IIHDG,157,,,,*54
$IIMTW,+16.0,C*3F
$IIMWV,079,R,10.2,N,A*1E
$IIMWV,079,T,10.6,N,A*1C
$IIRMC,163352,A,4630.093,N,00641.065,E,00.4,052,110913,,,A*4A
$IIVHW,,,157,M,00.0,N,,*67
$IIVLW,01459,N,000.0,N*5A
$IIVWR,079,R,10.2,N,,,,*6C
$IIDPT,001.6,-1.0,*47
$IIGLL,4630.093,N,00641.065,E,163353,A,A*5A
$IIHDG,153,,,,*50
$IIMTW,+16.0,C*3F
$IIMWV,077,R,09.5,N,A*1F
$IIMWV,079,T,10.2,N,A*18
$IIRMC,163353,A,4630.093,N,00641.065,E,00.4,052,110913,,,A*4B
$IIVHW,,,153,M,00.0,N,,*63
$IIVLW,01459,N,000.0,N*5A
$IIVWR,077,R,09.5,N,,,,*6D
$IIDPT,001.6,-1.0,*47
$IIGLL,4630.093,N,00641.065,E,163354,A,A*5D
$IIHDG,149,,,,*5B
$IIMTW,+16.0,C*3F
$IIMWV,079,R,10.0,N,A*1C
$IIMWV,077,T,09.5,N,A*19
$IIRMC,163354,A,4630.093,N,00641.065,E,00.4,060,110913,,,A*4D
$GPRMB,A,0.00,L,,PERF,4622.300,N,00619.430,E,3.996,227.1,,V,A*7F
$GPRMB,A,0.00,,00.0,N,,*69
$IIVLW,01459,N,000.0,N*5A
$IIVWR,079,R,09.6,N,,,,*60
$IIDPT,001.6,-1.0,*47
$IIGLL,4630.093,N,00641.065,E,163355,A,A*5C
$IIHDG,146,,,,*54
$IIMTW,+16.0,C*3F
$IIMWV,079,R,09.6,N,A*12
$IIMWV,079,T,10.0,N,A*1A
$IIRMC,163355,A,4630.093,N,00641.065,E,00.3,066,110913,,,A*4D
$IIVHW,,,146,M,00.0,N,,*67
$IIVLW,01459,N,000.0,N*5A
$IIVWR,083,R,09.2,N,,,,*61
$IIDPT,001.7,-1.0,*46
$IIGLL,4630.093,N,00641.065,E,163356,A,A*5F
$IIHDG,143,,,,*51
$IIMTW,+16.0,C*3F
$IIMWV,083,R,09.2,N,A*13
$IIMWV,079,T,09.6,N,A*14
$IIRMC,163356,A,4630.093,N,00641.065,E,00.2,069,110913,,,A*40
$IIVHW,,,141,M,00.0,N,,*60
$IIVLW,01459,N,000.0,N*5A
$IIVWR,072,R,08.7,N,,,,*6B
$IIDPT,002.1,-1.0,*43
$IIGLL,4630.093,N,00641.065,E,163356,A,A*5F
$IIHDG,141,,,,*53
$IIMTW,+16.0,C*3F
$IIMWV,072,R,08.7,N,A*19
$GPRMB,A,0.00,L,,PERF,4622.300,N,00619.430,E,1.695,227.1,,V,A*71
$GPRMB,A,0.00,L,,PERA*73
$IIRMC,163358,A,4630.092,N,00641.067,E,00.4,080,110913,,,A*4C
$IIVHW,,,139,M,00.0,N,,*6F
$IIVLW,01459,N,000.0,N*5A
$IIVWR,078,R,08.1,N,,,,*67
$IIDPT,002.2,-1.0,*40
$IIGLL,4630.092,N,00641.067,E,163358,A,A*52
$IIHDG,139,,,,*5C
$IIMTW,+16.0,C*3F
$IIMWV,078,R,08.1,N,A*15
$IIMWV,078,T,08.1,N,A*13
$IIRMC,163359,A,4630.091,N,00641.068,E,00.4,085,110913,,,A*44
$IIVHW,,,137,M,00.0,N,,*61
$IIVLW,01459,N,000.0,N*5A
$IIVWR,087,R,09.1,N,,,,*66
$IIDPT,010.9,-1.0,*48
$IIGLL,4630.091,N,00641.068,E,163359,A,A*5F
$IIHDG,137,,,,*52
$IIMTW,+16.0,C*3F
$IIMWV,079,R,09.4,N,A*10
$IIMWV,087,T,09.1,N,A*12
$IIRMC,163400,A,4630.091,N,00641.068,E,01.0,090,110913,,,A*4E
$IIVHW,,,136,M,00.0,N,,*60
$IIVLW,01459,N,000.0,N*5A
$IIVWR,079,R,09.4,N,,,,*62
$IIDPT,001.3,-1.0,*42
$GPRMB,A,0.00,L,,PERF,4622.300,N,00619.430,E,2.333,227.1,,V,A*7B
$GPRMB,A,0.00,1,N,00641.068,E,163400,A,A*20
$IIHDG,136,,,,*53
$IIMTW,+16.0,C*3F
$IIMWV,086,R,09.5,N,A*11
$IIMWV,079,T,09.4,N,A*16
$IIRMC,163401,A,4630.091,N,00641.069,E,00.8,095,110913,,,A*42
$IIVHW,,,135,M,00.0,N,,*63
$IIVLW,01459,N,000.0,N*5A
$IIVWR,086,R,09.5,N,,,,*63
$IIDPT,001.3,-1.0,*42
$IIGLL,4630.091,N,00641.069,E,163401,A,A*54
$IIHDG,134,,,,*51
$IIMTW,+16.0,C*3F
$IIMWV,089,R,09.5,N,A*1E
$IIMWV,087,T,09.9,N,A*1A
$IIRMC,163403,A,4630.090,N,00641.070,E,01.0,103,110913,,,A*4E
$IIVHW,,,134,M,00.0,N,,*62
$IIVLW,01459,N,000.0,N*5A
$IIVWR,089,R,09.5,N,,,,*6C
$GPRMB,A,0.00,L,,PERF,4622.300,N,00619.430,E,2.333,227.1,,V,A*7B
$IIDPT,001.2,-1.0,*43
$IIGLL,4630.090,N,00641.070,E,163404,A,A*58
$IIHDG,134,,,,*51
$IIMTW,+16.0,C*3F
$IIMWV,088,R,09.4,N,A*1E
$IIMWV,089,T,09.5,N,A*18
$IIRMC,163404,A,4630.090,N,00641.070,E,00.8,107,110913,,,A*44
$IIVHW,,,134,M,00.0,N,,*62
$IIVLW,01459,N,000.0,N*5A
$IIVWR,088,R,09.4,N,,,,*6C
$IIDPT,001.2,-1.0,*43
$IIGLL,4630.090,N,00641.070,E,163405,A,A*59
$IIHDG,133,,,,*56
$IIMTW,+16.0,C*3F
$IIMWV,089,R,10.0,N,A*13
$IIMWV,088,T,09.4,N,A*18
$IIRMC,163405,A,4630.090,N,00641.070,E,00.7,110,110913,,,A*4C
$IIVHW,,,133,M,00.0,N,,*65
$IIVLW,01459,N,000.0,N*5A
$IIVWR,088,R,10.3,N,,,,*63
$IIDPT,001.2,-1.0,*43
$IIGLL,4630.090,N,00641.070,E,163406,A,A*5A
$IIHDG,133,,,,*56
$IIMTW,+16.0,C*3F
$IIMWV,088,R,10.3,N,A*11
$IIMWV,089,T,10.0,N,A*15
$GPRMB,A,0.00,L,,PERF,4622.300,N,00619.430,E,0.544,227.1,,V,A*7F
$GPRMB,A,0.00,L,,PERF,4622.300,N,00619.430,E,0.5110913,,,A*26
$IIVHW,,,133,M,00.0,N,,*65
$IIVLW,01459,N,000.0,N*5A
$IIVWR,097,R,09.9,N,,,,*6F
$IIDPT,001.2,-1.0,*43
$IIGLL,4630.089,N,00641.071,E,163407,A,A*52
$IIHDG,133,,,,*56
$IIMTW,+16.0,C*3F
$IIMWV,097,R,09.9,N,A*1D
$IIMWV,088,T,10.3,N,A*17
$IIRMC,163407,A,4630.089,N,00641.071,E,00.8,115,110913,,,A*4D
$IIVHW,,,132,M,00.0,N,,*64
$IIVLW,01459,N,000.0,N*5A
$IIVWR,094,R,10.2,N,,,,*6F
$IIDPT,001.3,-1.0,*42
$IIGLL,4630.089,N,00641.071,E,163408,A,A*5D
$IIHDG,132,,,,*57
$IIMTW,+16.0,C*3F
$IIMWV,094,R,10.2,N,A*1D
$IIMWV,097,T,09.9,N,A*1B
$IIRMC,163409,A,4630.089,N,00641.071,E,00.8,119,110913,,,A*4F
$IIVHW,,,132,M,00.0,N,,*64
$IIVLW,01459,N,000.0,N*5A
$IIVWR,084,R,10.2,N,,,,*6E
$IIDPT,001.3,-1.0,*42
$IIGLL,4630.089,N,00641.071,E,163409,A,A*5C
$IIHDG,132,,,,*57
$GPRMB,A,0.00,L,,PERF,4622.300,N,00619.430,E,3.207,227.1,,V,A*7C
$IIMTW,+16.0,C*3F
$IIMWV,084,R,10.2,N,A*1C
$IIMWV,084,T,10.2,N,A*1A
$IIRMC,163410,A,4630.089,N,00641.071,E,00.7,121,110913,,,A*43
$IIVHW,,,132,M,00.0,N,,*64
$IIVLW,01459,N,000.0,N*5A
$IIVWR,092,R,09.9,N,,,,*6A
$IIDPT,001.3,-1.0,*42
$IIGLL,4630.089,N,00641.071,E,163410,A,A*54
$IIHDG,132,,,,*57
$IIMTW,+16.0,C*3F
$IIMWV,100,R,09.4,N,A*1F
$IIMWV,092,T,09.9,N,A*1E
$IIRMC,163411,A,4630.089,N,00641.071,E,00.9,121,110913,,,A*4C
$IIVHW,,,132,M,00.0,N,,*64
$IIVLW,01459,N,000.0,N*5A
$IIVWR,100,R,09.4,N,,,,*6D
$IIDPT,001.3,-1.0,*42
$IIGLL,4630.089,N,00641.071,E,163411,A,A*55
$IIHDG,132,,,,*57
$IIMTW,+16.0,C*3F
$IIMWV,097,R,10.0,N,A*1C
$IIMWV,100,T,09.4,N,A*19
$IIRMC,163412,A,4630.089,N,00641.071,E,00.7,122,110913,,,A*42
$IIVHW,,,132,M,00.0,N,,*64
$IIVLW,01459,N,000.0,N*5A
$IIVWR,097,R,10.0,N,,,,*6E
$GPRMB,A,0.00,L,,PERF,4622.300,N,00619.430,E,4.009,227.1,,V,A*77
$GPRMB,A,0.00,L,,,*59
$IIGLL,4630.089,N,00641.071,E,163412,A,A*56
$IIHDG,130,,,,*55
$IIMTW,+16.0,C*3F
$IIMWV,095,R,09.7,N,A*11
$IIMWV,097,T,10.0,N,A*1A
$IIRMC,163413,A,4630.089,N,00641.071,E,00.8,122,110913,,,A*4C
$IIVHW,,,130,M,00.0,N,,*66
$IIVLW,01459,N,000.0,N*5A
$IIVWR,095,R,09.7,N,,,,*63
$IIDPT,001.3,-1.0,*42
$IIGLL,4630.089,N,00641.071,E,163414,A,A*50
$IIHDG,130,,,,*55
$IIMTW,+16.0,C*3F
$IIMWV,109,R,09.9,N,A*1B
$IIMWV,095,T,09.7,N,A*17
$IIRMC,163414,A,4630.089,N,00641.071,E,00.8,122,110913,,,A*4B
$IIVHW,,,130,M,00.0,N,,*66
$IIVLW,01459,N,000.0,N*5A
$IIVWR,109,R,09.9,N,,,,*69
$IIDPT,001.8,-1.0,*49
$IIGLL,4630.089,N,00641.072,E,163415,A,A*52
$IIHDG,129,,,,*5D
$IIMTW,+16.0,C*3F
$IIMWV,126,R,09.5,N,A*1A
$IIMWV,109,T,09.9,N,A*1D
$IIRMC,163415,A,4630.089,N,00641.072,E,00.9,122,110913,,,A*48
$GPRMB,A,0.00,L,,PERF,4622.300,N,00619.430,E,9.659,227.1,,V,A*79
$GPRMB,A,0.00,,00.0,N,,*69
$IIVLW,01459,N,000.0,N*5A
$IIVWR,097,R,07.3,N,,,,*6B
$IIDPT,001.8,-1.0,*49
$IIGLL,4630.088,N,00641.072,E,163416,A,A*50
$IIHDG,128,,,,*5C
$IIMTW,+16.0,C*3F
$IIMWV,097,R,07.3,N,A*19
$IIMWV,126,T,09.5,N,A*1C
$IIRMC,163416,A,4630.088,N,00641.072,E,00.8,122,110913,,,A*4B
$IIVHW,,,128,M,00.0,N,,*6F
$IIVLW,01459,N,000.0,N*5A
$IIVWR,099,R,07.6,N,,,,*60
$IIDPT,001.8,-1.0,*49
$IIGLL,4630.088,N,00641.072,E,163417,A,A*51
$IIHDG,126,,,,*52
$IIMTW,+16.0,C*3F
$IIMWV,099,R,07.6,N,A*12
$IIMWV,097,T,07.3,N,A*1F
$IIRMC,163417,A,4630.088,N,00641.072,E,00.9,122,110913,,,A*4B
$IIVHW,,,125,M,00.0,N,,*62
$IIVLW,01459,N,000.0,N*5A
$IIVWR,100,R,08.2,N,,,,*6A
$IIDPT,001.8,-1.0,*49
$IIGLL,4630.088,N,00641.072,E,163418,A,A*5E
$IIHDG,125,,,,*51
$IIMTW,+16.0,C*3F
$IIMWV,100,R,08.2,N,A*18
$GPRMB,A,0.00,L,,PERF,4622.300,N,00619.430,E,3.616,227.1,,V,A*78
$GPRMB,A,0.00,L,,PERA*73
$IIRMC,163419,A,4630.088,N,00641.073,E,01.0,121,110913,,,A*4F
$IIVHW,,,124,M,00.0,N,,*63
$IIVLW,01459,N,000.0,N*5A
$IIVWR,103,R,09.0,N,,,,*6A
$IIDPT,001.8,-1.0,*49
$IIGLL,4630.088,N,00641.073,E,163419,A,A*5E
$IIHDG,124,,,,*50
$IIMTW,+16.0,C*3F
$IIMWV,103,R,09.0,N,A*18
$IIMWV,103,T,09.0,N,A*1E
$IIRMC,163420,A,4630.088,N,00641.073,E,01.0,121,110913,,,A*45
$IIVHW,,,124,M,00.0,N,,*63
$IIVLW,01459,N,000.0,N*5A
$IIVWR,101,R,09.0,N,,,,*68
$IIDPT,001.8,-1.0,*49
$IIGLL,4630.088,N,00641.073,E,163420,A,A*54
$IIHDG,124,,,,*50
$IIMTW,+16.0,C*3F
$IIMWV,104,R,08.7,N,A*19
$IIMWV,101,T,09.0,N,A*1C
$IIRMC,163421,A,4630.088,N,00641.073,E,01.1,120,110913,,,A*44
$IIVHW,,,123,M,00.0,N,,*64
$IIVLW,01459,N,000.0,N*5A
$IIVWR,104,R,08.7,N,,,,*6B
$IIDPT,001.8,-1.0,*49
$GPRMB,A,0.00,L,,PERF,4622.300,N,00619.430,E,6.916,227.1,,V,A*72
$GPRMB,A,0.0088,N,00641.073,E,163421,A,A*34
$IIHDG,123,,,,*57
$IIMTW,+16.0,C*3F
$IIMWV,100,R,09.1,N,A*1A
$IIMWV,104,T,08.7,N,A*1F
$IIRMC,163422,A,4630.088,N,00641.074,E,01.2,120,110913,,,A*43
$IIVHW,,,122,M,00.0,N,,*65
$IIVLW,01459,N,000.0,N*5A
$IIVWR,100,R,09.1,N,,,,*68
$IIDPT,001.8,-1.0,*49
$IIGLL,4630.088,N,00641.074,E,163422,A,A*51
$IIHDG,120,,,,*54
$IIMTW,+16.0,C*3F
$IIMWV,127,R,09.3,N,A*1D
$IIMWV,110,T,09.8,N,A*14
$IIRMC,163423,A,4630.087,N,00641.074,E,01.2,119,110913,,,A*47
$IIVHW,,,120,M,00.0,N,,*67
$IIVLW,01459,N,000.0,N*5A
$IIVWR,127,R,09.3,N,,,,*6F
$GPRMB,A,0.00,L,,PERF,4622.300,N,00619.430,E,13.544,227.1,,V,A*4D
$IIDPT,001.8,-1.0,*49
$IIGLL,4630.087,N,00641.075,E,163425,A,A*58
$IIHDG,120,,,,*54
$IIMTW,+16.0,C*3F
$IIMWV,120,R,08.8,N,A*10
$IIMWV,127,T,09.3,N,A*1B
$IIRMC,163425,A,4630.087,N,00641.075,E,01.5,119,110913,,,A*47
$IIVHW,,,120,M,00.0,N,,*67
$IIVLW,01459,N,000.0,N*5A
$IIVWR,120,R,08.8,N,,,,*62
$IIDPT,001.8,-1.0,*49
$IIGLL,4630.086,N,00641.075,E,163426,A,A*5A
$IIHDG,120,,,,*54
$IIMTW,+16.0,C*3F
$IIMWV,111,R,09.8,N,A*13
$IIMWV,120,T,08.8,N,A*16
$IIRMC,163426,A,4630.086,N,00641.075,E,01.5,118,110913,,,A*44
$IIVHW,,,120,M,00.0,N,,*67
$IIVLW,01459,N,000.0,N*5A
$IIVWR,108,R,10.1,N,,,,*68
$IIDPT,001.9,-1.0,*48
$IIGLL,4630.086,N,00641.076,E,163427,A,A*58
$IIHDG,120,,,,*54
$IIMTW,+16.0,C*3F
$IIMWV,108,R,10.1,N,A*1A
$IIMWV,111,T,09.7,N,A*1A
$GPRMB,A,0.00,L,,PERF,4622.300,N,00619.430,E,17.751,227.1,,V,A*4F
$GPRMB,A,0.00,L,,PERF,4622.300,N,00619.430,E,17.110913,,,A*25
$IIVHW,,,120,M,00.0,N,,*67
$IIVLW,01459,N,000.0,N*5A
$IIVWR,113,R,10.7,N,,,,*64
$IIDPT,002.1,-1.0,*43
$IIGLL,4630.086,N,00641.076,E,163428,A,A*57
$IIHDG,120,,,,*54
$IIMTW,+16.0,C*3F
$IIMWV,113,R,10.7,N,A*16
$IIMWV,109,T,10.0,N,A*1C
$IIRMC,163428,A,4630.086,N,00641.076,E,01.6,118,110913,,,A*4A
$IIVHW,,,121,M,00.2,N,,*64
$IIVLW,01459,N,000.0,N*5A
$IIVWR,107,R,09.8,N,,,,*66
$IIDPT,002.1,-1.0,*43
$IIGLL,4630.086,N,00641.077,E,163429,A,A*57
$IIHDG,121,,,,*55
$IIMTW,+16.0,C*3F
$IIMWV,107,R,09.8,N,A*14
$IIMWV,113,T,10.6,N,A*11
$IIRMC,163430,A,4630.085,N,00641.077,E,01.6,121,110913,,,A*4B
$IIVHW,,,121,M,00.4,N,,*62
$IIVLW,01459,N,000.0,N*5A
$IIVWR,107,R,10.6,N,,,,*60
$IIDPT,002.1,-1.0,*43
$IIGLL,4630.085,N,00641.077,E,163430,A,A*5C
$IIHDG,121,,,,*55
$GPRMB,A,0.00,L,,PERF,4622.300,N,00619.430,E,20.614,227.1,,V,A*4B
$IIMTW,+16.0,C*3F
$IIMWV,107,R,10.6,N,A*12
$IIMWV,109,T,10.6,N,A*1A
$IIRMC,163431,A,4630.085,N,00641.078,E,01.7,121,110913,,,A*44
$IIVHW,,,121,M,00.3,N,,*65
$IIVLW,01459,N,000.0,N*5A
$IIVWR,111,R,10.5,N,,,,*64
$IIDPT,002.1,-1.0,*43
$IIGLL,4630.085,N,00641.078,E,163431,A,A*52
$IIHDG,121,,,,*55
$IIMTW,+16.0,C*3F
$IIMWV,116,R,09.8,N,A*14
$IIMWV,113,T,10.5,N,A*12
$IIRMC,163432,A,4630.085,N,00641.078,E,01.7,121,110913,,,A*47
$IIVHW,,,121,M,00.6,N,,*60
$IIVLW,01459,N,000.0,N*5A
$IIVWR,116,R,09.8,N,,,,*66
$IIDPT,001.9,-1.0,*48
$IIGLL,4630.085,N,00641.078,E,163432,A,A*51
$IIHDG,121,,,,*55
$IIMTW,+16.0,C*3F
$IIMWV,111,R,09.6,N,A*1D
$IIMWV,119,T,10.0,N,A*1D
$IIRMC,163432,A,4630.085,N,00641.078,E,01.7,121,110913,,,A*47
$IIVHW,,,121,M,00.8,N,,*6E
$IIVLW,01459,N,000.0,N*5A
$IIVWR,111,R,09.6,N,,,,*6F
$GPRMB,A,0.00,L,,PERF,4622.300,N,00619.430,E,27.203,227.1,,V,A*4E
$GPRMB,A,0.00,L,0,*45
$IIGLL,4630.085,N,00641.078,E,163432,A,A*51
$IIHDG,121,,,,*55
$IIMTW,+16.0,C*3F
$IIMWV,106,R,10.1,N,A*14
$IIMWV,115,T,09.8,N,A*11
$IIRMC,163434,A,4630.084,N,00641.080,E,01.9,121,110913,,,A*49
$IIVHW,,,121,M,01.0,N,,*67
$IIVLW,01459,N,000.0,N*5A
$IIVWR,106,R,10.1,N,,,,*66
$IIDPT,001.5,-1.0,*44
$IIGLL,4630.084,N,00641.081,E,163435,A,A*51
$IIHDG,120,,,,*54
$IIMTW,+16.0,C*3F
$IIMWV,106,R,09.6,N,A*1B
$IIMWV,111,T,10.3,N,A*16
$IIRMC,163435,A,4630.084,N,00641.081,E,02.0,117,110913,,,A*46
$IIVHW,,,120,M,01.1,N,,*67
$IIVLW,01459,N,000.0,N*5A
$IIVWR,106,R,09.6,N,,,,*69
$IIDPT,001.5,-1.0,*44
$IIGLL,4630.084,N,00641.081,E,163436,A,A*52
$IIHDG,120,,,,*54
$IIMTW,+16.0,C*3F
$IIMWV,109,R,10.0,N,A*1A
$IIMWV,112,T,09.9,N,A*17
$IIRMC,163436,A,4630.084,N,00641.081,E,02.0,116,110913,,,A*44
$GPRMB,A,0.00,L,,PERF,4622.300,N,00619.430,E,24.740,227.1,,V,A*4F
$GPRMB,A,0.0,M,01.3,N,,*16
$IIVLW,01459,N,000.0,N*5A
$IIVWR,106,R,09.5,N,,,,*6A
$IIDPT,001.5,-1.0,*44
$IIGLL,4630.083,N,00641.082,E,163437,A,A*57
$IIHDG,120,,,,*54
$IIMTW,+16.0,C*3F
$IIMWV,106,R,09.5,N,A*18
$IIMWV,116,T,10.5,N,A*17
$IIRMC,163437,A,4630.083,N,00641.082,E,02.0,117,110913,,,A*40
$IIVHW,,,120,M,01.4,N,,*62
$IIVLW,01459,N,000.0,N*5A
$IIVWR,107,R,09.8,N,,,,*66
$IIDPT,001.5,-1.0,*44
$IIGLL,4630.083,N,00641.083,E,163438,A,A*59
$IIHDG,119,,,,*5E
$IIMTW,+16.0,C*3F
$IIMWV,107,R,09.8,N,A*14
$IIMWV,114,T,09.9,N,A*11
$IIRMC,163438,A,4630.083,N,00641.083,E,02.1,118,110913,,,A*40
$IIVHW,,,119,M,01.6,N,,*6A
$IIVLW,01459,N,000.0,N*5A
$IIVWR,106,R,09.5,N,,,,*6A
$IIDPT,001.5,-1.0,*44
$IIGLL,4630.083,N,00641.083,E,163439,A,A*58
$IIHDG,119,,,,*5E
$IIMTW,+16.0,C*3F
$IIMWV,106,R,09.5,N,A*18
$GPRMB,A,0.00,L,,PERF,4622.300,N,00619.430,E,28.174,227.1,,V,A*42
$GPRMB,A,0.00,L,,PN,A*06
$IIRMC,163440,A,4630.082,N,00641.084,E,02.2,118,110913,,,A*4A
$IIVHW,,,119,M,01.7,N,,*6B
$IIVLW,01459,N,000.0,N*5A
$IIVWR,102,R,09.5,N,,,,*6E
$IIDPT,001.5,-1.0,*44
$IIGLL,4630.082,N,00641.084,E,163440,A,A*50
$IIHDG,119,,,,*5E
$IIMTW,+16.0,C*3F
$IIMWV,102,R,09.5,N,A*1C
$IIMWV,111,T,09.9,N,A*14
$IIRMC,163440,A,4630.082,N,00641.084,E,02.2,118,110913,,,A*4A
$IIVHW,,,119,M,01.8,N,,*64
$IIVLW,01459,N,000.0,N*5A
$IIVWR,098,R,08.8,N,,,,*60
$IIDPT,001.5,-1.0,*44
$IIGLL,4630.082,N,00641.084,E,163440,A,A*50
$IIHDG,119,,,,*5E
$IIMTW,+16.0,C*3F
$IIMWV,096,R,09.4,N,A*11
$IIMWV,109,T,09.2,N,A*16
$IIRMC,163442,A,4630.082,N,00641.086,E,02.3,120,110913,,,A*40
$IIVHW,,,119,M,01.8,N,,*64
$IIVLW,01459,N,000.0,N*5A
$IIVWR,096,R,09.4,N,,,,*63
$IIDPT,001.8,-1.0,*49
$GPRMB,A,0.00,L,,PERF,4622.300,N,00619.430,E,24.693,227.1,,V,A*40
$GPRMB,A,0..082,N,00641.086,E,163442,A,A*2F
$IIHDG,119,,,,*5E
$IIMTW,+16.0,C*3F
$IIMWV,094,R,08.8,N,A*1E
$IIMWV,107,T,09.7,N,A*1D
$IIRMC,163442,A,4630.082,N,00641.086,E,02.3,120,110913,,,A*40
$IIVHW,,,120,M,01.9,N,,*6F
$IIVLW,01459,N,000.0,N*5A
$IIVWR,094,R,08.8,N,,,,*6C
$IIDPT,002.6,-1.0,*44
$IIGLL,4630.082,N,00641.086,E,163442,A,A*50
$IIHDG,121,,,,*55
$IIMTW,+16.0,C*3F
$IIMWV,096,R,09.1,N,A*14
$IIMWV,107,T,09.1,N,A*1B
$IIRMC,163444,A,4630.081,N,00641.087,E,02.4,124,110913,,,A*47
$IIVHW,,,121,M,02.0,N,,*64
$IIVLW,01459,N,000.0,N*5A
$IIVWR,096,R,09.1,N,,,,*66
$IIDPT,002.6,-1.0,*44
$IIGLL,4630.080,N,00641.088,E,163445,A,A*5B
$IIHDG,123,,,,*57
$IIMTW,+16.0,C*3F
