$IIVHW,,,266,M,,,,*36
$IIVWR,099,R,05.8,N,,,,*6C
$IIHDG,266,,,01,E*11
$IIMWV,099,R,05.8,N,A*1E
$IIVHW,,,257,M,01.0,N,,*65
$IIVLW,01510,N,000.0,N*56
$IIVWR,100,R,08.1,N,,,,*69
$IIGLL,4629.981,N,00641.223,E,165919,A,A*5A
$IIHDG,257,,,01,E*13
$IIMTW,+00.0,C*38
$IIMWV,100,R,08.1,N,A*1B
$IIRMC,165919,A,4629.981,N,00641.223,E,05.7,249,110614,01,E,A*09
$IIVHW,,,250,M,01.7,N,,*65
$IIVLW,01510,N,000.0,N*56
$IIVWR,113,R,10.2,N,,,,*61
$IIGLL,4629.980,N,00641.220,E,165920,A,A*52
$IIHDG,250,,,01,E*14
$IIMTW,+16.5,C*3A
$IIMWV,113,R,10.2,N,A*13
$IIMWV,107,T,08.2,N,A*19
$IIRMC,165920,A,4629.980,N,00641.220,E,05.6,242,110614,01,E,A*0B
$IIVHW,,,244,M,02.3,N,,*67
$IIVLW,01510,N,000.0,N*56
$IIVWR,107,R,10.4,N,,,,*62
$IIDPT,034.0,-1.0,*47
$IIGLL,4629.980,N,00641.220,E,165920,A,A*52
$IIHDG,244,,,01,E*11
$IIMTW,+16.5,C*3A
$IIMWV,107,R,10.4,N,A*10
$IIMWV,121,T,10.8,N,A*1E
$IIRMC,165922,A,4629.979,N,00641.216,E,06.0,233,110614,01,E,A*09
$IIVHW,,,238,M,02.8,N,,*67
$IIVLW,01510,N,000.0,N*56
$IIVWR,114,R,10.6,N,,,,*62
$IIDPT,034.0,-1.0,*47
$IIGLL,4629.979,N,00641.216,E,165922,A,A*53
$IIHDG,238,,,01,E*1A
$IIMTW,+16.5,C*3A
$IIMWV,114,R,10.6,N,A*10
$IIMWV,127,T,11.9,N,A*18
$IIRMC,165923,A,4629.978,N,00641.214,E,06.1,233,110614,01,E,A*0A
$IIVHW,,,233,M,03.2,N,,*67
$IIVLW,01510,N,000.0,N*56
$IIVWR,125,R,10.3,N,,,,*65
$IIDPT,034.0,-1.0,*47
$IIGLL,4629.978,N,00641.214,E,165923,A,A*51
$IIHDG,233,,,01,E*11
$IIMTW,+16.5,C*3A
$IIMWV,139,R,10.1,N,A*18
$IIMWV,137,T,12.3,N,A*10
$IIRMC,165923,A,4629.978,N,00641.214,E,06.1,233,110614,01,E,A*0A
$IIVHW,,,228,M,03.5,N,,*6A
$IIVLW,01510,N,000.0,N*56
$IIVWR,139,R,10.1,N,,,,*6A
$IIDPT,034.0,-1.0,*47
$IIGLL,4629.978,N,00641.214,E,165923,A,A*51
$IIHDG,228,,,01,E*1B
$IIMTW,+16.5,C*3A
$IIMWV,152,R,09.7,N,A*1B
$IIMWV,149,T,12.9,N,A*13
$IIRMC,165925,A,4629.975,N,00641.209,E,06.3,221,110614,01,E,A*0C
$IIVHW,,,224,M,03.8,N,,*6B
$IIVLW,01510,N,000.0,N*56
$IIVWR,152,R,09.7,N,,,,*69
$IIDPT,018.1,-1.0,*48
$IIGLL,4629.975,N,00641.209,E,165925,A,A*56
$IIHDG,221,,,01,E*12
$IIMTW,+16.5,C*3A
$IIMWV,156,R,08.9,N,A*10
$IIMWV,160,T,13.0,N,A*10
$IIRMC,165926,A,4629.973,N,00641.207,E,06.2,217,110614,01,E,A*03
$IIVHW,,,221,M,04.0,N,,*61
$IIVLW,01510,N,000.0,N*56
$IIVWR,156,R,08.9,N,,,,*62
$IIDPT,018.1,-1.0,*48
$IIGLL,4629.971,N,00641.206,E,165927,A,A*5F
$IIHDG,218,,,01,E*18
$IIMTW,+16.5,C*3A
$IIMWV,154,R,08.6,N,A*1D
$IIMWV,163,T,12.5,N,A*17
$IIRMC,165927,A,4629.971,N,00641.206,E,05.6,212,110614,01,E,A*03
$IIVHW,,,218,M,04.2,N,,*69
$IIVLW,01510,N,000.0,N*56
$IIVWR,154,R,08.6,N,,,,*6F
$IIDPT,018.0,-1.0,*49
$IIGLL,4629.970,N,00641.205,E,165928,A,A*52
$IIHDG,217,,,01,E*17
$IIMTW,+16.5,C*3A
$IIMWV,157,R,08.5,N,A*1D
$IIMWV,163,T,12.4,N,A*16
$IIRMC,165928,A,4629.970,N,00641.205,E,06.2,215,110614,01,E,A*0E
$IIVHW,,,217,M,04.3,N,,*67
$IIVLW,01510,N,000.0,N*56
$IIVWR,155,R,07.7,N,,,,*60
$IIDPT,018.0,-1.0,*49
$IIGLL,4629.969,N,00641.203,E,165929,A,A*5D
$IIHDG,216,,,01,E*16
$IIMTW,+16.5,C*3A
$IIMWV,155,R,07.7,N,A*12
$IIMWV,165,T,12.5,N,A*11
$IIRMC,165929,A,4629.969,N,00641.203,E,05.9,216,110614,01,E,A*0A
$IIVHW,,,216,M,04.4,N,,*61
$IIVLW,01510,N,000.0,N*56
$IIVWR,143,R,06.8,N,,,,*69
$IIDPT,018.0,-1.0,*49
$IIGLL,4629.967,N,00641.202,E,165930,A,A*5A
$IIHDG,215,,,01,E*15
$IIMTW,+16.5,C*3A
$IIMWV,143,R,06.8,N,A*1B
$IIMWV,164,T,11.8,N,A*1E
$IIRMC,165930,A,4629.967,N,00641.202,E,06.0,215,110614,01,E,A*04
$IIVHW,,,214,M,04.5,N,,*62
$IIVLW,01510,N,000.0,N*56
$IIVWR,146,R,07.1,N,,,,*64
$IIDPT,018.0,-1.0,*49
$IIGLL,4629.966,N,00641.201,E,165931,A,A*59
$IIHDG,214,,,01,E*14
$IIMTW,+16.5,C*3A
$IIMWV,146,R,07.1,N,A*16
$IIMWV,158,T,10.6,N,A*1E
$IIRMC,165932,A,4629.965,N,00641.199,E,05.8,216,110614,01,E,A*0D
$IIVHW,,,213,M,04.6,N,,*66
$IIVLW,01510,N,000.0,N*56
$IIVWR,148,R,07.3,N,,,,*68
$IIDPT,018.0,-1.0,*49
$IIGLL,4629.965,N,00641.199,E,165932,A,A*5B
$IIHDG,213,,,01,E*13
$IIMTW,+16.5,C*3A
$IIMWV,148,R,07.3,N,A*1A
$IIMWV,160,T,11.4,N,A*16
$IIRMC,165933,A,4629.963,N,00641.199,E,05.8,215,110614,01,E,A*09
$IIVHW,,,213,M,04.6,N,,*66
$IIVLW,01510,N,000.0,N*56
$IIVWR,149,R,07.4,N,,,,*6E
$IIDPT,018.0,-1.0,*49
$IIGLL,4629.963,N,00641.199,E,165933,A,A*5C
$IIHDG,213,,,01,E*13
$IIMTW,+16.5,C*3A
$IIMWV,151,R,07.6,N,A*17
$IIMWV,161,T,11.6,N,A*15
$IIRMC,165935,A,4629.960,N,00641.197,E,05.9,214,110614,01,E,A*02
$IIVHW,,,213,M,04.7,N,,*67
$IIVLW,01510,N,000.0,N*56
$IIVWR,151,R,07.6,N,,,,*65
$IIDPT,018.0,-1.0,*49
$IIGLL,4629.960,N,00641.197,E,165935,A,A*57
$IIHDG,213,,,01,E*13
$IIMTW,+16.5,C*3A
$IIMWV,152,R,07.0,N,A*12
$IIMWV,163,T,11.8,N,A*19
$IIRMC,165935,A,4629.960,N,00641.197,E,05.9,214,110614,01,E,A*02
$IIVHW,,,213,M,04.7,N,,*67
$IIVLW,01510,N,000.0,N*56
$IIVWR,152,R,07.0,N,,,,*60
$IIDPT,017.8,-1.0,*4E
$IIGLL,4629.960,N,00641.197,E,165935,A,A*57
$IIHDG,212,,,01,E*12
$IIMTW,+16.5,C*3A
$IIMWV,159,R,06.8,N,A*10
$IIMWV,163,T,11.2,N,A*13
$IIRMC,165936,A,4629.958,N,00641.196,E,05.9,213,110614,01,E,A*0C
$IIVHW,,,212,M,04.7,N,,*66
$IIVLW,01510,N,000.0,N*56
$IIVWR,159,R,06.8,N,,,,*62
$IIDPT,017.8,-1.0,*4E
$IIGLL,4629.957,N,00641.195,E,165937,A,A*53
$IIHDG,211,,,01,E*11
$IIMTW,+16.5,C*3A
$IIMWV,161,R,06.8,N,A*1B
$IIMWV,168,T,11.2,N,A*18
$IIRMC,165937,A,4629.957,N,00641.195,E,05.7,213,110614,01,E,A*0F
$IIVHW,,,211,M,04.7,N,,*65
$IIVLW,01510,N,000.0,N*56
$IIVWR,161,R,06.8,N,,,,*69
$IIDPT,017.8,-1.0,*4E
$IIGLL,4629.955,N,00641.194,E,165938,A,A*5F
$IIHDG,211,,,01,E*11
$IIMTW,+16.5,C*3A
$IIMWV,157,R,06.4,N,A*12
$IIMWV,169,T,11.4,N,A*1F
$IIRMC,165938,A,4629.955,N,00641.194,E,05.7,212,110614,01,E,A*02
$IIVHW,,,211,M,04.7,N,,*65
$IIVLW,01510,N,000.0,N*56
$IIVWR,160,R,06.3,N,,,,*63
$IIDPT,017.7,-1.0,*41
$IIGLL,4629.954,N,00641.193,E,165939,A,A*58
$IIHDG,211,,,01,E*11
$IIMTW,+16.5,C*3A
$IIMWV,160,R,06.3,N,A*11
$IIMWV,167,T,10.8,N,A*1C
$IIRMC,165939,A,4629.954,N,00641.193,E,05.7,212,110614,01,E,A*05
$IIVHW,,,211,M,04.7,N,,*65
$IIVLW,01510,N,000.0,N*56
$IIVWR,167,R,06.3,N,,,,*64
$IIDPT,017.7,-1.0,*41
$IIGLL,4629.952,N,00641.191,E,165940,A,A*52
$IIHDG,210,,,01,E*10
$IIMTW,+16.5,C*3A
$IIMWV,167,R,06.3,N,A*16
$IIMWV,169,T,10.8,N,A*12
$IIRMC,165940,A,4629.952,N,00641.191,E,05.7,212,110614,01,E,A*0F
$IIVHW,,,210,M,04.6,N,,*65
$IIVLW,01510,N,000.0,N*56
$IIVWR,172,R,07.8,N,,,,*6A
$IIDPT,017.7,-1.0,*41
$IIGLL,4629.951,N,00641.191,E,165941,A,A*50
$IIHDG,210,,,01,E*10
$IIMTW,+16.5,C*3A
$IIMWV,172,R,07.8,N,A*18
$IIMWV,173,T,10.8,N,A*19
$IIRMC,165942,A,4629.950,N,00641.190,E,05.3,211,110614,01,E,A*09
$IIVHW,,,209,M,04.6,N,,*6D
$IIVLW,01510,N,000.0,N*56
$IIVWR,169,R,07.7,N,,,,*6F
$IIDPT,017.7,-1.0,*41
$IIGLL,4629.950,N,00641.190,E,165942,A,A*53
$IIHDG,209,,,01,E*18
$IIMTW,+16.5,C*3A
$IIMWV,169,R,07.7,N,A*1D
$IIMWV,173,T,12.2,N,A*11
$IIRMC,165943,A,4629.949,N,00641.189,E,05.2,210,110614,01,E,A*08
$IIVHW,,,209,M,04.6,N,,*6D
$IIVLW,01510,N,000.0,N*56
$IIVWR,162,R,07.5,N,,,,*66
$IIDPT,017.7,-1.0,*41
$IIGLL,4629.949,N,00641.189,E,165943,A,A*52
$IIHDG,209,,,01,E*18
$IIMTW,+16.5,C*3A
$IIMWV,163,R,07.4,N,A*14
$IIMWV,169,T,11.9,N,A*12
$IIRMC,165944,A,4629.947,N,00641.187,E,05.3,210,110614,01,E,A*0E
$IIVHW,,,210,M,04.5,N,,*66
$IIVLW,01510,N,000.0,N*56
$IIVWR,163,R,07.4,N,,,,*66
$IIDPT,017.7,-1.0,*41
$IIGLL,4629.947,N,00641.187,E,165944,A,A*55
$IIHDG,210,,,01,E*10
$IIMTW,+16.5,C*3A
$IIMWV,176,R,06.4,N,A*11
$IIMWV,171,T,11.0,N,A*12
$IIRMC,165946,A,4629.945,N,00641.185,E,05.5,209,110614,01,E,A*02
$IIVHW,,,209,M,04.5,N,,*6E
$IIVLW,01510,N,000.0,N*56
$IIVWR,176,R,06.4,N,,,,*63
$IIDPT,017.7,-1.0,*41
$IIGLL,4629.945,N,00641.185,E,165946,A,A*57
$IIHDG,208,,,01,E*19
$IIMTW,+16.5,C*3A
$IIMWV,178,R,05.7,N,A*1F
$IIMWV,178,T,10.9,N,A*13
$IIRMC,165947,A,4629.943,N,00641.184,E,05.3,209,110614,01,E,A*02
$IIVHW,,,208,M,04.4,N,,*6E
$IIVLW,01510,N,000.0,N*56
$IIVWR,178,R,05.7,N,,,,*6D
$IIDPT,017.7,-1.0,*41
$IIGLL,4629.942,N,00641.183,E,165948,A,A*58
$IIHDG,207,,,01,E*16
$IIMTW,+16.5,C*3A
$IIMWV,194,R,05.3,N,A*19
$IIMWV,180,T,10.2,N,A*1F
$IIRMC,165948,A,4629.942,N,00641.183,E,05.3,209,110614,01,E,A*0B
$IIVHW,,,207,M,04.4,N,,*61
$IIVLW,01510,N,000.0,N*56
$IIVWR,166,L,05.3,N,,,,*78
$IIDPT,017.7,-1.0,*41
$IIGLL,4629.941,N,00641.182,E,165949,A,A*5B
$IIHDG,207,,,01,E*16
$IIMTW,+16.0,C*3F
$IIMWV,202,R,05.3,N,A*15
$IIMWV,187,T,09.5,N,A*17
$IIRMC,165949,A,4629.941,N,00641.182,E,05.0,208,110614,01,E,A*0A
$IIVHW,,,207,M,04.3,N,,*66
$IIVLW,01510,N,000.0,N*56
$IIVWR,161,L,04.9,N,,,,*74
$IIDPT,017.7,-1.0,*41
$IIGLL,4629.939,N,00641.181,E,165950,A,A*5F
$IIHDG,207,,,01,E*16
$IIMTW,+16.5,C*3A
$IIMWV,199,R,04.9,N,A*1F
$IIMWV,192,T,09.4,N,A*12
$IIRMC,165950,A,4629.939,N,00641.181,E,05.0,207,110614,01,E,A*01
$IIVHW,,,207,M,04.3,N,,*66
$IIVLW,01510,N,000.0,N*56
$IIVWR,156,L,05.2,N,,,,*7A
$IIDPT,017.7,-1.0,*41
$IIGLL,4629.938,N,00641.180,E,165951,A,A*5E
$IIHDG,207,,,01,E*16
$IIMTW,+16.0,C*3F
$IIMWV,204,R,05.2,N,A*12
$IIMWV,190,T,09.0,N,A*14
$IIRMC,165951,A,4629.938,N,00641.180,E,05.0,208,110614,01,E,A*0F
$IIVHW,,,209,M,04.2,N,,*69
$IIVLW,01510,N,000.0,N*56
$IIVWR,164,L,04.6,N,,,,*7E
$IIDPT,017.7,-1.0,*41
$IIGLL,4629.937,N,00641.179,E,165952,A,A*54
$IIHDG,209,,,01,E*18
$IIMTW,+16.5,C*3A
$IIMWV,196,R,04.6,N,A*1F
$IIMWV,193,T,09.2,N,A*15
$IIRMC,165953,A,4629.936,N,00641.178,E,04.8,213,110614,01,E,A*07
$IIVHW,,,211,M,04.2,N,,*60
$IIVLW,01510,N,000.1,N*57
$IIVWR,178,L,04.6,N,,,,*73
$IIDPT,017.7,-1.0,*41
$IIGLL,4629.936,N,00641.178,E,165953,A,A*55
$IIHDG,211,,,01,E*11
$IIMTW,+16.5,C*3A
$IIMWV,182,R,04.6,N,A*1A
$IIMWV,180,T,08.8,N,A*1C
$IIRMC,165954,A,4629.935,N,00641.177,E,05.3,214,110614,01,E,A*01
$IIVHW,,,212,M,04.1,N,,*60
$IIVLW,01510,N,000.1,N*57
$IIVWR,167,R,04.7,N,,,,*62
$IIDPT,017.7,-1.0,*41
$IIGLL,4629.935,N,00641.177,E,165954,A,A*5E
$IIHDG,212,,,01,E*12
$IIMTW,+16.5,C*3A
$IIMWV,163,R,05.5,N,A*17
$IIMWV,173,T,08.7,N,A*1F
$IIRMC,165955,A,4629.934,N,00641.176,E,04.6,217,110614,01,E,A*07
$IIVHW,,,213,M,04.1,N,,*61
$IIVLW,01510,N,000.1,N*57
$IIVWR,163,R,05.5,N,,,,*65
$IIDPT,017.7,-1.0,*41
$IIGLL,4629.934,N,00641.176,E,165955,A,A*5F
$IIHDG,213,,,01,E*13
$IIMTW,+16.5,C*3A
$IIMWV,211,R,05.8,N,A*1C
$IIMWV,171,T,09.5,N,A*1E
$IIRMC,165956,A,4629.933,N,00641.175,E,04.6,217,110614,01,E,A*00
$IIVHW,,,213,M,04.1,N,,*61
$IIVLW,01510,N,000.1,N*57
$IIVWR,149,L,05.8,N,,,,*7E
$IIDPT,017.7,-1.0,*41
$IIGLL,4629.933,N,00641.175,E,165956,A,A*58
$IIHDG,214,,,01,E*14
$IIMTW,+16.5,C*3A
$IIMWV,143,R,05.0,N,A*10
$IIMWV,198,T,09.4,N,A*18
$IIRMC,165957,A,4629.931,N,00641.174,E,04.7,217,110614,01,E,A*03
$IIVHW,,,214,M,04.1,N,,*66
$IIVLW,01510,N,000.1,N*57
$IIVWR,143,R,05.0,N,,,,*62
$IIDPT,017.7,-1.0,*41
$IIGLL,4629.930,N,00641.173,E,165958,A,A*53
$IIHDG,214,,,01,E*14
$IIMTW,+16.5,C*3A
$IIMWV,168,R,04.8,N,A*10
$IIMWV,160,T,08.6,N,A*1C
$IIRMC,165958,A,4629.930,N,00641.173,E,04.7,217,110614,01,E,A*0A
$IIVHW,,,214,M,04.0,N,,*67
$IIVLW,01510,N,000.1,N*57
$IIVWR,168,R,04.8,N,,,,*62
$IIDPT,017.7,-1.0,*41
$IIGLL,4629.929,N,00641.172,E,165959,A,A*5B
$IIHDG,215,,,01,E*15
$IIMTW,+16.5,C*3A
$IIMWV,172,R,05.7,N,A*15
$IIMWV,174,T,08.8,N,A*17
$IIRMC,165959,A,4629.929,N,00641.172,E,04.7,217,110614,01,E,A*02
$IIVHW,,,215,M,04.0,N,,*66
$IIVLW,01510,N,000.1,N*57
$IIVWR,170,R,06.1,N,,,,*60
$IIDPT,017.7,-1.0,*41
$IIGLL,4629.928,N,00641.170,E,170000,A,A*59
$IIHDG,215,,,01,E*15
$IIMTW,+16.5,C*3A
$IIMWV,170,R,06.1,N,A*12
$IIMWV,176,T,09.6,N,A*1A
$IIRMC,170000,A,4629.928,N,00641.170,E,04.7,217,110614,01,E,A*00
$IIVHW,,,215,M,04.0,N,,*66
$IIVLW,01510,N,000.1,N*57
$IIVWR,170,R,06.2,N,,,,*63
$IIDPT,017.7,-1.0,*41
$IIGLL,4629.927,N,00641.169,E,170001,A,A*5F
$IIHDG,215,,,01,E*15
$IIMTW,+16.5,C*3A
$IIMWV,170,R,06.2,N,A*11
$IIMWV,174,T,09.9,N,A*17
$IIRMC,170001,A,4629.927,N,00641.169,E,04.5,218,110614,01,E,A*0B
$IIVHW,,,216,M,03.9,N,,*6B
$IIVLW,01510,N,000.1,N*57
$IIVWR,167,R,06.2,N,,,,*65
$IIDPT,017.7,-1.0,*41
$IIGLL,4629.925,N,00641.168,E,170002,A,A*5F
$IIHDG,216,,,01,E*16
$IIMTW,+16.5,C*3A
$IIMWV,167,R,06.2,N,A*17
$IIMWV,174,T,10.0,N,A*16
$IIRMC,170003,A,4629.925,N,00641.167,E,04.6,217,110614,01,E,A*09
$IIVHW,,,216,M,03.9,N,,*6B
$IIVLW,01510,N,000.1,N*57
$IIVWR,158,R,05.8,N,,,,*60
$IIDPT,017.7,-1.0,*41
$IIGLL,4629.925,N,00641.167,E,170003,A,A*51
$IIHDG,216,,,01,E*16
$IIMTW,+16.5,C*3A
$IIMWV,158,R,05.8,N,A*12
$IIMWV,167,T,09.5,N,A*19
$IIRMC,170004,A,4629.924,N,00641.166,E,04.6,217,110614,01,E,A*0E
$IIVHW,,,216,M,03.9,N,,*6B
$IIVLW,01510,N,000.1,N*57
$IIVWR,144,R,04.9,N,,,,*6D
$IIDPT,017.7,-1.0,*41
$IIGLL,4629.924,N,00641.166,E,170004,A,A*56
$IIHDG,216,,,01,E*16
$IIMTW,+16.5,C*3A
$IIMWV,194,R,03.6,N,A*1A
$IIMWV,160,T,08.2,N,A*18
$IIRMC,170005,A,4629.923,N,00641.165,E,04.3,219,110614,01,E,A*00
$IIVHW,,,216,M,03.9,N,,*6B
$IIVLW,01510,N,000.1,N*57
$IIVWR,166,L,03.6,N,,,,*7B
$IIDPT,017.7,-1.0,*41
$IIGLL,4629.923,N,00641.165,E,170005,A,A*53
$IIHDG,216,,,01,E*16
$IIMTW,+16.5,C*3A
$IIMWV,185,R,04.2,N,A*19
$IIMWV,186,T,07.3,N,A*1E
$IIRMC,170006,A,4629.922,N,00641.164,E,04.2,219,110614,01,E,A*02
$IIVHW,,,216,M,03.8,N,,*6A
$IIVLW,01510,N,000.1,N*57
$IIVWR,175,L,04.2,N,,,,*7A
$IIDPT,017.7,-1.0,*41
$IIGLL,4629.922,N,00641.164,E,170006,A,A*50
$IIHDG,217,,,01,E*17
$IIMTW,+17.0,C*3E
$IIMWV,183,R,03.7,N,A*1D
$IIMWV,182,T,08.1,N,A*17
$IIRMC,170007,A,4629.921,N,00641.162,E,04.3,218,110614,01,E,A*06
$IIVHW,,,217,M,03.8,N,,*6B
$IIVLW,01510,N,000.1,N*57
$IIVWR,177,L,03.7,N,,,,*7A
$IIDPT,017.7,-1.0,*41
$IIGLL,4629.920,N,00641.161,E,170008,A,A*59
$IIHDG,217,,,01,E*17
$IIMTW,+16.5,C*3A
$IIMWV,168,R,04.3,N,A*1B
$IIMWV,181,T,07.6,N,A*1C
$IIRMC,170008,A,4629.920,N,00641.161,E,04.6,217,110614,01,E,A*01
$IIVHW,,,217,M,03.8,N,,*6B
$IIVLW,01510,N,000.1,N*57
$IIVWR,168,R,04.3,N,,,,*69
$IIDPT,017.7,-1.0,*41
$IIGLL,4629.919,N,00641.160,E,170009,A,A*53
$IIHDG,217,,,01,E*17
$IIMTW,+16.5,C*3A
$IIMWV,158,R,05.9,N,A*13
$IIMWV,174,T,08.1,N,A*1E
$IIRMC,170009,A,4629.919,N,00641.160,E,04.6,218,110614,01,E,A*04
$IIVHW,,,217,M,03.8,N,,*6B
$IIVLW,01510,N,000.1,N*57
$IIVWR,143,R,05.7,N,,,,*65
$IIDPT,017.7,-1.0,*41
$IIGLL,4629.918,N,00641.159,E,170010,A,A*50
$IIHDG,217,,,01,E*17
$IIMTW,+16.5,C*3A
$IIMWV,143,R,05.7,N,A*17
$IIMWV,167,T,09.4,N,A*18
$IIRMC,170010,A,4629.918,N,00641.159,E,04.6,218,110614,01,E,A*07
$IIVHW,,,217,M,03.8,N,,*6B
$IIVLW,01510,N,000.1,N*57
$IIVWR,148,R,05.7,N,,,,*6E
$IIDPT,017.7,-1.0,*41
$IIGLL,4629.917,N,00641.157,E,170011,A,A*50
$IIHDG,216,,,01,E*16
$IIMTW,+16.5,C*3A
$IIMWV,148,R,05.7,N,A*1C
$IIMWV,158,T,08.9,N,A*18
$IIRMC,170011,A,4629.917,N,00641.157,E,04.6,217,110614,01,E,A*08
$IIVHW,,,216,M,03.8,N,,*6A
$IIVLW,01510,N,000.1,N*57
$IIVWR,145,R,06.1,N,,,,*66
$IIDPT,017.7,-1.0,*41
$IIGLL,4629.916,N,00641.156,E,170012,A,A*53
$IIHDG,216,,,01,E*16
$IIMTW,+16.5,C*3A
$IIMWV,145,R,06.1,N,A*14
$IIMWV,161,T,09.1,N,A*1B
$IIRMC,170013,A,4629.915,N,00641.155,E,04.6,218,110614,01,E,A*05
$IIVHW,,,216,M,03.7,N,,*65
$IIVLW,01510,N,000.1,N*57
$IIVWR,152,R,06.9,N,,,,*68
$IIDPT,017.7,-1.0,*41
$IIGLL,4629.915,N,00641.155,E,170013,A,A*52
$IIHDG,216,,,01,E*16
$IIMTW,+16.0,C*3F
$IIMWV,152,R,06.9,N,A*1A
$IIMWV,162,T,10.3,N,A*12
$IIRMC,170014,A,4629.914,N,00641.154,E,04.6,219,110614,01,E,A*03
$IIVHW,,,217,M,03.8,N,,*6B
$IIVLW,01510,N,000.1,N*57
$IIVWR,149,R,07.4,N,,,,*6E
$IIDPT,017.7,-1.0,*41
$IIGLL,4629.914,N,00641.154,E,170014,A,A*55
$IIHDG,217,,,01,E*17
$IIMTW,+16.0,C*3F
$IIMWV,143,R,07.6,N,A*14
$IIMWV,159,T,10.7,N,A*1E
$IIRMC,170015,A,4629.913,N,00641.153,E,04.5,219,110614,01,E,A*01
$IIVHW,,,218,M,03.8,N,,*64
$IIVLW,01510,N,000.1,N*57
$IIVWR,143,R,07.6,N,,,,*66
$IIDPT,017.7,-1.0,*41
$IIGLL,4629.913,N,00641.153,E,170015,A,A*54
$IIHDG,218,,,01,E*18
$IIMTW,+16.5,C*3A
$IIMWV,148,R,06.8,N,A*10
$IIMWV,155,T,10.7,N,A*12
$IIRMC,170016,A,4629.912,N,00641.152,E,04.5,220,110614,01,E,A*08
$IIVHW,,,218,M,03.8,N,,*64
$IIVLW,01510,N,000.1,N*57
$IIVWR,148,R,06.8,N,,,,*62
$IIDPT,017.7,-1.0,*41
$IIGLL,4629.912,N,00641.152,E,170016,A,A*57
$IIHDG,219,,,01,E*19
$IIMTW,+16.5,C*3A
$IIMWV,161,R,07.4,N,A*16
$IIMWV,159,T,10.1,N,A*18
$IIRMC,170016,A,4629.912,N,00641.152,E,04.5,220,110614,01,E,A*08
$IIVHW,,,219,M,03.8,N,,*65
$IIVLW,01510,N,000.1,N*57
$IIVWR,161,R,07.4,N,,,,*64
$IIDPT,016.1,-1.0,*46
$IIGLL,4629.912,N,00641.152,E,170016,A,A*57
$IIHDG,220,,,01,E*13
$IIMTW,+16.5,C*3A
$IIMWV,152,R,08.1,N,A*1C
$IIMWV,168,T,11.0,N,A*1A
$IIRMC,170016,A,4629.912,N,00641.152,E,04.5,220,110614,01,E,A*08
$IIVHW,,,220,M,03.8,N,,*6F
$IIVLW,01510,N,000.1,N*57
$IIVWR,152,R,08.1,N,,,,*6E
$IIDPT,016.1,-1.0,*46
$IIGLL,4629.909,N,00641.149,E,170019,A,A*58
$IIHDG,221,,,01,E*12
$IIMTW,+16.5,C*3A
$IIMWV,148,R,08.4,N,A*12
$IIMWV,161,T,11.5,N,A*16
$IIRMC,170019,A,4629.909,N,00641.149,E,04.5,223,110614,01,E,A*04
$IIVHW,,,221,M,03.8,N,,*6E
$IIVLW,01510,N,000.1,N*57
$IIVWR,145,R,09.4,N,,,,*6C
$IIDPT,017.5,-1.0,*43
$IIGLL,4629.908,N,00641.147,E,170020,A,A*5D
$IIHDG,221,,,01,E*12
$IIMTW,+16.5,C*3A
$IIMWV,145,R,09.4,N,A*1E
$IIMWV,158,T,11.8,N,A*11
$IIRMC,170020,A,4629.908,N,00641.147,E,04.8,224,110614,01,E,A*0B
$IIVHW,,,221,M,03.8,N,,*6E
$IIVLW,01510,N,000.1,N*57
$IIVWR,145,R,09.5,N,,,,*6D
$IIDPT,016.0,-1.0,*47
$IIGLL,4629.907,N,00641.146,E,170021,A,A*52
$IIHDG,223,,,01,E*10
$IIMTW,+16.5,C*3A
$IIMWV,145,R,09.5,N,A*1F
$IIMWV,155,T,12.7,N,A*10
$IIRMC,170021,A,4629.907,N,00641.146,E,04.8,226,110614,01,E,A*06
$IIVHW,,,223,M,03.9,N,,*6D
$IIVLW,01510,N,000.1,N*57
$IIVWR,134,R,10.6,N,,,,*60
$IIDPT,016.0,-1.0,*47
$IIGLL,4629.906,N,00641.145,E,170022,A,A*53
$IIHDG,223,,,01,E*10
$IIMTW,+16.5,C*3A
$IIMWV,134,R,10.6,N,A*12
$IIMWV,155,T,12.7,N,A*10
$IIRMC,170023,A,4629.905,N,00641.143,E,05.0,227,110614,01,E,A*0B
$IIVHW,,,224,M,04.0,N,,*64
$IIVLW,01510,N,000.1,N*57
$IIVWR,129,R,10.4,N,,,,*6E
$IIDPT,017.5,-1.0,*43
$IIGLL,4629.905,N,00641.143,E,170023,A,A*57
$IIHDG,224,,,01,E*17
$IIMTW,+16.5,C*3A
$IIMWV,129,R,10.4,N,A*1C
$IIMWV,143,T,13.3,N,A*12
$IIRMC,170024,A,4629.904,N,00641.142,E,05.2,227,110614,01,E,A*0E
$IIVHW,,,226,M,04.1,N,,*67
$IIVLW,01510,N,000.1,N*57
$IIVWR,125,R,10.1,N,,,,*67
$IIDPT,017.6,-1.0,*40
$IIGLL,4629.904,N,00641.142,E,170024,A,A*50
$IIHDG,226,,,01,E*15
$IIMTW,+16.5,C*3A
$IIMWV,125,R,10.0,N,A*14
$IIMWV,140,T,12.8,N,A*1B
$IIRMC,170025,A,4629.903,N,00641.140,E,05.4,228,110614,01,E,A*03
$IIVHW,,,226,M,04.2,N,,*64
$IIVLW,01510,N,000.1,N*57
$IIVWR,125,R,10.0,N,,,,*66
$IIDPT,017.6,-1.0,*40
$IIGLL,4629.903,N,00641.140,E,170025,A,A*54
$IIHDG,226,,,01,E*15
$IIMTW,+16.5,C*3A
$IIMWV,125,R,10.6,N,A*12
$IIMWV,138,T,14.1,N,A*1B
$IIRMC,170027,A,4629.901,N,00641.137,E,05.7,229,110614,01,E,A*01
$IIVHW,,,226,M,04.4,N,,*62
$IIVLW,01510,N,000.1,N*57
$IIVWR,125,R,10.6,N,,,,*60
$IIDPT,017.6,-1.0,*40
$IIGLL,4629.901,N,00641.137,E,170027,A,A*54
$IIHDG,226,,,01,E*15
$IIMTW,+16.5,C*3A
$IIMWV,127,R,10.2,N,A*14
$IIMWV,141,T,13.5,N,A*16
$IIRMC,170028,A,4629.900,N,00641.135,E,05.9,228,110614,01,E,A*02
$IIVHW,,,226,M,04.5,N,,*63
$IIVLW,01510,N,000.1,N*57
$IIVWR,127,R,10.2,N,,,,*66
$IIDPT,017.6,-1.0,*40
$IIGLL,4629.899,N,00641.134,E,170029,A,A*59
$IIHDG,226,,,01,E*15
$IIMTW,+16.5,C*3A
$IIMWV,129,R,10.0,N,A*18
$IIMWV,143,T,13.4,N,A*15
$IIRMC,170029,A,4629.899,N,00641.134,E,06.0,228,110614,01,E,A*09
$IIVHW,,,226,M,04.6,N,,*60
$IIVLW,01510,N,000.1,N*57
$IIVWR,129,R,10.0,N,,,,*6A
$IIDPT,017.6,-1.0,*40
$IIGLL,4629.898,N,00641.132,E,170030,A,A*56
$IIHDG,226,,,01,E*15
$IIMTW,+16.5,C*3A
$IIMWV,129,R,10.1,N,A*19
$IIMWV,145,T,13.4,N,A*13
$IIRMC,170030,A,4629.898,N,00641.132,E,06.0,228,110614,01,E,A*06
$IIVHW,,,226,M,04.7,N,,*61
$IIVLW,01510,N,000.1,N*57
$IIVWR,129,R,09.6,N,,,,*64
$IIDPT,017.6,-1.0,*40
$IIGLL,4629.898,N,00641.132,E,170030,A,A*56
$IIHDG,226,,,01,E*15
$IIMTW,+16.5,C*3A
$IIMWV,129,R,09.6,N,A*16
$IIMWV,145,T,13.4,N,A*13
$IIRMC,170030,A,4629.898,N,00641.132,E,06.0,228,110614,01,E,A*06
$IIVHW,,,226,M,04.7,N,,*61
$IIVLW,01510,N,000.1,N*57
$IIVWR,136,R,09.4,N,,,,*68
$IIDPT,016.1,-1.0,*46
$IIGLL,4629.895,N,00641.128,E,170032,A,A*52
$IIHDG,226,,,01,E*15
$IIMTW,+16.5,C*3A
$IIMWV,136,R,09.4,N,A*1A
$IIMWV,146,T,13.0,N,A*14
$IIRMC,170032,A,4629.895,N,00641.128,E,06.0,227,110614,01,E,A*0D
$IIVHW,,,226,M,04.8,N,,*6E
$IIVLW,01510,N,000.1,N*57
$IIVWR,132,R,09.3,N,,,,*6B
$IIDPT,014.5,-1.0,*40
$IIGLL,4629.894,N,00641.126,E,170033,A,A*5C
$IIHDG,226,,,01,E*15
$IIMTW,+16.5,C*3A
$IIMWV,132,R,09.3,N,A*19
$IIMWV,151,T,13.1,N,A*13
$IIRMC,170033,A,4629.894,N,00641.126,E,06.1,227,110614,01,E,A*02
$IIVHW,,,226,M,04.9,N,,*6F
$IIVLW,01510,N,000.1,N*57
$IIVWR,133,R,09.3,N,,,,*6A
$IIDPT,014.5,-1.0,*40
$IIGLL,4629.894,N,00641.126,E,170033,A,A*5C
$IIHDG,226,,,01,E*15
$IIMTW,+16.5,C*3A
$IIMWV,133,R,09.3,N,A*18
$IIMWV,149,T,13.0,N,A*1B
$IIRMC,170035,A,4629.892,N,00641.122,E,06.1,227,110614,01,E,A*06
$IIVHW,,,226,M,04.9,N,,*6F
$IIVLW,01510,N,000.1,N*57
$IIVWR,136,R,09.8,N,,,,*64
$IIDPT,016.0,-1.0,*47
$IIGLL,4629.892,N,00641.122,E,170035,A,A*58
$IIHDG,226,,,01,E*15
$IIMTW,+16.5,C*3A
$IIMWV,142,R,10.7,N,A*12
$IIMWV,151,T,13.7,N,A*15
$IIRMC,170036,A,4629.890,N,00641.120,E,06.1,227,110614,01,E,A*05
$IIVHW,,,225,M,05.0,N,,*64
$IIVLW,01510,N,000.1,N*57
$IIVWR,142,R,10.7,N,,,,*60
$IIDPT,016.0,-1.0,*47
$IIGLL,4629.890,N,00641.120,E,170036,A,A*5B
$IIHDG,225,,,01,E*16
$IIMTW,+16.0,C*3F
$IIMWV,142,R,09.9,N,A*14
$IIMWV,154,T,14.9,N,A*19
$IIRMC,170037,A,4629.889,N,00641.118,E,06.2,227,110614,01,E,A*04
$IIVHW,,,225,M,05.0,N,,*64
$IIVLW,01511,N,000.1,N*56
$IIVWR,142,R,09.9,N,,,,*66
$IIDPT,014.5,-1.0,*40
$IIGLL,4629.889,N,00641.118,E,170037,A,A*59
$IIHDG,225,,,01,E*16
$IIMTW,+16.0,C*3F
$IIMWV,142,R,09.0,N,A*1D
$IIMWV,154,T,14.1,N,A*11
$IIRMC,170038,A,4629.888,N,00641.116,E,06.2,227,110614,01,E,A*04
$IIVHW,,,225,M,05.0,N,,*64
$IIVLW,01511,N,000.1,N*56
$IIVWR,142,R,09.0,N,,,,*6F
$IIDPT,014.5,-1.0,*40
$IIGLL,4629.887,N,00641.114,E,170039,A,A*55
$IIHDG,225,,,01,E*16
$IIMTW,+16.5,C*3A
$IIMWV,139,R,08.6,N,A*16
$IIMWV,156,T,13.3,N,A*16
$IIRMC,170039,A,4629.887,N,00641.114,E,06.2,227,110614,01,E,A*08
$IIVHW,,,225,M,05.0,N,,*64
$IIVLW,01511,N,000.1,N*56
$IIVWR,139,R,08.6,N,,,,*64
$IIDPT,014.5,-1.0,*40
$IIGLL,4629.886,N,00641.112,E,170040,A,A*5C
$IIHDG,225,,,01,E*16
$IIMTW,+16.5,C*3A
$IIMWV,139,R,08.9,N,A*19
$IIMWV,154,T,12.7,N,A*11
$IIRMC,170040,A,4629.886,N,00641.112,E,06.2,227,110614,01,E,A*01
$IIVHW,,,225,M,05.0,N,,*64
$IIVLW,01511,N,000.1,N*56
$IIVWR,137,R,08.6,N,,,,*6A
$IIDPT,014.5,-1.0,*40
$IIGLL,4629.884,N,00641.110,E,170041,A,A*5D
$IIHDG,225,,,01,E*16
$IIMTW,+16.5,C*3A
$IIMWV,137,R,08.6,N,A*18
$IIMWV,154,T,13.0,N,A*17
$IIRMC,170041,A,4629.884,N,00641.110,E,06.1,227,110614,01,E,A*03
$IIVHW,,,225,M,05.0,N,,*64
$IIVLW,01511,N,000.1,N*56
$IIVWR,140,R,08.5,N,,,,*69
$IIDPT,016.0,-1.0,*47
$IIGLL,4629.883,N,00641.109,E,170042,A,A*51
$IIHDG,225,,,01,E*16
$IIMTW,+16.5,C*3A
$IIMWV,140,R,08.5,N,A*1B
$IIMWV,153,T,12.7,N,A*16
$IIRMC,170042,A,4629.883,N,00641.109,E,06.1,227,110614,01,E,A*0F
$IIVHW,,,225,M,05.0,N,,*64
$IIVLW,01511,N,000.1,N*56
$IIVWR,142,R,07.7,N,,,,*66
$IIDPT,016.0,-1.0,*47
$IIGLL,4629.882,N,00641.107,E,170043,A,A*5F
$IIHDG,225,,,01,E*16
$IIMTW,+16.5,C*3A
$IIMWV,142,R,07.7,N,A*14
$IIMWV,155,T,12.7,N,A*10
$IIRMC,170044,A,4629.881,N,00641.105,E,06.1,226,110614,01,E,A*06
$IIVHW,,,225,M,05.0,N,,*64
$IIVLW,01511,N,000.1,N*56
$IIVWR,141,R,08.2,N,,,,*6F
$IIDPT,017.6,-1.0,*40
$IIGLL,4629.881,N,00641.105,E,170044,A,A*59
$IIHDG,225,,,01,E*16
$IIMTW,+16.5,C*3A
$IIMWV,141,R,08.2,N,A*1D
$IIMWV,156,T,12.4,N,A*10
$IIRMC,170045,A,4629.880,N,00641.104,E,06.0,226,110614,01,E,A*06
$IIVHW,,,224,M,05.0,N,,*65
$IIVLW,01511,N,000.1,N*56
$IIVWR,145,R,08.0,N,,,,*69
$IIDPT,016.1,-1.0,*46
$IIGLL,4629.880,N,00641.104,E,170045,A,A*58
$IIHDG,224,,,01,E*17
$IIMTW,+16.5,C*3A
$IIMWV,145,R,07.4,N,A*10
$IIMWV,159,T,12.4,N,A*1F
$IIRMC,170046,A,4629.879,N,00641.102,E,06.0,226,110614,01,E,A*05
$IIVHW,,,224,M,05.0,N,,*65
$IIVLW,01511,N,000.1,N*56
$IIVWR,145,R,07.4,N,,,,*62
$IIDPT,017.5,-1.0,*43
$IIGLL,4629.879,N,00641.102,E,170046,A,A*5B
$IIHDG,224,,,01,E*17
$IIMTW,+20.0,C*3A
$IIMWV,148,R,08.0,N,A*16
$IIMWV,160,T,12.5,N,A*14
$IIRMC,170048,A,4629.876,N,00641.098,E,06.0,225,110614,01,E,A*05
$IIVHW,,,224,M,05.0,N,,*65
$IIVLW,01511,N,000.1,N*56
$IIVWR,148,R,08.0,N,,,,*64
$IIDPT,016.0,-1.0,*47
$IIGLL,4629.876,N,00641.098,E,170048,A,A*58
$IIHDG,224,,,01,E*17
$IIMTW,+17.0,C*3E
$IIMWV,147,R,07.0,N,A*16
$IIMWV,160,T,12.5,N,A*14
$IIRMC,170049,A,4629.875,N,00641.097,E,06.0,225,110614,01,E,A*08
$IIVHW,,,224,M,05.0,N,,*65
$IIVLW,01511,N,000.1,N*56
$IIVWR,147,R,07.0,N,,,,*64
$IIDPT,017.5,-1.0,*43
$IIGLL,4629.874,N,00641.095,E,170050,A,A*5E
$IIHDG,224,,,01,E*17
$IIMTW,+17.0,C*3E
$IIMWV,149,R,08.0,N,A*17
$IIMWV,161,T,11.4,N,A*17
$IIRMC,170050,A,4629.874,N,00641.095,E,05.9,225,110614,01,E,A*09
$IIVHW,,,224,M,05.0,N,,*65
$IIVLW,01511,N,000.1,N*56
$IIVWR,149,R,08.0,N,,,,*65
$IIDPT,017.5,-1.0,*43
$IIGLL,4629.873,N,00641.093,E,170051,A,A*5E
$IIHDG,222,,,01,E*11
$IIMTW,+16.5,C*3A
$IIMWV,145,R,08.3,N,A*18
$IIMWV,161,T,12.4,N,A*14
$IIRMC,170051,A,4629.873,N,00641.093,E,05.9,225,110614,01,E,A*09
$IIVHW,,,222,M,04.9,N,,*6B
$IIVLW,01511,N,000.1,N*56
$IIVWR,138,R,07.7,N,,,,*6B
$IIDPT,017.6,-1.0,*40
$IIGLL,4629.873,N,00641.093,E,170051,A,A*5E
$IIHDG,222,,,01,E*11
$IIMTW,+16.5,C*3A
$IIMWV,138,R,07.7,N,A*19
$IIMWV,158,T,12.7,N,A*1D
$IIRMC,170051,A,4629.873,N,00641.093,E,05.9,225,110614,01,E,A*09
$IIVHW,,,222,M,04.9,N,,*6B
$IIVLW,01511,N,000.1,N*56
$IIVWR,134,R,07.5,N,,,,*65
$IIDPT,017.6,-1.0,*40
$IIGLL,4629.871,N,00641.090,E,170053,A,A*5D
$IIHDG,222,,,01,E*11
$IIMTW,+16.5,C*3A
$IIMWV,134,R,07.5,N,A*17
$IIMWV,154,T,11.6,N,A*13
$IIRMC,170053,A,4629.871,N,00641.090,E,05.9,224,110614,01,E,A*0B
$IIVHW,,,222,M,04.8,N,,*6A
$IIVLW,01511,N,000.1,N*56
$IIVWR,129,R,07.4,N,,,,*68
$IIDPT,016.1,-1.0,*46
$IIGLL,4629.870,N,00641.089,E,170054,A,A*53
$IIHDG,222,,,01,E*11
$IIMTW,+16.5,C*3A
$IIMWV,129,R,07.4,N,A*1A
$IIMWV,151,T,11.3,N,A*13
$IIRMC,170055,A,4629.868,N,00641.087,E,05.8,223,110614,01,E,A*05
$IIVHW,,,222,M,04.8,N,,*6A
$IIVLW,01511,N,000.1,N*56
$IIVWR,132,R,07.6,N,,,,*60
$IIDPT,016.1,-1.0,*46
$IIGLL,4629.868,N,00641.087,E,170055,A,A*55
$IIHDG,222,,,01,E*11
$IIMTW,+16.5,C*3A
$IIMWV,132,R,07.6,N,A*12
$IIMWV,150,T,11.3,N,A*12
$IIRMC,170056,A,4629.867,N,00641.086,E,05.7,223,110614,01,E,A*07
$IIVHW,,,222,M,04.8,N,,*6A
$IIVLW,01511,N,000.1,N*56
$IIVWR,138,R,07.6,N,,,,*6A
$IIDPT,016.1,-1.0,*46
$IIGLL,4629.867,N,00641.086,E,170056,A,A*58
$IIHDG,222,,,01,E*11
$IIMTW,+16.5,C*3A
$IIMWV,147,R,09.1,N,A*19
$IIMWV,154,T,11.5,N,A*10
$IIRMC,170057,A,4629.866,N,00641.084,E,05.7,223,110614,01,E,A*05
$IIVHW,,,221,M,04.8,N,,*69
$IIVLW,01511,N,000.1,N*56
$IIVWR,147,R,09.1,N,,,,*6B
$IIDPT,016.1,-1.0,*46
$IIGLL,4629.866,N,00641.084,E,170057,A,A*5A
$IIHDG,221,,,01,E*12
$IIMTW,+16.5,C*3A
$IIMWV,148,R,09.6,N,A*11
$IIMWV,157,T,13.7,N,A*13
$IIRMC,170059,A,4629.864,N,00641.081,E,05.7,222,110614,01,E,A*0D
$IIVHW,,,221,M,04.8,N,,*69
$IIVLW,01511,N,000.1,N*56
$IIVWR,148,R,09.6,N,,,,*63
$IIDPT,016.1,-1.0,*46
$IIGLL,4629.864,N,00641.081,E,170059,A,A*53
$IIHDG,221,,,01,E*12
$IIMTW,+16.5,C*3A
$IIMWV,152,R,09.5,N,A*19
$IIMWV,159,T,13.8,N,A*12
$IIRMC,170100,A,4629.863,N,00641.080,E,05.7,222,110614,01,E,A*06
$IIVHW,,,221,M,04.8,N,,*69
$IIVLW,01511,N,000.1,N*56
$IIVWR,152,R,09.5,N,,,,*6B
$IIDPT,016.1,-1.0,*46
$IIGLL,4629.863,N,00641.080,E,170100,A,A*58
$IIHDG,221,,,01,E*12
$IIMTW,+16.5,C*3A
$IIMWV,159,R,09.6,N,A*11
$IIMWV,161,T,13.8,N,A*19
$IIRMC,170100,A,4629.863,N,00641.080,E,05.7,222,110614,01,E,A*06
$IIVHW,,,221,M,04.8,N,,*69
$IIVLW,01511,N,000.1,N*56
$IIVWR,159,R,09.6,N,,,,*63
$IIDPT,014.5,-1.0,*40
$IIGLL,4629.860,N,00641.076,E,170102,A,A*50
$IIHDG,221,,,01,E*12
$IIMTW,+16.5,C*3A
$IIMWV,147,R,08.9,N,A*10
$IIMWV,166,T,14.1,N,A*10
$IIRMC,170102,A,4629.860,N,00641.076,E,05.9,222,110614,01,E,A*00
$IIVHW,,,221,M,04.8,N,,*69
$IIVLW,01511,N,000.1,N*56
$IIVWR,145,R,08.2,N,,,,*6B
$IIDPT,014.5,-1.0,*40
$IIGLL,4629.859,N,00641.075,E,170103,A,A*58
$IIHDG,222,,,01,E*11
$IIMTW,+16.5,C*3A
$IIMWV,145,R,08.2,N,A*19
$IIMWV,159,T,13.2,N,A*18
$IIRMC,170103,A,4629.859,N,00641.075,E,05.9,222,110614,01,E,A*08
$IIVHW,,,222,M,04.9,N,,*6B
$IIVLW,01511,N,000.1,N*56
$IIVWR,143,R,09.3,N,,,,*6D
$IIDPT,014.5,-1.0,*40
$IIGLL,4629.857,N,00641.073,E,170104,A,A*57
$IIHDG,222,,,01,E*11
$IIMTW,+16.5,C*3A
$IIMWV,143,R,09.3,N,A*1F
$IIMWV,159,T,12.4,N,A*1F
$IIRMC,170104,A,4629.857,N,00641.073,E,05.9,224,110614,01,E,A*01
$IIVHW,,,222,M,04.9,N,,*6B
$IIVLW,01511,N,000.1,N*56
$IIVWR,150,R,08.8,N,,,,*65
$IIDPT,014.5,-1.0,*40
$IIGLL,4629.856,N,00641.071,E,170105,A,A*55
$IIHDG,222,,,01,E*11
$IIMTW,+16.5,C*3A
$IIMWV,150,R,08.8,N,A*17
$IIMWV,156,T,13.4,N,A*11
$IIRMC,170106,A,4629.855,N,00641.069,E,06.0,226,110614,01,E,A*02
$IIVHW,,,223,M,04.9,N,,*6A
$IIVLW,01511,N,000.1,N*56
$IIVWR,149,R,09.1,N,,,,*65
$IIDPT,014.5,-1.0,*40
$IIGLL,4629.855,N,00641.069,E,170106,A,A*5C
$IIHDG,223,,,01,E*10
$IIMTW,+16.5,C*3A
$IIMWV,149,R,09.1,N,A*17
$IIMWV,160,T,13.6,N,A*16
$IIRMC,170107,A,4629.854,N,00641.068,E,06.0,226,110614,01,E,A*03
$IIVHW,,,224,M,04.9,N,,*6D
$IIVLW,01511,N,000.1,N*56
$IIVWR,142,R,09.4,N,,,,*6B
$IIDPT,014.5,-1.0,*40
$IIGLL,4629.854,N,00641.068,E,170107,A,A*5D
$IIHDG,224,,,01,E*17
$IIMTW,+16.5,C*3A
$IIMWV,137,R,09.6,N,A*19
$IIMWV,155,T,13.6,N,A*10
$IIRMC,170108,A,4629.853,N,00641.066,E,06.2,227,110614,01,E,A*06
$IIVHW,,,225,M,05.0,N,,*64
$IIVLW,01511,N,000.1,N*56
$IIVWR,137,R,09.6,N,,,,*6B
$IIDPT,016.0,-1.0,*47
$IIGLL,4629.853,N,00641.066,E,170108,A,A*5B
$IIHDG,225,,,01,E*16
$IIMTW,+16.5,C*3A
$IIMWV,134,R,09.7,N,A*1B
$IIMWV,151,T,13.6,N,A*14
$IIRMC,170109,A,4629.851,N,00641.064,E,06.1,229,110614,01,E,A*0A
$IIVHW,,,226,M,05.0,N,,*67
$IIVLW,01511,N,000.1,N*56
$IIVWR,134,R,09.7,N,,,,*69
$IIDPT,016.0,-1.0,*47
$IIGLL,4629.851,N,00641.064,E,170109,A,A*5A
$IIHDG,227,,,01,E*14
$IIMTW,+16.5,C*3A
$IIMWV,132,R,08.9,N,A*12
$IIMWV,149,T,13.4,N,A*1F
$IIRMC,170109,A,4629.851,N,00641.064,E,06.1,229,110614,01,E,A*0A
$IIVHW,,,227,M,05.0,N,,*66
$IIVLW,01511,N,000.1,N*56
$IIVWR,132,R,08.9,N,,,,*60
$IIDPT,016.0,-1.0,*47
$IIGLL,4629.849,N,00641.060,E,170111,A,A*5E
$IIHDG,227,,,01,E*14
$IIMTW,+16.5,C*3A
$IIMWV,132,R,09.1,N,A*1B
$IIMWV,149,T,12.7,N,A*1D
$IIRMC,170111,A,4629.849,N,00641.060,E,06.2,229,110614,01,E,A*0D
$IIVHW,,,227,M,05.0,N,,*66
$IIVLW,01511,N,000.1,N*56
$IIVWR,132,R,09.1,N,,,,*69
$IIDPT,017.5,-1.0,*43
$IIGLL,4629.848,N,00641.058,E,170112,A,A*57
$IIHDG,227,,,01,E*14
$IIMTW,+16.5,C*3A
$IIMWV,129,R,09.4,N,A*14
$IIMWV,149,T,12.9,N,A*13
$IIRMC,170112,A,4629.848,N,00641.058,E,06.2,230,110614,01,E,A*0C
$IIVHW,,,227,M,05.1,N,,*67
$IIVLW,01511,N,000.1,N*56
$IIVWR,128,R,09.5,N,,,,*66
$IIDPT,016.0,-1.0,*47
$IIGLL,4629.848,N,00641.058,E,170112,A,A*57
$IIHDG,228,,,01,E*1B
$IIMTW,+16.5,C*3A
$IIMWV,128,R,09.5,N,A*14
$IIMWV,147,T,13.2,N,A*17
$IIRMC,170112,A,4629.848,N,00641.058,E,06.2,230,110614,01,E,A*0C
$IIVHW,,,228,M,05.1,N,,*68
$IIVLW,01511,N,000.2,N*55
$IIVWR,131,R,08.8,N,,,,*62
$IIDPT,014.3,-1.0,*46
$IIGLL,4629.846,N,00641.054,E,170114,A,A*53
$IIHDG,228,,,01,E*1B
$IIMTW,+16.5,C*3A
$IIMWV,131,R,08.8,N,A*10
$IIMWV,146,T,13.2,N,A*16
$IIRMC,170114,A,4629.846,N,00641.054,E,06.2,231,110614,01,E,A*09
$IIVHW,,,228,M,05.1,N,,*68
$IIVLW,01511,N,000.2,N*55
$IIVWR,129,R,09.8,N,,,,*6A
$IIDPT,014.3,-1.0,*46
$IIGLL,4629.845,N,00641.052,E,170115,A,A*57
$IIHDG,228,,,01,E*1B
$IIMTW,+16.5,C*3A
$IIMWV,129,R,09.8,N,A*18
$IIMWV,149,T,12.7,N,A*1D
$IIRMC,170116,A,4629.844,N,00641.050,E,06.2,231,110614,01,E,A*0D
$IIVHW,,,230,M,05.1,N,,*61
$IIVLW,01511,N,000.2,N*55
$IIVWR,129,R,09.6,N,,,,*64
$IIDPT,014.3,-1.0,*46
$IIGLL,4629.844,N,00641.050,E,170116,A,A*57
$IIHDG,230,,,01,E*12
$IIMTW,+16.5,C*3A
$IIMWV,129,R,09.6,N,A*16
$IIMWV,147,T,13.4,N,A*11
$IIRMC,170117,A,4629.843,N,00641.048,E,06.2,232,110614,01,E,A*01
$IIVHW,,,230,M,05.1,N,,*61
$IIVLW,01511,N,000.2,N*55
$IIVWR,125,R,09.4,N,,,,*6A
$IIDPT,014.3,-1.0,*46
$IIGLL,4629.843,N,00641.048,E,170117,A,A*58
$IIHDG,230,,,01,E*12
$IIMTW,+16.5,C*3A
$IIMWV,124,R,09.5,N,A*18
$IIMWV,144,T,13.0,N,A*16
$IIRMC,170118,A,4629.842,N,00641.046,E,06.3,233,110614,01,E,A*01
$IIVHW,,,230,M,05.1,N,,*61
$IIVLW,01511,N,000.2,N*55
$IIVWR,124,R,09.5,N,,,,*6A
$IIDPT,014.3,-1.0,*46
$IIGLL,4629.842,N,00641.046,E,170118,A,A*58
$IIHDG,230,,,01,E*12
$IIMTW,+16.5,C*3A
$IIMWV,123,R,09.6,N,A*1C
$IIMWV,143,T,13.0,N,A*11
$IIRMC,170119,A,4629.841,N,00641.044,E,06.3,231,110614,01,E,A*03
$IIVHW,,,230,M,05.1,N,,*61
$IIVLW,01511,N,000.2,N*55
$IIVWR,123,R,09.6,N,,,,*6E
$IIDPT,014.3,-1.0,*46
$IIGLL,4629.841,N,00641.044,E,170119,A,A*58
$IIHDG,230,,,01,E*12
$IIMTW,+16.5,C*3A
$IIMWV,125,R,08.9,N,A*14
$IIMWV,142,T,13.0,N,A*10
$IIRMC,170120,A,4629.840,N,00641.042,E,06.3,232,110614,01,E,A*0D
$IIVHW,,,230,M,05.1,N,,*61
$IIVLW,01511,N,000.2,N*55
$IIVWR,125,R,08.9,N,,,,*66
$IIDPT,014.3,-1.0,*46
$IIGLL,4629.839,N,00641.040,E,170121,A,A*58
$IIHDG,230,,,01,E*12
$IIMTW,+16.5,C*3A
$IIMWV,130,R,08.6,N,A*1F
$IIMWV,145,T,12.4,N,A*12
$IIRMC,170121,A,4629.839,N,00641.040,E,06.3,232,110614,01,E,A*00
$IIVHW,,,230,M,05.1,N,,*61
$IIVLW,01511,N,000.2,N*55
$IIVWR,130,R,08.6,N,,,,*6D
$IIDPT,014.3,-1.0,*46
$IIGLL,4629.838,N,00641.038,E,170122,A,A*55
$IIHDG,230,,,01,E*12
$IIMTW,+16.5,C*3A
$IIMWV,131,R,08.5,N,A*1D
$IIMWV,148,T,12.5,N,A*1E
$IIRMC,170122,A,4629.838,N,00641.038,E,06.3,232,110614,01,E,A*0D
$IIVHW,,,230,M,05.1,N,,*61
$IIVLW,01511,N,000.2,N*55
$IIVWR,127,R,08.5,N,,,,*68
$IIDPT,014.3,-1.0,*46
$IIGLL,4629.837,N,00641.036,E,170123,A,A*55
$IIHDG,231,,,01,E*13
$IIMTW,+16.5,C*3A
$IIMWV,127,R,08.5,N,A*1A
$IIMWV,150,T,12.5,N,A*17
$IIRMC,170123,A,4629.837,N,00641.036,E,06.3,234,110614,01,E,A*0B
$IIVHW,,,231,M,05.1,N,,*60
$IIVLW,01511,N,000.2,N*55
$IIVWR,128,R,09.2,N,,,,*61
$IIDPT,014.3,-1.0,*46
$IIGLL,4629.836,N,00641.034,E,170124,A,A*51
$IIHDG,231,,,01,E*13
$IIMTW,+16.5,C*3A
$IIMWV,128,R,09.2,N,A*13
$IIMWV,147,T,12.3,N,A*17
$IIRMC,170124,A,4629.836,N,00641.034,E,06.2,234,110614,01,E,A*0E
$IIVHW,,,231,M,05.1,N,,*60
$IIVLW,01511,N,000.2,N*55
$IIVWR,126,R,08.7,N,,,,*6B
$IIDPT,014.3,-1.0,*46
$IIGLL,4629.835,N,00641.032,E,170125,A,A*55
$IIHDG,231,,,01,E*13
$IIMTW,+16.5,C*3A
$IIMWV,126,R,08.7,N,A*19
$IIMWV,147,T,13.0,N,A*15
$IIRMC,170126,A,4629.834,N,00641.030,E,06.2,234,110614,01,E,A*0A
$IIVHW,,,231,M,05.1,N,,*60
$IIVLW,01511,N,000.2,N*55
$IIVWR,128,R,07.6,N,,,,*6B
$IIDPT,014.3,-1.0,*46
$IIGLL,4629.834,N,00641.030,E,170126,A,A*55
$IIHDG,231,,,01,E*13
$IIMTW,+16.5,C*3A
$IIMWV,128,R,07.6,N,A*19
$IIMWV,149,T,11.5,N,A*1C
$IIRMC,170127,A,4629.833,N,00641.028,E,06.2,234,110614,01,E,A*05
$IIVHW,,,232,M,05.1,N,,*63
$IIVLW,01511,N,000.2,N*55
$IIVWR,126,R,08.2,N,,,,*6E
$IIDPT,014.3,-1.0,*46
$IIGLL,4629.833,N,00641.028,E,170127,A,A*5A
$IIHDG,232,,,01,E*10
$IIMTW,+16.5,C*3A
$IIMWV,126,R,07.8,N,A*19
$IIMWV,147,T,11.9,N,A*1E
$IIRMC,170128,A,4629.832,N,00641.026,E,06.2,234,110614,01,E,A*05
$IIVHW,,,232,M,05.1,N,,*63
$IIVLW,01511,N,000.2,N*55
$IIVWR,126,R,07.8,N,,,,*6B
$IIDPT,014.3,-1.0,*46
$IIGLL,4629.832,N,00641.026,E,170128,A,A*5A
$IIHDG,232,,,01,E*10
$IIMTW,+16.5,C*3A
$IIMWV,119,R,08.3,N,A*11
$IIMWV,147,T,11.6,N,A*11
$IIRMC,170129,A,4629.831,N,00641.024,E,06.1,235,110614,01,E,A*07
$IIVHW,,,233,M,05.1,N,,*62
$IIVLW,01511,N,000.2,N*55
$IIVWR,119,R,08.3,N,,,,*63
$IIDPT,014.3,-1.0,*46
$IIGLL,4629.831,N,00641.024,E,170129,A,A*5A
$IIHDG,234,,,01,E*16
$IIMTW,+16.5,C*3A
$IIMWV,121,R,08.4,N,A*1D
$IIMWV,142,T,11.6,N,A*14
$IIRMC,170130,A,4629.830,N,00641.022,E,06.4,234,110614,01,E,A*0C
$IIVHW,,,234,M,05.1,N,,*65
$IIVLW,01511,N,000.2,N*55
$IIVWR,121,R,08.4,N,,,,*6F
$IIDPT,014.3,-1.0,*46
$IIGLL,4629.830,N,00641.022,E,170130,A,A*55
$IIHDG,234,,,01,E*16
$IIMTW,+17.0,C*3E
$IIMWV,116,R,08.1,N,A*1C
$IIMWV,143,T,11.9,N,A*1A
$IIRMC,170130,A,4629.830,N,00641.022,E,06.4,234,110614,01,E,A*0C
$IIVHW,,,234,M,05.1,N,,*65
$IIVLW,01511,N,000.2,N*55
$IIVWR,116,R,08.1,N,,,,*6E
$IIDPT,014.3,-1.0,*46
$IIGLL,4629.828,N,00641.018,E,170132,A,A*57
$IIHDG,234,,,01,E*16
$IIMTW,+16.5,C*3A
$IIMWV,118,R,08.4,N,A*17
$IIMWV,140,T,11.2,N,A*12
$IIRMC,170132,A,4629.828,N,00641.018,E,06.4,237,110614,01,E,A*0D
$IIVHW,,,234,M,05.1,N,,*65
$IIVLW,01511,N,000.2,N*55
$IIVWR,126,R,09.4,N,,,,*69
$IIDPT,014.3,-1.0,*46
$IIGLL,4629.828,N,00641.016,E,170133,A,A*58
$IIHDG,235,,,01,E*17
$IIMTW,+16.5,C*3A
$IIMWV,126,R,09.4,N,A*1B
$IIMWV,141,T,11.6,N,A*17
$IIRMC,170133,A,4629.828,N,00641.016,E,06.3,236,110614,01,E,A*04
$IIVHW,,,235,M,05.1,N,,*64
$IIVLW,01511,N,000.2,N*55
$IIVWR,123,R,09.6,N,,,,*6E
$IIDPT,014.3,-1.0,*46
$IIGLL,4629.827,N,00641.014,E,170134,A,A*52
$IIHDG,235,,,01,E*17
$IIMTW,+16.5,C*3A
$IIMWV,123,R,09.6,N,A*1C
$IIMWV,145,T,13.1,N,A*16
$IIRMC,170134,A,4629.827,N,00641.014,E,06.6,234,110614,01,E,A*09
$IIVHW,,,235,M,05.1,N,,*64
$IIVLW,01511,N,000.2,N*55
$IIVWR,131,R,09.6,N,,,,*6D
$IIDPT,014.3,-1.0,*46
$IIGLL,4629.826,N,00641.012,E,170135,A,A*54
$IIHDG,235,,,01,E*17
$IIMTW,+16.5,C*3A
$IIMWV,131,R,09.6,N,A*1F
$IIMWV,142,T,13.0,N,A*10
$IIRMC,170136,A,4629.825,N,00641.010,E,06.4,236,110614,01,E,A*0D
$IIVHW,,,235,M,05.1,N,,*64
$IIVLW,01511,N,000.2,N*55
$IIVWR,119,R,09.4,N,,,,*65
$IIDPT,014.3,-1.0,*46
$IIGLL,4629.825,N,00641.010,E,170136,A,A*56
$IIHDG,235,,,01,E*17
$IIMTW,+16.5,C*3A
$IIMWV,119,R,09.4,N,A*17
$IIMWV,140,T,12.6,N,A*15
$IIRMC,170137,A,4629.824,N,00641.008,E,06.1,237,110614,01,E,A*00
$IIVHW,,,235,M,05.1,N,,*64
$IIVLW,01511,N,000.2,N*55
$IIVWR,128,R,09.5,N,,,,*66
$IIDPT,014.3,-1.0,*46
$IIGLL,4629.824,N,00641.008,E,170137,A,A*5F
$IIHDG,235,,,01,E*17
$IIMTW,+16.5,C*3A
$IIMWV,125,R,10.0,N,A*14
$IIMWV,146,T,13.3,N,A*17
$IIRMC,170138,A,4629.823,N,00641.005,E,06.5,235,110614,01,E,A*03
$IIVHW,,,234,M,05.1,N,,*65
$IIVLW,01511,N,000.2,N*55
$IIVWR,125,R,10.0,N,,,,*66
$IIDPT,014.3,-1.0,*46
$IIGLL,4629.823,N,00641.005,E,170138,A,A*5A
$IIHDG,234,,,01,E*16
$IIMTW,+16.5,C*3A
$IIMWV,134,R,09.7,N,A*1B
$IIMWV,143,T,13.6,N,A*17
$IIRMC,170139,A,4629.822,N,00641.003,E,06.1,240,110614,01,E,A*03
$IIVHW,,,234,M,05.1,N,,*65
$IIVLW,01511,N,000.2,N*55
$IIVWR,134,R,09.7,N,,,,*69
$IIDPT,014.3,-1.0,*46
$IIGLL,4629.822,N,00641.003,E,170139,A,A*5C
$IIHDG,233,,,01,E*11
$IIMTW,+16.5,C*3A
$IIMWV,144,R,09.9,N,A*12
$IIMWV,150,T,13.6,N,A*15
$IIRMC,170140,A,4629.821,N,00641.001,E,06.4,235,110614,01,E,A*0B
$IIVHW,,,233,M,05.1,N,,*62
$IIVLW,01511,N,000.2,N*55
$IIVWR,144,R,09.9,N,,,,*60
$IIDPT,014.3,-1.0,*46
$IIGLL,4629.820,N,00640.999,E,170141,A,A*5A
$IIHDG,230,,,01,E*12
$IIMTW,+16.5,C*3A
$IIMWV,146,R,09.9,N,A*10
$IIMWV,156,T,14.4,N,A*16
$IIRMC,170141,A,4629.820,N,00640.999,E,06.1,237,110614,01,E,A*05
$IIVHW,,,230,M,05.1,N,,*61
$IIVLW,01511,N,000.2,N*55
$IIVWR,146,R,09.9,N,,,,*62
$IIDPT,014.3,-1.0,*46
$IIGLL,4629.819,N,00640.997,E,170142,A,A*5D
$IIHDG,229,,,01,E*1A
$IIMTW,+16.5,C*3A
$IIMWV,156,R,10.1,N,A*11
$IIMWV,158,T,14.4,N,A*18
$IIRMC,170142,A,4629.819,N,00640.997,E,06.4,230,110614,01,E,A*00
$IIVHW,,,229,M,05.1,N,,*69
$IIVLW,01511,N,000.2,N*55
$IIVWR,164,R,09.8,N,,,,*63
$IIDPT,014.3,-1.0,*46
$IIGLL,4629.818,N,00640.995,E,170143,A,A*5F
$IIHDG,226,,,01,E*15
$IIMTW,+17.0,C*3E
$IIMWV,164,R,09.8,N,A*11
$IIMWV,164,T,14.8,N,A*1B
$IIRMC,170143,A,4629.818,N,00640.995,E,06.5,226,110614,01,E,A*04
$IIVHW,,,226,M,05.1,N,,*66
$IIVLW,01511,N,000.2,N*55
$IIVWR,170,R,09.4,N,,,,*6A
$IIDPT,014.3,-1.0,*46
$IIGLL,4629.817,N,00640.993,E,170144,A,A*51
$IIHDG,224,,,01,E*17
$IIMTW,+17.0,C*3E
$IIMWV,170,R,09.4,N,A*18
$IIMWV,170,T,14.8,N,A*1E
$IIRMC,170144,A,4629.817,N,00640.993,E,06.2,224,110614,01,E,A*0F
$IIVHW,,,222,M,05.1,N,,*62
$IIVLW,01511,N,000.2,N*55
$IIVWR,172,R,09.9,N,,,,*65
$IIDPT,016.0,-1.0,*47
$IIGLL,4629.816,N,00640.992,E,170145,A,A*50
$IIHDG,222,,,01,E*11
$IIMTW,+19.5,C*35
$IIMWV,172,R,09.9,N,A*17
$IIMWV,174,T,14.4,N,A*16
$IIRMC,170146,A,4629.814,N,00640.990,E,06.1,219,110614,01,E,A*00
$IIVHW,,,221,M,05.1,N,,*61
$IIVLW,01511,N,000.2,N*55
$IIVWR,166,R,09.5,N,,,,*6C
$IIDPT,017.5,-1.0,*43
$IIGLL,4629.814,N,00640.990,E,170146,A,A*53
$IIHDG,221,,,01,E*12
$IIMTW,+17.0,C*3E
$IIMWV,166,R,09.5,N,A*1E
$IIMWV,171,T,14.4,N,A*13
$IIRMC,170147,A,4629.813,N,00640.988,E,06.3,217,110614,01,E,A*03
$IIVHW,,,220,M,05.0,N,,*61
$IIVLW,01511,N,000.2,N*55
$IIVWR,170,R,09.8,N,,,,*66
$IIDPT,017.5,-1.0,*43
$IIGLL,4629.813,N,00640.988,E,170147,A,A*5C
$IIHDG,220,,,01,E*13
$IIMTW,+17.0,C*3E
$IIMWV,167,R,09.6,N,A*1C
$IIMWV,174,T,14.7,N,A*15
$IIRMC,170148,A,4629.812,N,00640.987,E,06.1,218,110614,01,E,A*0F
$IIVHW,,,220,M,05.0,N,,*61
$IIVLW,01511,N,000.2,N*55
$IIVWR,167,R,09.6,N,,,,*6E
$IIDPT,017.6,-1.0,*40
$IIGLL,4629.812,N,00640.987,E,170148,A,A*5D
$IIHDG,220,,,01,E*13
$IIMTW,+16.5,C*3A
$IIMWV,163,R,09.6,N,A*18
$IIMWV,171,T,14.5,N,A*12
$IIRMC,170149,A,4629.810,N,00640.985,E,06.1,218,110614,01,E,A*0E
$IIVHW,,,220,M,05.0,N,,*61
$IIVLW,01511,N,000.2,N*55
$IIVWR,163,R,09.6,N,,,,*6A
$IIDPT,017.6,-1.0,*40
$IIGLL,4629.810,N,00640.985,E,170149,A,A*5C
$IIHDG,222,,,01,E*11
$IIMTW,+16.5,C*3A
$IIMWV,162,R,09.2,N,A*1D
$IIMWV,169,T,14.4,N,A*1A
$IIRMC,170150,A,4629.809,N,00640.984,E,05.9,223,110614,01,E,A*0C
$IIVHW,,,222,M,05.0,N,,*63
$IIVLW,01511,N,000.2,N*55
$IIVWR,162,R,09.2,N,,,,*6F
$IIDPT,016.0,-1.0,*47
$IIGLL,4629.808,N,00640.982,E,170151,A,A*5B
$IIHDG,224,,,01,E*17
$IIMTW,+17.0,C*3E
$IIMWV,158,R,10.0,N,A*1E
$IIMWV,168,T,13.9,N,A*11
$IIRMC,170151,A,4629.808,N,00640.982,E,05.9,225,110614,01,E,A*0C
$IIVHW,,,224,M,05.0,N,,*65
$IIVLW,01511,N,000.2,N*55
$IIVWR,158,R,10.0,N,,,,*6C
$IIDPT,016.0,-1.0,*47
$IIGLL,4629.807,N,00640.980,E,170152,A,A*55
$IIHDG,225,,,01,E*16
$IIMTW,+17.0,C*3E
$IIMWV,150,R,09.0,N,A*1E
$IIMWV,165,T,14.7,N,A*15
$IIRMC,170152,A,4629.807,N,00640.980,E,06.0,229,110614,01,E,A*04
$IIVHW,,,225,M,04.9,N,,*6C
$IIVLW,01511,N,000.2,N*55
$IIVWR,143,R,09.2,N,,,,*6C
$IIDPT,017.6,-1.0,*40
$IIGLL,4629.806,N,00640.978,E,170153,A,A*52
$IIHDG,226,,,01,E*15
$IIMTW,+17.0,C*3E
$IIMWV,143,R,09.2,N,A*1E
$IIMWV,160,T,13.5,N,A*15
$IIRMC,170153,A,4629.806,N,00640.978,E,06.1,230,110614,01,E,A*0A
$IIVHW,,,226,M,05.0,N,,*67
$IIVLW,01511,N,000.2,N*55
$IIVWR,145,R,08.7,N,,,,*6E
$IIDPT,016.1,-1.0,*46
$IIGLL,4629.805,N,00640.976,E,170154,A,A*58
$IIHDG,227,,,01,E*14
$IIMTW,+17.0,C*3E
$IIMWV,145,R,08.7,N,A*1C
$IIMWV,156,T,13.4,N,A*11
$IIRMC,170154,A,4629.805,N,00640.976,E,06.0,231,110614,01,E,A*00
$IIVHW,,,228,M,05.0,N,,*69
$IIVLW,01511,N,000.2,N*55
$IIVWR,140,R,08.6,N,,,,*6A
$IIDPT,017.6,-1.0,*40
$IIGLL,4629.804,N,00640.974,E,170155,A,A*5A
$IIHDG,228,,,01,E*1B
$IIMTW,+17.0,C*3E
$IIMWV,140,R,08.6,N,A*18
$IIMWV,158,T,13.0,N,A*1B
$IIRMC,170156,A,4629.802,N,00640.973,E,06.0,230,110614,01,E,A*01
$IIVHW,,,228,M,05.0,N,,*69
$IIVLW,01511,N,000.2,N*55
$IIVWR,133,R,07.9,N,,,,*6E
$IIDPT,017.6,-1.0,*40
$IIGLL,4629.802,N,00640.973,E,170156,A,A*58
$IIHDG,228,,,01,E*1B
$IIMTW,+17.0,C*3E
$IIMWV,133,R,07.9,N,A*1C
$IIMWV,151,T,11.7,N,A*17
$IIRMC,170157,A,4629.801,N,00640.971,E,05.9,231,110614,01,E,A*0A
$IIVHW,,,228,M,05.0,N,,*69
$IIVLW,01511,N,000.2,N*55
$IIVWR,129,R,07.7,N,,,,*6B
$IIDPT,017.6,-1.0,*40
$IIGLL,4629.801,N,00640.971,E,170157,A,A*58
$IIHDG,228,,,01,E*1B
$IIMTW,+17.0,C*3E
$IIMWV,135,R,07.8,N,A*1B
$IIMWV,148,T,11.4,N,A*1C
$IIRMC,170158,A,4629.800,N,00640.969,E,05.9,232,110614,01,E,A*0E
$IIVHW,,,228,M,05.0,N,,*69
$IIVLW,01511,N,000.2,N*55
$IIVWR,135,R,07.8,N,,,,*69
$IIDPT,017.6,-1.0,*40
$IIGLL,4629.800,N,00640.969,E,170158,A,A*5F
$IIHDG,228,,,01,E*1B
$IIMTW,+17.0,C*3E
$IIMWV,133,R,08.3,N,A*19
$IIMWV,152,T,11.8,N,A*1B
$IIRMC,170159,A,4629.799,N,00640.967,E,06.1,230,110614,01,E,A*07
$IIVHW,,,228,M,05.0,N,,*69
$IIVLW,01511,N,000.2,N*55
$IIVWR,133,R,08.3,N,,,,*6B
$IIDPT,016.1,-1.0,*46
$IIGLL,4629.799,N,00640.967,E,170159,A,A*5F
$IIHDG,228,,,01,E*1B
$IIMTW,+17.0,C*3E
$IIMWV,137,R,08.4,N,A*1A
$IIMWV,150,T,12.1,N,A*13
$IIRMC,170200,A,4629.798,N,00640.965,E,06.7,228,110614,01,E,A*04
$IIVHW,,,228,M,05.0,N,,*69
$IIVLW,01511,N,000.2,N*55
$IIVWR,137,R,08.4,N,,,,*68
$IIDPT,016.1,-1.0,*46
$IIGLL,4629.797,N,00640.963,E,170201,A,A*5B
$IIHDG,229,,,01,E*1A
$IIMTW,+16.5,C*3A
$IIMWV,121,R,08.5,N,A*1C
$IIMWV,153,T,12.4,N,A*15
$IIRMC,170201,A,4629.797,N,00640.963,E,06.1,231,110614,01,E,A*02
$IIVHW,,,229,M,05.0,N,,*68
$IIVLW,01511,N,000.2,N*55
$IIVWR,121,R,08.5,N,,,,*6E
$IIDPT,014.5,-1.0,*40
$IIGLL,4629.796,N,00640.961,E,170202,A,A*5B
$IIHDG,229,,,01,E*1A
$IIMTW,+16.5,C*3A
$IIMWV,131,R,08.5,N,A*1D
$IIMWV,142,T,11.9,N,A*1B
$IIRMC,170202,A,4629.796,N,00640.961,E,06.1,231,110614,01,E,A*02
$IIVHW,,,229,M,05.0,N,,*68
$IIVLW,01511,N,000.2,N*55
$IIVWR,124,R,07.7,N,,,,*66
$IIDPT,014.5,-1.0,*40
$IIGLL,4629.795,N,00640.959,E,170203,A,A*52
$IIHDG,230,,,01,E*12
$IIMTW,+16.5,C*3A
$IIMWV,124,R,07.7,N,A*14
$IIMWV,149,T,12.3,N,A*19
$IIRMC,170203,A,4629.795,N,00640.959,E,06.0,232,110614,01,E,A*09
$IIVHW,,,230,M,05.0,N,,*60
$IIVLW,01511,N,000.2,N*55
$IIVWR,134,R,08.2,N,,,,*6D
$IIDPT,014.5,-1.0,*40
$IIGLL,4629.794,N,00640.957,E,170204,A,A*5A
$IIHDG,230,,,01,E*12
$IIMTW,+16.5,C*3A
$IIMWV,134,R,08.2,N,A*1F
$IIMWV,146,T,11.2,N,A*14
$IIRMC,170204,A,4629.794,N,00640.957,E,06.2,231,110614,01,E,A*00
$IIVHW,,,230,M,05.0,N,,*60
$IIVLW,01511,N,000.2,N*55
$IIVWR,125,R,08.8,N,,,,*67
$IIDPT,014.5,-1.0,*40
$IIGLL,4629.793,N,00640.955,E,170205,A,A*5E
$IIHDG,230,,,01,E*12
$IIMTW,+16.5,C*3A
$IIMWV,125,R,08.8,N,A*15
$IIMWV,151,T,12.1,N,A*12
$IIRMC,170206,A,4629.792,N,00640.954,E,06.0,232,110614,01,E,A*06
$IIVHW,,,229,M,05.0,N,,*68
$IIVLW,01511,N,000.2,N*55
$IIVWR,142,R,09.9,N,,,,*66
$IIDPT,014.5,-1.0,*40
$IIGLL,4629.792,N,00640.954,E,170206,A,A*5D
$IIHDG,229,,,01,E*1A
$IIMTW,+19.5,C*35
$IIMWV,142,R,09.9,N,A*14
$IIMWV,155,T,14.2,N,A*13
$IIRMC,170207,A,4629.790,N,00640.952,E,06.3,230,110614,01,E,A*02
$IIVHW,,,229,M,05.0,N,,*68
$IIVLW,01511,N,000.2,N*55
$IIVWR,125,R,09.5,N,,,,*6B
$IIDPT,014.5,-1.0,*40
$IIGLL,4629.790,N,00640.952,E,170207,A,A*58
$IIHDG,229,,,01,E*1A
$IIMTW,+19.5,C*35
$IIMWV,139,R,09.6,N,A*17
$IIMWV,144,T,13.0,N,A*16
$IIRMC,170208,A,4629.789,N,00640.950,E,05.6,230,110614,01,E,A*01
$IIVHW,,,229,M,05.0,N,,*68
$IIVLW,01511,N,000.2,N*55
$IIVWR,139,R,09.6,N,,,,*65
$IIDPT,014.5,-1.0,*40
$IIGLL,4629.789,N,00640.950,E,170208,A,A*5D
$IIHDG,229,,,01,E*1A
$IIMTW,+17.0,C*3E
$IIMWV,134,R,08.6,N,A*1B
$IIMWV,147,T,12.5,N,A*11
$IIRMC,170210,A,4629.787,N,00640.946,E,07.0,232,110614,01,E,A*07
$IIVHW,,,230,M,05.0,N,,*60
$IIVLW,01511,N,000.2,N*55
$IIVWR,134,R,08.6,N,,,,*69
$IIDPT,016.0,-1.0,*47
$IIGLL,4629.787,N,00640.946,E,170210,A,A*5D
$IIHDG,229,,,01,E*1A
$IIMTW,+17.0,C*3E
$IIMWV,127,R,08.5,N,A*1A
$IIMWV,151,T,12.4,N,A*17
$IIRMC,170211,A,4629.786,N,00640.944,E,05.4,233,110614,01,E,A*02
$IIVHW,,,229,M,05.0,N,,*68
$IIVLW,01511,N,000.2,N*55
$IIVWR,127,R,08.5,N,,,,*68
$IIDPT,016.0,-1.0,*47
$IIGLL,4629.785,N,00640.942,E,170212,A,A*59
$IIHDG,229,,,01,E*1A
$IIMTW,+17.0,C*3E
$IIMWV,133,R,08.5,N,A*1F
$IIMWV,146,T,12.1,N,A*14
$IIRMC,170212,A,4629.785,N,00640.942,E,06.0,231,110614,01,E,A*01
$IIVHW,,,229,M,05.0,N,,*68
$IIVLW,01511,N,000.2,N*55
$IIVWR,133,R,08.5,N,,,,*6D
$IIDPT,014.6,-1.0,*43
$IIGLL,4629.784,N,00640.940,E,170213,A,A*5B
$IIHDG,229,,,01,E*1A
$IIMTW,+17.0,C*3E
$IIMWV,136,R,08.5,N,A*1A
$IIMWV,150,T,12.3,N,A*11
$IIRMC,170213,A,4629.784,N,00640.940,E,06.0,231,110614,01,E,A*03
$IIVHW,,,229,M,05.0,N,,*68
$IIVLW,01511,N,000.2,N*55
$IIVWR,130,R,08.5,N,,,,*6E
$IIDPT,014.6,-1.0,*43
$IIGLL,4629.783,N,00640.938,E,170214,A,A*54
$IIHDG,229,,,01,E*1A
$IIMTW,+17.0,C*3E
$IIMWV,130,R,08.5,N,A*1C
$IIMWV,153,T,12.5,N,A*14
$IIRMC,170214,A,4629.783,N,00640.938,E,06.0,231,110614,01,E,A*0C
$IIVHW,,,229,M,05.0,N,,*68
$IIVLW,01511,N,000.2,N*55
$IIVWR,137,R,09.2,N,,,,*6F
$IIDPT,014.6,-1.0,*43
$IIGLL,4629.782,N,00640.936,E,170215,A,A*5A
$IIHDG,229,,,01,E*1A
$IIMTW,+17.0,C*3E
$IIMWV,137,R,09.2,N,A*1D
$IIMWV,148,T,12.2,N,A*19
$IIRMC,170215,A,4629.782,N,00640.936,E,06.0,230,110614,01,E,A*03
$IIVHW,,,229,M,04.9,N,,*60
$IIVLW,01511,N,000.2,N*55
$IIVWR,127,R,08.3,N,,,,*6E
$IIDPT,014.6,-1.0,*43
$IIGLL,4629.781,N,00640.934,E,170216,A,A*58
$IIHDG,229,,,01,E*1A
$IIMTW,+17.0,C*3E
$IIMWV,127,R,08.3,N,A*1C
$IIMWV,152,T,13.2,N,A*13
$IIRMC,170217,A,4629.781,N,00640.933,E,05.5,232,110614,01,E,A*03
$IIVHW,,,229,M,04.9,N,,*60
$IIVLW,01511,N,000.2,N*55
$IIVWR,006,R,00.0,N,,,,*67
$IIDPT,014.5,-1.0,*40
$IIGLL,4629.781,N,00640.933,E,170217,A,A*5E
$IIHDG,229,,,01,E*1A
$IIMTW,+17.0,C*3E
$IIMWV,006,R,00.0,N,A*15
$IIMWV,006,T,05.0,N,A*16
$IIRMC,170218,A,4629.780,N,00640.931,E,05.3,235,110614,01,E,A*0E
$IIVHW,,,230,M,04.9,N,,*68
$IIVLW,01511,N,000.2,N*55
$IIVWR,123,R,07.9,N,,,,*6F
$IIDPT,014.5,-1.0,*40
$IIGLL,4629.780,N,00640.931,E,170218,A,A*52
$IIHDG,230,,,01,E*12
$IIMTW,+17.0,C*3E
$IIMWV,140,R,07.1,N,A*10
$IIMWV,144,T,11.3,N,A*17
$IIRMC,170219,A,4629.779,N,00640.929,E,05.5,233,110614,01,E,A*00
$IIVHW,,,230,M,04.9,N,,*68
$IIVLW,01511,N,000.2,N*55
$IIVWR,140,R,07.1,N,,,,*62
$IIDPT,014.5,-1.0,*40
$IIGLL,4629.779,N,00640.929,E,170219,A,A*5C
$IIHDG,230,,,01,E*12
$IIMTW,+19.5,C*35
$IIMWV,111,R,06.6,N,A*12
$IIMWV,157,T,11.2,N,A*14
$IIRMC,170220,A,4629.778,N,00640.927,E,06.0,232,110614,01,E,A*02
$IIVHW,,,230,M,04.9,N,,*68
$IIVLW,01511,N,000.2,N*55
$IIVWR,111,R,06.6,N,,,,*60
$IIDPT,015.9,-1.0,*4D
$IIGLL,4629.778,N,00640.927,E,170220,A,A*59
$IIHDG,231,,,01,E*13
$IIMTW,+19.5,C*35
$IIMWV,129,R,06.3,N,A*1C
$IIMWV,140,T,09.4,N,A*1D
$IIRMC,170221,A,4629.777,N,00640.926,E,05.7,235,110614,01,E,A*0E
$IIVHW,,,231,M,04.8,N,,*68
$IIVLW,01511,N,000.2,N*55
$IIVWR,129,R,06.3,N,,,,*6E
$IIDPT,016.0,-1.0,*47
$IIGLL,4629.776,N,00640.924,E,170222,A,A*56
$IIHDG,232,,,01,E*10
$IIMTW,+19.5,C*35
$IIMWV,100,R,06.3,N,A*17
$IIMWV,151,T,10.0,N,A*11
$IIRMC,170222,A,4629.776,N,00640.924,E,06.3,233,110614,01,E,A*0F
$IIVHW,,,232,M,04.8,N,,*6B
$IIVLW,01511,N,000.2,N*55
$IIVWR,100,R,06.3,N,,,,*65
$IIDPT,017.6,-1.0,*40
$IIGLL,4629.775,N,00640.922,E,170223,A,A*52
$IIHDG,232,,,01,E*10
$IIMTW,+20.0,C*3A
$IIMWV,125,R,06.3,N,A*10
$IIMWV,134,T,08.4,N,A*1F
$IIRMC,170223,A,4629.775,N,00640.922,E,05.8,231,110614,01,E,A*01
$IIVHW,,,232,M,04.8,N,,*6B
$IIVLW,01511,N,000.2,N*55
$IIVWR,117,R,07.2,N,,,,*63
$IIDPT,017.6,-1.0,*40
$IIGLL,4629.775,N,00640.920,E,170224,A,A*57
$IIHDG,232,,,01,E*10
$IIMTW,+20.0,C*3A
$IIMWV,117,R,07.2,N,A*11
$IIMWV,148,T,09.7,N,A*16
$IIRMC,170224,A,4629.775,N,00640.920,E,05.8,240,110614,01,E,A*02
$IIVHW,,,232,M,04.7,N,,*64
$IIVLW,01511,N,000.2,N*55
$IIVWR,145,R,06.1,N,,,,*66
$IIDPT,017.6,-1.0,*40
$IIGLL,4629.774,N,00640.918,E,170225,A,A*5C
$IIHDG,232,,,01,E*10
$IIMTW,+20.0,C*3A
$IIMWV,145,R,06.1,N,A*14
$IIMWV,141,T,10.2,N,A*12
$IIRMC,170225,A,4629.774,N,00640.918,E,04.9,237,110614,01,E,A*09
$IIVHW,,,233,M,04.7,N,,*65
$IIVLW,01511,N,000.3,N*54
$IIVWR,126,R,07.0,N,,,,*63
$IIDPT,017.6,-1.0,*40
$IIGLL,4629.773,N,00640.916,E,170226,A,A*56
$IIHDG,233,,,01,E*11
$IIMTW,+20.0,C*3A
$IIMWV,126,R,07.0,N,A*11
$IIMWV,161,T,10.3,N,A*11
$IIRMC,170227,A,4629.772,N,00640.915,E,05.6,233,110614,01,E,A*0A
$IIVHW,,,233,M,04.7,N,,*65
$IIVLW,01511,N,000.3,N*54
$IIVWR,131,R,06.1,N,,,,*65
$IIDPT,017.6,-1.0,*40
$IIGLL,4629.772,N,00640.915,E,170227,A,A*55
$IIHDG,233,,,01,E*11
$IIMTW,+20.0,C*3A
$IIMWV,131,R,06.1,N,A*17
$IIMWV,153,T,09.7,N,A*1C
$IIRMC,170228,A,4629.771,N,00640.913,E,05.8,227,110614,01,E,A*0B
$IIVHW,,,232,M,04.6,N,,*65
$IIVLW,01511,N,000.3,N*54
$IIVWR,130,R,06.8,N,,,,*6D
$IIDPT,017.6,-1.0,*40
$IIGLL,4629.771,N,00640.913,E,170228,A,A*5F
$IIHDG,232,,,01,E*10
$IIMTW,+17.0,C*3E
$IIMWV,119,R,07.2,N,A*1F
$IIMWV,150,T,10.3,N,A*13
$IIRMC,170228,A,4629.771,N,00640.913,E,05.8,227,110614,01,E,A*0B
$IIVHW,,,232,M,04.6,N,,*65
$IIVLW,01511,N,000.3,N*54
$IIVWR,119,R,07.2,N,,,,*6D
$IIDPT,017.6,-1.0,*40
$IIGLL,4629.771,N,00640.913,E,170228,A,A*5F
$IIHDG,232,,,01,E*10
$IIMTW,+17.0,C*3E
$IIMWV,135,R,06.7,N,A*15
$IIMWV,142,T,10.1,N,A*12
$IIRMC,170230,A,4629.769,N,00640.909,E,04.8,235,110614,01,E,A*02
$IIVHW,,,232,M,04.6,N,,*65
$IIVLW,01511,N,000.3,N*54
$IIVWR,135,R,06.7,N,,,,*67
$IIDPT,017.6,-1.0,*40
$IIGLL,4629.769,N,00640.909,E,170230,A,A*54
$IIHDG,232,,,01,E*10
$IIMTW,+20.0,C*3A
$IIMWV,121,R,06.4,N,A*13
$IIMWV,153,T,10.4,N,A*17
$IIRMC,170231,A,4629.768,N,00640.908,E,05.3,232,110614,01,E,A*0E
$IIVHW,,,232,M,04.6,N,,*65
$IIVLW,01511,N,000.3,N*54
$IIVWR,121,R,06.4,N,,,,*61
$IIDPT,017.6,-1.0,*40
$IIGLL,4629.767,N,00640.906,E,170232,A,A*57
$IIHDG,232,,,01,E*10
$IIMTW,+20.5,C*3F
$IIMWV,134,R,06.3,N,A*10
$IIMWV,145,T,09.6,N,A*1A
$IIRMC,170232,A,4629.767,N,00640.906,E,05.4,236,110614,01,E,A*0F
$IIVHW,,,232,M,04.6,N,,*65
$IIVLW,01511,N,000.3,N*54
$IIVWR,134,R,06.3,N,,,,*62
$IIDPT,017.6,-1.0,*40
$IIGLL,4629.766,N,00640.904,E,170233,A,A*55
$IIHDG,233,,,01,E*11
$IIMTW,+17.5,C*3B
$IIMWV,124,R,06.3,N,A*11
$IIMWV,153,T,09.9,N,A*12
$IIRMC,170233,A,4629.766,N,00640.904,E,05.3,232,110614,01,E,A*0E
$IIVHW,,,233,M,04.6,N,,*64
$IIVLW,01511,N,000.3,N*54
$IIVWR,140,R,06.3,N,,,,*61
$IIDPT,017.6,-1.0,*40
$IIGLL,4629.765,N,00640.903,E,170234,A,A*56
$IIHDG,233,,,01,E*11
$IIMTW,+17.0,C*3E
$IIMWV,140,R,06.3,N,A*13
$IIMWV,147,T,09.6,N,A*18
$IIRMC,170234,A,4629.765,N,00640.903,E,05.3,236,110614,01,E,A*09
$IIVHW,,,233,M,04.5,N,,*67
$IIVLW,01511,N,000.3,N*54
$IIVWR,131,R,06.3,N,,,,*67
$IIDPT,017.6,-1.0,*40
$IIGLL,4629.764,N,00640.901,E,170235,A,A*54
$IIHDG,234,,,01,E*16
$IIMTW,+17.0,C*3E
$IIMWV,131,R,06.3,N,A*15
$IIMWV,157,T,10.2,N,A*15
$IIRMC,170235,A,4629.764,N,00640.901,E,05.4,236,110614,01,E,A*0C
$IIVHW,,,234,M,04.5,N,,*60
$IIVLW,01511,N,000.3,N*54
$IIVWR,140,R,06.3,N,,,,*61
$IIDPT,017.6,-1.0,*40
$IIGLL,4629.763,N,00640.899,E,170236,A,A*50
$IIHDG,234,,,01,E*16
$IIMTW,+17.0,C*3E
$IIMWV,140,R,06.3,N,A*13
$IIMWV,151,T,09.8,N,A*11
$IIRMC,170237,A,4629.763,N,00640.897,E,05.3,236,110614,01,E,A*00
$IIVHW,,,235,M,04.5,N,,*61
$IIVLW,01511,N,000.3,N*54
$IIVWR,140,R,07.8,N,,,,*6B
$IIDPT,017.6,-1.0,*40
$IIGLL,4629.763,N,00640.897,E,170237,A,A*5F
$IIHDG,235,,,01,E*17
$IIMTW,+17.0,C*3E
$IIMWV,140,R,07.8,N,A*19
$IIMWV,155,T,11.6,N,A*12
$IIRMC,170238,A,4629.762,N,00640.895,E,05.3,236,110614,01,E,A*0C
$IIVHW,,,235,M,04.5,N,,*61
$IIVLW,01511,N,000.3,N*54
$IIVWR,137,R,06.9,N,,,,*6B
$IIDPT,017.6,-1.0,*40
$IIGLL,4629.762,N,00640.895,E,170238,A,A*53
$IIHDG,235,,,01,E*17
$IIMTW,+20.0,C*3A
$IIMWV,135,R,07.2,N,A*11
$IIMWV,154,T,10.5,N,A*11
$IIRMC,170239,A,4629.761,N,00640.894,E,05.2,231,110614,01,E,A*09
$IIVHW,,,235,M,04.5,N,,*61
$IIVLW,01511,N,000.3,N*54
$IIVWR,135,R,07.2,N,,,,*63
$IIDPT,017.6,-1.0,*40
$IIGLL,4629.761,N,00640.894,E,170239,A,A*50
$IIHDG,235,,,01,E*17
$IIMTW,+17.0,C*3E
$IIMWV,132,R,07.3,N,A*17
$IIMWV,152,T,10.8,N,A*1A
$IIRMC,170240,A,4629.760,N,00640.892,E,05.2,238,110614,01,E,A*09
$IIVHW,,,235,M,04.5,N,,*61
$IIVLW,01511,N,000.3,N*54
$IIVWR,132,R,07.3,N,,,,*65
$IIDPT,017.6,-1.0,*40
$IIGLL,4629.760,N,00640.892,E,170240,A,A*59
$IIHDG,236,,,01,E*14
$IIMTW,+17.0,C*3E
$IIMWV,135,R,07.4,N,A*17
$IIMWV,150,T,10.7,N,A*17
$IIRMC,170241,A,4629.759,N,00640.890,E,05.4,239,110614,01,E,A*07
$IIVHW,,,236,M,04.5,N,,*62
$IIVLW,01511,N,000.3,N*54
$IIVWR,135,R,07.4,N,,,,*65
$IIDPT,017.6,-1.0,*40
$IIGLL,4629.759,N,00640.888,E,170242,A,A*5A
$IIHDG,236,,,01,E*14
$IIMTW,+17.0,C*3E
$IIMWV,130,R,06.6,N,A*11
$IIMWV,152,T,11.0,N,A*13
$IIRMC,170242,A,4629.759,N,00640.888,E,05.4,238,110614,01,E,A*0C
$IIVHW,,,236,M,04.5,N,,*62
$IIVLW,01511,N,000.3,N*54
$IIVWR,130,R,06.6,N,,,,*63
$IIDPT,016.1,-1.0,*46
$IIGLL,4629.758,N,00640.887,E,170243,A,A*55
$IIHDG,236,,,01,E*14
$IIMTW,+20.0,C*3A
$IIMWV,135,R,06.5,N,A*17
$IIMWV,150,T,10.0,N,A*10
$IIRMC,170243,A,4629.758,N,00640.887,E,05.4,237,110614,01,E,A*0C
$IIVHW,,,236,M,04.5,N,,*62
$IIVLW,01511,N,000.3,N*54
$IIVWR,125,R,06.7,N,,,,*66
$IIDPT,016.1,-1.0,*46
$IIGLL,4629.757,N,00640.885,E,170244,A,A*5F
$IIHDG,235,,,01,E*17
$IIMTW,+20.0,C*3A
$IIMWV,125,R,06.7,N,A*14
$IIMWV,153,T,10.1,N,A*12
$IIRMC,170244,A,4629.757,N,00640.885,E,05.4,236,110614,01,E,A*07
$IIVHW,,,235,M,04.5,N,,*61
$IIVLW,01511,N,000.3,N*54
$IIVWR,134,R,06.7,N,,,,*66
$IIDPT,016.1,-1.0,*46
$IIGLL,4629.757,N,00640.883,E,170245,A,A*58
$IIHDG,234,,,01,E*16
$IIMTW,+20.0,C*3A
$IIMWV,134,R,06.7,N,A*14
$IIMWV,147,T,09.9,N,A*17
$IIRMC,170245,A,4629.757,N,00640.883,E,05.4,237,110614,01,E,A*01
$IIVHW,,,233,M,04.5,N,,*67
$IIVLW,01511,N,000.3,N*54
$IIVWR,132,R,06.0,N,,,,*67
$IIDPT,017.6,-1.0,*40
$IIGLL,4629.756,N,00640.881,E,170246,A,A*58
$IIHDG,233,,,01,E*11
$IIMTW,+20.5,C*3F
$IIMWV,132,R,06.0,N,A*15
$IIMWV,152,T,10.2,N,A*10
$IIRMC,170247,A,4629.755,N,00640.879,E,05.4,233,110614,01,E,A*00
$IIVHW,,,232,M,04.5,N,,*66
$IIVLW,01511,N,000.3,N*54
$IIVWR,126,R,06.3,N,,,,*61
$IIDPT,017.6,-1.0,*40
$IIGLL,4629.755,N,00640.879,E,170247,A,A*5D
$IIHDG,232,,,01,E*10
$IIMTW,+17.0,C*3E
$IIMWV,126,R,06.3,N,A*13
$IIMWV,148,T,09.6,N,A*17
$IIRMC,170248,A,4629.754,N,00640.878,E,05.4,231,110614,01,E,A*0D
$IIVHW,,,231,M,04.5,N,,*65
$IIVLW,01511,N,000.3,N*54
$IIVWR,128,R,06.6,N,,,,*6A
$IIDPT,017.6,-1.0,*40
$IIGLL,4629.754,N,00640.878,E,170248,A,A*52
$IIHDG,231,,,01,E*13
$IIMTW,+17.0,C*3E
$IIMWV,134,R,07.3,N,A*11
$IIMWV,148,T,09.9,N,A*18
$IIRMC,170249,A,4629.753,N,00640.876,E,05.4,231,110614,01,E,A*05
$IIVHW,,,230,M,04.5,N,,*64
$IIVLW,01511,N,000.3,N*54
$IIVWR,134,R,07.3,N,,,,*63
$IIDPT,017.6,-1.0,*40
$IIGLL,4629.753,N,00640.876,E,170249,A,A*5A
$IIHDG,230,,,01,E*12
$IIMTW,+19.5,C*35
$IIMWV,142,R,06.9,N,A*1B
$IIMWV,151,T,10.8,N,A*19
$IIRMC,170250,A,4629.752,N,00640.874,E,05.4,232,110614,01,E,A*0D
$IIVHW,,,228,M,04.5,N,,*6D
$IIVLW,01511,N,000.3,N*54
$IIVWR,142,R,06.9,N,,,,*69
$IIDPT,017.6,-1.0,*40
$IIGLL,4629.752,N,00640.874,E,170250,A,A*51
$IIHDG,228,,,01,E*1B
$IIMTW,+17.5,C*3B
$IIMWV,141,R,06.8,N,A*19
$IIMWV,157,T,10.7,N,A*10
$IIRMC,170251,A,4629.751,N,00640.872,E,05.4,229,110614,01,E,A*03
$IIVHW,,,228,M,04.4,N,,*6C
$IIVLW,01511,N,000.3,N*54
$IIVWR,141,R,06.8,N,,,,*6B
$IIDPT,017.6,-1.0,*40
$IIGLL,4629.750,N,00640.870,E,170252,A,A*55
$IIHDG,228,,,01,E*1B
$IIMTW,+20.0,C*3A
$IIMWV,150,R,05.8,N,A*1A
$IIMWV,157,T,10.6,N,A*11
$IIRMC,170252,A,4629.750,N,00640.870,E,05.4,228,110614,01,E,A*02
$IIVHW,,,228,M,04.4,N,,*6C
$IIVLW,01511,N,000.3,N*54
$IIVWR,150,R,05.8,N,,,,*68
$IIDPT,017.6,-1.0,*40
$IIGLL,4629.749,N,00640.868,E,170253,A,A*55
$IIHDG,227,,,01,E*14
$IIMTW,+20.0,C*3A
$IIMWV,156,R,06.1,N,A*16
$IIMWV,163,T,09.9,N,A*11
$IIRMC,170253,A,4629.749,N,00640.868,E,05.4,228,110614,01,E,A*02
$IIVHW,,,227,M,04.4,N,,*63
$IIVLW,01511,N,000.3,N*54
$IIVWR,151,R,06.2,N,,,,*60
$IIDPT,017.6,-1.0,*40
$IIGLL,4629.748,N,00640.867,E,170254,A,A*5C
$IIHDG,226,,,01,E*15
$IIMTW,+17.0,C*3E
$IIMWV,151,R,06.2,N,A*12
$IIMWV,166,T,10.3,N,A*16
$IIRMC,170254,A,4629.748,N,00640.867,E,05.4,227,110614,01,E,A*04
$IIVHW,,,226,M,04.4,N,,*62
$IIVLW,01511,N,000.3,N*54
$IIVWR,155,R,06.4,N,,,,*62
$IIDPT,017.6,-1.0,*40
$IIGLL,4629.748,N,00640.867,E,170254,A,A*5C
$IIHDG,226,,,01,E*15
$IIMTW,+17.0,C*3E
$IIMWV,155,R,06.4,N,A*10
$IIMWV,163,T,10.2,N,A*12
$IIRMC,170254,A,4629.748,N,00640.867,E,05.4,227,110614,01,E,A*04
$IIVHW,,,226,M,04.4,N,,*62
$IIVLW,01511,N,000.3,N*54
$IIVWR,155,R,07.3,N,,,,*64
$IIDPT,017.6,-1.0,*40
$IIGLL,4629.746,N,00640.863,E,170256,A,A*54
$IIHDG,226,,,01,E*15
$IIMTW,+20.0,C*3A
$IIMWV,155,R,07.3,N,A*16
$IIMWV,166,T,10.5,N,A*10
$IIRMC,170257,A,4629.745,N,00640.862,E,05.4,227,110614,01,E,A*0F
$IIVHW,,,226,M,04.4,N,,*62
$IIVLW,01511,N,000.3,N*54
$IIVWR,158,R,06.8,N,,,,*63
$IIDPT,017.6,-1.0,*40
$IIGLL,4629.745,N,00640.862,E,170257,A,A*57
$IIHDG,226,,,01,E*15
$IIMTW,+20.0,C*3A
$IIMWV,158,R,06.8,N,A*11
$IIMWV,167,T,10.9,N,A*1D
$IIRMC,170258,A,4629.744,N,00640.860,E,04.8,230,110614,01,E,A*08
$IIVHW,,,226,M,04.4,N,,*62
$IIVLW,01511,N,000.3,N*54
$IIVWR,160,R,07.9,N,,,,*68
$IIDPT,016.0,-1.0,*47
$IIGLL,4629.744,N,00640.860,E,170258,A,A*5B
$IIHDG,226,,,01,E*15
$IIMTW,+17.0,C*3E
$IIMWV,160,R,07.0,N,A*13
$IIMWV,168,T,12.0,N,A*19
$IIRMC,170259,A,4629.743,N,00640.859,E,05.4,225,110614,01,E,A*0D
$IIVHW,,,225,M,04.4,N,,*61
$IIVLW,01511,N,000.3,N*54
$IIVWR,160,R,07.0,N,,,,*61
$IIDPT,014.5,-1.0,*40
$IIGLL,4629.743,N,00640.859,E,170259,A,A*57
$IIHDG,225,,,01,E*16
$IIMTW,+20.0,C*3A
$IIMWV,169,R,07.0,N,A*1A
$IIMWV,168,T,11.1,N,A*1B
$IIRMC,170300,A,4629.742,N,00640.858,E,05.4,225,110614,01,E,A*00
$IIVHW,,,225,M,04.4,N,,*61
$IIVLW,01511,N,000.3,N*54
$IIVWR,169,R,07.0,N,,,,*68
$IIDPT,014.5,-1.0,*40
$IIGLL,4629.742,N,00640.858,E,170300,A,A*5A
$IIHDG,225,,,01,E*16
$IIMTW,+20.0,C*3A
$IIMWV,161,R,07.3,N,A*11
$IIMWV,173,T,11.2,N,A*12
$IIRMC,170301,A,4629.741,N,00640.856,E,05.2,225,110614,01,E,A*0A
$IIVHW,,,225,M,04.3,N,,*66
$IIVLW,01511,N,000.3,N*54
$IIVWR,161,R,07.3,N,,,,*63
$IIDPT,014.5,-1.0,*40
$IIGLL,4629.740,N,00640.854,E,170302,A,A*56
$IIHDG,225,,,01,E*16
$IIMTW,+17.0,C*3E
$IIMWV,150,R,07.3,N,A*13
$IIMWV,168,T,11.5,N,A*1F
$IIRMC,170302,A,4629.740,N,00640.854,E,04.8,225,110614,01,E,A*01
$IIVHW,,,225,M,04.3,N,,*66
$IIVLW,01511,N,000.3,N*54
$IIVWR,150,R,07.3,N,,,,*61
$IIDPT,014.5,-1.0,*40
$IIGLL,4629.739,N,00640.853,E,170303,A,A*5E
$IIHDG,225,,,01,E*16
$IIMTW,+17.0,C*3E
$IIMWV,158,R,06.8,N,A*11
$IIMWV,161,T,11.2,N,A*11
$IIRMC,170303,A,4629.739,N,00640.853,E,05.2,227,110614,01,E,A*00
$IIVHW,,,225,M,04.3,N,,*66
$IIVLW,01511,N,000.3,N*54
$IIVWR,145,R,07.2,N,,,,*64
$IIDPT,014.5,-1.0,*40
$IIGLL,4629.738,N,00640.851,E,170304,A,A*5A
$IIHDG,226,,,01,E*15
$IIMTW,+17.0,C*3E
$IIMWV,145,R,07.2,N,A*16
$IIMWV,167,T,10.8,N,A*1C
$IIRMC,170304,A,4629.738,N,00640.851,E,05.2,226,110614,01,E,A*05
$IIVHW,,,226,M,04.3,N,,*65
$IIVLW,01511,N,000.3,N*54
$IIVWR,152,R,06.7,N,,,,*66
$IIDPT,014.7,-1.0,*42
$IIGLL,4629.737,N,00640.850,E,170305,A,A*55
$IIHDG,226,,,01,E*15
$IIMTW,+17.0,C*3E
$IIMWV,152,R,06.7,N,A*14
$IIMWV,158,T,10.9,N,A*11
