$IIRMC,121506,A,4630.404,N,00636.151,E,05.2,244,031107,,,A*4E
$IIVHW,,,246,M,04.8,N,,*68
$IIVLW,00417,N,001.8,N*58
$IIVWR,068,L,06.8,N,,,,*7F
$IIDPT,065.1,-1.0,*42
$IIGLL,4630.404,N,00636.151,E,121506,A,A*56
$IIHDG,246,,,,*57
$IIMTW,+09.0,C*31
$IIMWV,292,R,06.8,N,A*14
$IIMWV,250,T,06.7,N,A*13
$IIRMB,A,0.36,L,,VIDY,,,,,000.39,043,-04.7,V,A*4D
$IIRMC,121508,A,4630.403,N,00636.147,E,05.0,246,031107,,,A*40
$IIVHW,,,247,M,04.8,N,,*69
$IIVLW,00417,N,001.8,N*58
$IIVWR,067,L,06.7,N,,,,*7F
$IIDPT,060.0,-1.0,*46
$IIGLL,4630.403,N,00636.147,E,121508,A,A*58
$IIHDG,247,,,,*56
$IIMTW,+09.0,C*31
$IIMWV,295,R,06.6,N,A*1D
$IIMWV,250,T,06.4,N,A*10
$IIRMC,121508,A,4630.403,N,00636.147,E,05.0,246,031107,,,A*40
$IIVHW,,,247,M,04.7,N,,*66
$IIVLW,00417,N,001.8,N*58
$IIVWR,065,L,06.6,N,,,,*7C
$IIDPT,063.0,-1.0,*45
$IIGLL,4630.402,N,00636.144,E,121510,A,A*53
$IIHDG,248,,,,*59
$IIMTW,+09.0,C*31
$IIMWV,295,R,06.4,N,A*1F
$IIMWV,251,T,06.3,N,A*16
$IIRMB,A,0.36,L,,VIDY,,,,,000.39,043,-04.6,V,A*4C
$IIRMC,121510,A,4630.402,N,00636.144,E,05.0,248,031107,,,A*45
$IIVHW,,,248,M,04.7,N,,*69
$IIVLW,00417,N,001.8,N*58
$IIVWR,065,L,06.4,N,,,,*7E
$IIDPT,051.9,-1.0,*4D
$IIGLL,4630.402,N,00636.144,E,121510,A,A*53
$IIHDG,249,,,,*58
$IIMTW,+09.0,C*31
$IIMWV,295,R,06.4,N,A*1F
$IIMWV,249,T,06.2,N,A*1E
$IIRMC,121510,A,4630.402,N,00636.144,E,05.0,248,031107,,,A*45
$IIVHW,,,249,M,04.7,N,,*68
$IIVLW,00417,N,001.8,N*58
$IIVWR,065,L,06.2,N,,,,*78
$IIDPT,051.9,-1.0,*4D
$IIGLL,4630.401,N,00636.140,E,121512,A,A*56
$IIHDG,249,,,,*58
$IIMTW,+08.0,C*30
$IIMWV,295,R,06.2,N,A*19
$IIMWV,249,T,06.2,N,A*1E
$IIRMB,A,0.36,L,,VIDY,,,,,000.40,043,-04.5,V,A*41
$IIRMC,121512,A,4630.401,N,00636.140,E,05.0,249,031107,,,A*41
$IIVHW,,,249,M,04.7,N,,*68
$IIVLW,00417,N,001.8,N*58
$IIVWR,064,L,06.0,N,,,,*7B
$IIDPT,046.3,-1.0,*41
$IIGLL,4630.401,N,00636.140,E,121512,A,A*56
$IIHDG,249,,,,*58
$IIMTW,+09.0,C*31
$IIMWV,296,R,06.0,N,A*18
$IIMWV,248,T,05.8,N,A*16
$IIRMB,A,0.36,L,,VIDY,,,,,000.40,043,-04.4,V,A*40
$IIRMC,121514,A,4630.400,N,00636.136,E,05.0,251,031107,,,A*4E
$IIVHW,,,249,M,04.7,N,,*68
$IIVLW,00417,N,001.8,N*58
$IIVWR,063,L,05.8,N,,,,*77
$IIDPT,048.5,-1.0,*49
$IIGLL,4630.400,N,00636.136,E,121514,A,A*50
$IIHDG,249,,,,*58
$IIMTW,+09.0,C*31
$IIMWV,297,R,06.1,N,A*18
$IIMWV,248,T,05.5,N,A*1B
$IIRMC,121514,A,4630.400,N,00636.136,E,05.0,251,031107,,,A*4E
$IIVHW,,,249,M,04.7,N,,*68
$IIVLW,00417,N,001.8,N*58
$IIVWR,063,L,06.1,N,,,,*7D
$IIDPT,048.5,-1.0,*49
$IIGLL,4630.400,N,00636.132,E,121516,A,A*56
$IIHDG,248,,,,*59
$IIMTW,+09.0,C*31
$IIMWV,295,R,05.9,N,A*11
$IIMWV,250,T,05.7,N,A*10
$IIRMB,A,0.36,L,,VIDY,,,,,000.40,043,-04.4,V,A*40
$IIRMC,121516,A,4630.400,N,00636.132,E,04.9,249,031107,,,A*49
$IIVHW,,,248,M,04.7,N,,*69
$IIVLW,00417,N,001.8,N*58
$IIVWR,063,L,06.1,N,,,,*7D
$IIDPT,065.5,-1.0,*46
$IIGLL,4630.400,N,00636.132,E,121516,A,A*56
$IIHDG,248,,,,*59
$IIMTW,+08.5,C*35
$IIMWV,297,R,06.1,N,A*18
$IIMWV,247,T,05.7,N,A*16
$IIRMC,121516,A,4630.400,N,00636.132,E,04.9,249,031107,,,A*49
$IIVHW,,,248,M,04.6,N,,*68
$IIVLW,00417,N,001.8,N*58
$IIVWR,065,L,06.0,N,,,,*7A
$IIDPT,060.3,-1.0,*45
$IIGLL,4630.399,N,00636.129,E,121518,A,A*55
$IIHDG,248,,,,*59
$IIMTW,+09.0,C*31
$IIMWV,295,R,06.0,N,A*1B
$IIMWV,250,T,05.7,N,A*10
$IIRMB,A,0.36,L,,VIDY,,,,,000.40,044,-04.4,V,A*47
$IIRMC,121518,A,4630.399,N,00636.129,E,04.9,249,031107,,,A*4A
$IIVHW,,,249,M,04.6,N,,*69
$IIVLW,00417,N,001.8,N*58
$IIVWR,065,L,05.8,N,,,,*71
$IIDPT,060.3,-1.0,*45
$IIGLL,4630.399,N,00636.129,E,121518,A,A*55
$IIHDG,249,,,,*58
$IIMTW,+08.0,C*30
$IIMWV,295,R,05.8,N,A*10
$IIMWV,246,T,05.6,N,A*16
$IIRMB,A,0.37,L,,VIDY,,,,,000.41,044,-04.4,V,A*47
$IIRMC,121520,A,4630.398,N,00636.125,E,04.9,250,031107,,,A*44
$IIVHW,,,249,M,04.6,N,,*69
$IIVLW,00417,N,001.8,N*58
$IIVWR,068,L,05.4,N,,,,*70
$IIDPT,071.2,-1.0,*44
$IIGLL,4630.398,N,00636.125,E,121520,A,A*53
$IIHDG,250,,,,*50
$IIMTW,+09.0,C*31
$IIMWV,289,R,05.8,N,A*1D
$IIMWV,241,T,05.6,N,A*11
$IIRMC,121520,A,4630.398,N,00636.125,E,04.9,250,031107,,,A*44
$IIVHW,,,250,M,04.6,N,,*61
$IIVLW,00417,N,001.8,N*58
$IIVWR,071,L,05.8,N,,,,*74
$IIDPT,069.3,-1.0,*4C
$IIGLL,4630.397,N,00636.121,E,121522,A,A*5A
$IIHDG,254,,,,*54
$IIMTW,+09.0,C*31
$IIMWV,289,R,05.8,N,A*1D
$IIMWV,244,T,06.1,N,A*10
$IIRMB,A,0.37,L,,VIDY,,,,,000.41,044,-04.3,V,A*40
$IIRMC,121522,A,4630.397,N,00636.121,E,04.8,252,031107,,,A*4E
$IIVHW,,,254,M,04.6,N,,*65
$IIVLW,00417,N,001.8,N*58
$IIVWR,073,L,06.0,N,,,,*7D
$IIDPT,051.1,-1.0,*45
$IIGLL,4630.397,N,00636.121,E,121522,A,A*5A
$IIHDG,257,,,,*57
$IIMTW,+09.0,C*31
$IIMWV,287,R,06.0,N,A*18
$IIMWV,244,T,06.1,N,A*10
$IIRMC,121522,A,4630.397,N,00636.121,E,04.8,252,031107,,,A*4E
$IIVHW,,,262,M,04.6,N,,*60
$IIVLW,00417,N,001.8,N*58
$IIVWR,075,L,06.3,N,,,,*78
$IIDPT,059.8,-1.0,*44
$IIGLL,4630.396,N,00636.117,E,121524,A,A*58
$IIHDG,262,,,,*51
$IIMTW,+09.0,C*31
$IIMWV,285,R,06.3,N,A*19
$IIMWV,243,T,06.3,N,A*15
$IIRMB,A,0.37,L,,VIDY,,,,,000.41,044,-04.2,V,A*41
$IIRMC,121524,A,4630.396,N,00636.117,E,04.9,260,031107,,,A*4C
$IIVHW,,,269,M,04.5,N,,*68
$IIVLW,00417,N,001.8,N*58
$IIVWR,084,L,06.9,N,,,,*7C
$IIDPT,059.8,-1.0,*44
$IIGLL,4630.396,N,00636.117,E,121524,A,A*58
$IIHDG,269,,,,*5A
$IIMTW,+09.5,C*34
$IIMWV,276,R,06.9,N,A*1F
$IIMWV,239,T,07.8,N,A*12
$IIRMB,A,0.37,L,,VIDY,,,,,000.41,044,-03.9,V,A*4D
$IIRMC,121526,A,4630.396,N,00636.113,E,04.8,264,031107,,,A*4F
$IIVHW,,,278,M,04.5,N,,*68
$IIVLW,00417,N,001.8,N*58
$IIVWR,088,L,06.1,N,,,,*78
$IIDPT,053.4,-1.0,*42
$IIGLL,4630.396,N,00636.113,E,121526,A,A*5E
$IIHDG,285,,,,*58
$IIMTW,+08.5,C*35
$IIMWV,266,R,05.1,N,A*15
$IIMWV,234,T,07.5,N,A*12
$IIRMC,121526,A,4630.396,N,00636.113,E,04.8,264,031107,,,A*4F
$IIVHW,,,285,M,04.4,N,,*6B
$IIVLW,00417,N,001.8,N*58
$IIVWR,094,L,05.1,N,,,,*76
$IIDPT,053.4,-1.0,*42
$IIGLL,4630.396,N,00636.110,E,121528,A,A*53
$IIHDG,296,,,,*5A
$IIMTW,+08.5,C*35
$IIMWV,243,R,04.9,N,A*1B
$IIMWV,227,T,07.0,N,A*15
$IIRMB,A,0.37,L,,VIDY,,,,,000.42,045,-03.2,V,A*44
$IIRMC,121528,A,4630.396,N,00636.110,E,04.6,274,031107,,,A*4D
$IIVHW,,,296,M,04.4,N,,*69
$IIVLW,00417,N,001.8,N*58
$IIVWR,155,L,03.8,N,,,,*75
$IIDPT,056.4,-1.0,*47
$IIGLL,4630.396,N,00636.110,E,121528,A,A*53
$IIHDG,306,,,,*52
$IIMTW,+08.5,C*35
$IIMWV,205,R,03.8,N,A*1F
$IIMWV,213,T,07.8,N,A*1A
$IIRMC,121528,A,4630.396,N,00636.110,E,04.6,274,031107,,,A*4D
$IIVHW,,,316,M,04.3,N,,*67
$IIVLW,00417,N,001.8,N*58
$IIVWR,176,R,03.1,N,,,,*63
$IIDPT,056.4,-1.0,*47
$IIGLL,4630.397,N,00636.107,E,121530,A,A*5D
$IIHDG,316,,,,*53
$IIMTW,+09.0,C*31
$IIMWV,176,R,03.1,N,A*11
$IIMWV,191,T,07.9,N,A*12
$IIRMB,A,0.37,L,,VIDY,,,,,000.42,045,-01.0,V,A*44
$IIRMC,121530,A,4630.397,N,00636.107,E,04.4,312,031107,,,A*40
$IIVHW,,,324,M,04.2,N,,*67
$IIVLW,00417,N,001.8,N*58
$IIVWR,140,R,02.8,N,,,,*6E
$IIDPT,058.9,-1.0,*44
$IIGLL,4630.397,N,00636.107,E,121530,A,A*5D
$IIHDG,324,,,,*52
$IIMTW,+09.0,C*31
$IIMWV,140,R,02.8,N,A*1C
$IIMWV,165,T,06.6,N,A*17
$IIRMB,A,0.37,L,,VIDY,,,,,000.42,045,00.4,V,A*6C
$IIRMC,121532,A,4630.399,N,00636.105,E,04.2,328,031107,,,A*41
$IIVHW,,,332,M,04.1,N,,*63
$IIVLW,00417,N,001.8,N*58
$IIVWR,107,R,03.6,N,,,,*62
$IIDPT,058.9,-1.0,*44
$IIGLL,4630.399,N,00636.105,E,121532,A,A*53
$IIHDG,337,,,,*50
$IIMTW,+08.5,C*35
$IIMWV,103,R,03.1,N,A*13
$IIMWV,147,T,06.2,N,A*13
$IIRMC,121532,A,4630.399,N,00636.105,E,04.2,328,031107,,,A*41
$IIVHW,,,337,M,04.0,N,,*67
$IIVLW,00417,N,001.8,N*58
$IIVWR,103,R,03.1,N,,,,*61
$IIDPT,060.6,-1.0,*40
$IIGLL,4630.401,N,00636.103,E,121534,A,A*55
$IIHDG,342,,,,*52
$IIMTW,+08.5,C*35
$IIMWV,086,R,03.7,N,A*19
$IIMWV,147,T,05.5,N,A*17
$IIRMB,A,0.37,L,,VIDY,,,,,000.41,046,01.3,V,A*6A
$IIRMC,121534,A,4630.401,N,00636.103,E,04.2,337,031107,,,A*49
$IIVHW,,,342,M,03.9,N,,*6B
$IIVLW,00417,N,001.8,N*58
$IIVWR,093,R,05.0,N,,,,*6E
$IIDPT,060.6,-1.0,*40
$IIGLL,4630.401,N,00636.103,E,121534,A,A*55
$IIHDG,344,,,,*54
$IIMTW,+09.0,C*31
$IIMWV,093,R,05.0,N,A*1C
$IIMWV,136,T,05.3,N,A*17
$IIRMC,121534,A,4630.401,N,00636.103,E,04.2,337,031107,,,A*49
$IIVHW,,,351,M,03.8,N,,*68
$IIVLW,00417,N,001.8,N*58
$IIVWR,090,R,04.9,N,,,,*65
$IIDPT,059.4,-1.0,*48
$IIGLL,4630.404,N,00636.103,E,121536,A,A*52
$IIHDG,351,,,,*50
$IIMTW,+08.5,C*35
$IIMWV,090,R,04.9,N,A*17
$IIMWV,129,T,06.4,N,A*1D
$IIRMB,A,0.36,L,,VIDY,,,,,000.41,046,02.0,V,A*6B
$IIRMC,121536,A,4630.404,N,00636.103,E,04.1,346,031107,,,A*4B
$IIVHW,,,352,M,03.7,N,,*64
$IIVLW,00417,N,001.8,N*58
$IIVWR,095,R,04.7,N,,,,*6E
$IIDPT,065.4,-1.0,*47
$IIGLL,4630.404,N,00636.103,E,121536,A,A*52
$IIHDG,352,,,,*53
$IIMTW,+08.5,C*35
$IIMWV,095,R,04.7,N,A*1C
$IIMWV,132,T,06.3,N,A*10
$IIRMB,A,0.36,L,,VIDY,,,,,000.41,046,02.1,V,A*6A
$IIRMC,121538,A,4630.406,N,00636.102,E,04.2,348,031107,,,A*4B
$IIVHW,,,355,M,03.7,N,,*63
$IIVLW,00417,N,001.8,N*58
$IIVWR,086,R,05.1,N,,,,*6B
$IIDPT,065.4,-1.0,*47
$IIGLL,4630.406,N,00636.102,E,121538,A,A*5F
$IIHDG,359,,,,*58
$IIMTW,+08.5,C*35
$IIMWV,081,R,04.9,N,A*17
$IIMWV,124,T,06.1,N,A*15
$IIRMC,121538,A,4630.406,N,00636.102,E,04.2,348,031107,,,A*4B
$IIVHW,,,359,M,03.6,N,,*6E
$IIVLW,00417,N,001.8,N*58
$IIVWR,081,R,04.9,N,,,,*65
$IIDPT,057.1,-1.0,*43
$IIGLL,4630.408,N,00636.101,E,121540,A,A*5D
$IIHDG,002,,,,*55
$IIMTW,+09.5,C*34
$IIMWV,079,R,04.8,N,A*11
$IIMWV,122,T,05.6,N,A*17
$IIRMB,A,0.36,L,,VIDY,,,,,000.41,046,02.2,V,A*69
$IIRMC,121540,A,4630.408,N,00636.101,E,03.8,001,031107,,,A*4A
$IIVHW,,,002,M,03.6,N,,*63
$IIVLW,00417,N,001.8,N*58
$IIVWR,077,R,04.7,N,,,,*62
$IIDPT,056.0,-1.0,*43
$IIGLL,4630.408,N,00636.101,E,121540,A,A*5D
$IIHDG,006,,,,*51
$IIMTW,+08.5,C*35
$IIMWV,077,R,04.7,N,A*10
$IIMWV,121,T,05.4,N,A*16
$IIRMC,121540,A,4630.408,N,00636.101,E,03.8,001,031107,,,A*4A
$IIVHW,,,007,M,03.5,N,,*65
$IIVLW,00417,N,001.8,N*58
$IIVWR,077,R,05.0,N,,,,*64
$IIDPT,060.8,-1.0,*4E
$IIGLL,4630.410,N,00636.102,E,121542,A,A*55
$IIHDG,007,,,,*50
$IIMTW,+08.5,C*35
$IIMWV,077,R,05.0,N,A*16
$IIMWV,120,T,05.1,N,A*12
$IIRMB,A,0.36,L,,VIDY,,,,,000.41,046,02.9,V,A*62
$IIRMC,121542,A,4630.410,N,00636.102,E,03.8,007,031107,,,A*44
$IIVHW,,,011,M,03.5,N,,*62
$IIVLW,00417,N,001.8,N*58
$IIVWR,075,R,04.9,N,,,,*6E
$IIDPT,053.4,-1.0,*42
$IIGLL,4630.410,N,00636.102,E,121542,A,A*55
$IIHDG,011,,,,*57
$IIMTW,+08.0,C*30
$IIMWV,075,R,04.9,N,A*1C
$IIMWV,117,T,05.2,N,A*15
$IIRMB,A,0.36,L,,VIDY,,,,,000.41,047,03.1,V,A*6A
$IIRMC,121544,A,4630.412,N,00636.102,E,03.8,009,031107,,,A*4E
$IIVHW,,,012,M,03.5,N,,*61
$IIVLW,00417,N,001.8,N*58
$IIVWR,074,R,05.1,N,,,,*66
$IIDPT,054.9,-1.0,*48
$IIGLL,4630.412,N,00636.102,E,121544,A,A*51
$IIHDG,016,,,,*50
$IIMTW,+08.0,C*30
$IIMWV,073,R,05.9,N,A*1B
$IIMWV,114,T,05.2,N,A*16
$IIRMC,121544,A,4630.412,N,00636.102,E,03.8,009,031107,,,A*4E
$IIVHW,,,016,M,03.5,N,,*65
$IIVLW,00417,N,001.8,N*58
$IIVWR,073,R,05.9,N,,,,*69
$IIDPT,062.1,-1.0,*45
$IIGLL,4630.415,N,00636.103,E,121546,A,A*55
$IIHDG,020,,,,*55
$IIMTW,+09.0,C*31
$IIMWV,070,R,05.8,N,A*19
$IIMWV,108,T,05.8,N,A*11
$IIRMB,A,0.35,L,,VIDY,,,,,000.41,047,03.0,V,A*68
$IIRMC,121546,A,4630.415,N,00636.103,E,03.8,010,031107,,,A*42
$IIVHW,,,020,M,03.5,N,,*60
$IIVLW,00417,N,001.8,N*58
$IIVWR,067,R,05.7,N,,,,*62
$IIDPT,062.1,-1.0,*45
$IIGLL,4630.415,N,00636.103,E,121546,A,A*55
$IIHDG,023,,,,*56
$IIMTW,+08.0,C*30
$IIMWV,067,R,05.7,N,A*10
$IIMWV,107,T,05.6,N,A*10
$IIRMC,121546,A,4630.415,N,00636.103,E,03.8,010,031107,,,A*42
$IIVHW,,,027,M,03.5,N,,*67
$IIVLW,00417,N,001.8,N*58
$IIVWR,064,R,05.9,N,,,,*6F
$IIDPT,062.1,-1.0,*45
$IIGLL,4630.417,N,00636.103,E,121548,A,A*59
$IIHDG,027,,,,*52
$IIMTW,+09.0,C*31
$IIMWV,064,R,05.9,N,A*1D
$IIMWV,104,T,05.3,N,A*16
$IIRMB,A,0.35,L,,VIDY,,,,,000.40,047,03.1,V,A*68
$IIRMC,121548,A,4630.417,N,00636.103,E,03.9,014,031107,,,A*4B
$IIVHW,,,033,M,03.5,N,,*62
$IIVLW,00417,N,001.8,N*58
$IIVWR,060,R,06.2,N,,,,*63
$IIDPT,065.1,-1.0,*42
$IIGLL,4630.417,N,00636.103,E,121548,A,A*59
$IIHDG,033,,,,*57
$IIMTW,+09.0,C*31
$IIMWV,060,R,06.2,N,A*11
$IIMWV,095,T,05.3,N,A*1F
$IIRMB,A,0.35,L,,VIDY,,,,,000.40,047,03.8,V,A*61
$IIRMC,121550,A,4630.419,N,00636.105,E,03.7,033,031107,,,A*41
$IIVHW,,,034,M,03.5,N,,*65
$IIVLW,00417,N,001.8,N*58
$IIVWR,057,R,06.3,N,,,,*66
$IIDPT,065.1,-1.0,*42
$IIGLL,4630.419,N,00636.105,E,121550,A,A*58
$IIHDG,037,,,,*53
$IIMTW,+09.0,C*31
$IIMWV,056,R,06.4,N,A*12
$IIMWV,091,T,05.2,N,A*1A
$IIRMC,121550,A,4630.419,N,00636.105,E,03.7,033,031107,,,A*41
$IIVHW,,,037,M,03.5,N,,*66
$IIVLW,00417,N,001.8,N*58
$IIVWR,056,R,06.4,N,,,,*60
$IIDPT,067.4,-1.0,*45
$IIGLL,4630.420,N,00636.107,E,121552,A,A*52
$IIHDG,037,,,,*53
$IIMTW,+09.0,C*31
$IIMWV,052,R,06.5,N,A*17
$IIMWV,090,T,05.3,N,A*1A
$IIRMB,A,0.35,L,,VIDY,,,,,000.40,047,03.5,V,A*6C
$IIRMC,121552,A,4630.420,N,00636.107,E,03.6,038,031107,,,A*41
$IIVHW,,,037,M,03.5,N,,*66
$IIVLW,00417,N,001.9,N*59
$IIVWR,050,R,06.5,N,,,,*67
$IIDPT,066.9,-1.0,*49
$IIGLL,4630.420,N,00636.107,E,121552,A,A*52
$IIHDG,038,,,,*5C
$IIMTW,+09.0,C*31
$IIMWV,050,R,06.5,N,A*15
$IIMWV,085,T,05.1,N,A*1C
$IIRMC,121552,A,4630.420,N,00636.107,E,03.6,038,031107,,,A*41
$IIVHW,,,040,M,03.5,N,,*66
$IIVLW,00417,N,001.9,N*59
$IIVWR,050,R,06.5,N,,,,*67
$IIDPT,062.4,-1.0,*40
$IIGLL,4630.422,N,00636.109,E,121554,A,A*58
$IIHDG,040,,,,*53
$IIMTW,+08.0,C*30
$IIMWV,050,R,06.5,N,A*15
$IIMWV,083,T,05.0,N,A*1B
$IIRMB,A,0.34,L,,VIDY,,,,,000.40,047,03.5,V,A*6D
$IIRMC,121554,A,4630.422,N,00636.109,E,03.6,038,031107,,,A*4B
$IIVHW,,,040,M,03.5,N,,*66
$IIVLW,00417,N,001.9,N*59
$IIVWR,050,R,06.8,N,,,,*6A
$IIDPT,057.8,-1.0,*4A
$IIGLL,4630.422,N,00636.109,E,121554,A,A*58
$IIHDG,040,,,,*53
$IIMTW,+09.0,C*31
$IIMWV,050,R,06.8,N,A*18
$IIMWV,082,T,05.2,N,A*18
$IIRMB,A,0.34,L,,VIDY,,,,,000.40,047,03.6,V,A*6E
$IIRMC,121556,A,4630.424,N,00636.111,E,03.9,041,031107,,,A*47
$IIVHW,,,042,M,03.6,N,,*67
$IIVLW,00417,N,001.9,N*59
$IIVWR,049,R,06.8,N,,,,*62
$IIDPT,054.1,-1.0,*40
$IIGLL,4630.424,N,00636.111,E,121556,A,A*55
$IIHDG,042,,,,*51
$IIMTW,+08.5,C*35
$IIMWV,047,R,07.1,N,A*16
$IIMWV,081,T,05.1,N,A*18
$IIRMC,121556,A,4630.424,N,00636.111,E,03.9,041,031107,,,A*47
$IIVHW,,,042,M,03.6,N,,*67
$IIVLW,00417,N,001.9,N*59
$IIVWR,047,R,07.1,N,,,,*64
$IIDPT,053.3,-1.0,*45
$IIGLL,4630.425,N,00636.113,E,121558,A,A*58
$IIHDG,043,,,,*50
$IIMTW,+08.5,C*35
$IIMWV,046,R,07.3,N,A*15
$IIMWV,077,T,05.2,N,A*12
$IIRMB,A,0.34,L,,VIDY,,,,,000.39,047,04.0,V,A*61
$IIRMC,121558,A,4630.425,N,00636.113,E,04.0,043,031107,,,A*46
$IIVHW,,,043,M,03.6,N,,*66
$IIVLW,00417,N,001.9,N*59
$IIVWR,045,R,07.4,N,,,,*63
$IIDPT,053.3,-1.0,*45
$IIGLL,4630.425,N,00636.113,E,121558,A,A*58
$IIHDG,044,,,,*57
$IIMTW,+08.5,C*35
$IIMWV,045,R,07.4,N,A*11
$IIMWV,076,T,05.3,N,A*12
$IIRMC,121558,A,4630.425,N,00636.113,E,04.0,043,031107,,,A*46
$IIVHW,,,047,M,03.7,N,,*63
$IIVLW,00417,N,001.9,N*59
$IIVWR,046,R,07.2,N,,,,*66
$IIDPT,053.3,-1.0,*45
$IIGLL,4630.427,N,00636.116,E,121600,A,A*51
$IIHDG,047,,,,*54
$IIMTW,+09.0,C*31
$IIMWV,046,R,07.2,N,A*14
$IIMWV,074,T,05.4,N,A*17
$IIRMB,A,0.34,L,,VIDY,,,,,000.39,047,04.1,V,A*60
$IIRMC,121600,A,4630.427,N,00636.116,E,04.1,048,031107,,,A*45
$IIVHW,,,048,M,03.7,N,,*6C
$IIVLW,00417,N,001.9,N*59
$IIVWR,046,R,07.3,N,,,,*67
$IIDPT,053.3,-1.0,*45
$IIGLL,4630.427,N,00636.116,E,121600,A,A*51
$IIHDG,048,,,,*5B
$IIMTW,+09.0,C*31
$IIMWV,046,R,07.3,N,A*15
$IIMWV,077,T,05.3,N,A*13
$IIRMB,A,0.34,L,,VIDY,,,,,000.39,047,04.2,V,A*63
$IIRMC,121602,A,4630.428,N,00636.118,E,04.2,049,031107,,,A*44
$IIVHW,,,048,M,03.7,N,,*6C
$IIVLW,00417,N,001.9,N*59
$IIVWR,045,R,07.4,N,,,,*63
$IIDPT,053.3,-1.0,*45
$IIGLL,4630.428,N,00636.118,E,121602,A,A*52
$IIHDG,047,,,,*54
$IIMTW,+09.0,C*31
$IIMWV,046,R,07.8,N,A*1E
$IIMWV,075,T,05.3,N,A*11
$IIRMC,121602,A,4630.428,N,00636.118,E,04.2,049,031107,,,A*44
$IIVHW,,,047,M,03.8,N,,*6C
$IIVLW,00417,N,001.9,N*59
$IIVWR,046,R,07.8,N,,,,*6C
$IIDPT,053.4,-1.0,*42
$IIGLL,4630.430,N,00636.121,E,121604,A,A*57
$IIHDG,047,,,,*54
$IIMTW,+09.0,C*31
$IIMWV,045,R,07.7,N,A*12
$IIMWV,075,T,05.7,N,A*15
$IIRMB,A,0.33,L,,VIDY,,,,,000.39,047,04.2,V,A*64
$IIRMC,121604,A,4630.430,N,00636.121,E,04.2,048,031107,,,A*40
$IIVHW,,,047,M,03.8,N,,*6C
$IIVLW,00417,N,001.9,N*59
$IIVWR,046,R,07.6,N,,,,*62
$IIDPT,052.7,-1.0,*40
$IIGLL,4630.430,N,00636.121,E,121604,A,A*57
$IIHDG,047,,,,*54
$IIMTW,+09.0,C*31
$IIMWV,046,R,07.6,N,A*10
$IIMWV,073,T,05.6,N,A*12
$IIRMC,121604,A,4630.430,N,00636.121,E,04.2,048,031107,,,A*40
$IIVHW,,,047,M,03.8,N,,*6C
$IIVLW,00417,N,001.9,N*59
$IIVWR,045,R,07.6,N,,,,*61
$IIDPT,053.1,-1.0,*47
$IIGLL,4630.432,N,00636.123,E,121606,A,A*55
$IIHDG,047,,,,*54
$IIMTW,+08.0,C*30
$IIMWV,045,R,07.6,N,A*13
$IIMWV,076,T,05.5,N,A*14
$IIRMB,A,0.33,L,,VIDY,,,,,000.38,047,04.2,V,A*65
$IIRMC,121606,A,4630.432,N,00636.123,E,04.2,048,031107,,,A*42
$IIVHW,,,048,M,03.9,N,,*62
$IIVLW,00417,N,001.9,N*59
$IIVWR,045,R,07.6,N,,,,*61
$IIDPT,053.1,-1.0,*47
$IIGLL,4630.432,N,00636.123,E,121606,A,A*55
$IIHDG,048,,,,*5B
$IIMTW,+09.0,C*31
$IIMWV,045,R,07.6,N,A*13
$IIMWV,075,T,05.4,N,A*16
$IIRMB,A,0.33,L,,VIDY,,,,,000.38,047,04.0,V,A*67
$IIRMC,121608,A,4630.433,N,00636.126,E,04.3,048,031107,,,A*49
$IIVHW,,,047,M,03.9,N,,*6D
$IIVLW,00417,N,001.9,N*59
$IIVWR,044,R,07.7,N,,,,*61
$IIDPT,054.5,-1.0,*44
$IIGLL,4630.433,N,00636.126,E,121608,A,A*5F
$IIHDG,047,,,,*54
$IIMTW,+09.0,C*31
$IIMWV,043,R,07.3,N,A*10
$IIMWV,074,T,05.5,N,A*16
$IIRMC,121608,A,4630.433,N,00636.126,E,04.3,048,031107,,,A*49
$IIVHW,,,047,M,03.9,N,,*6D
$IIVLW,00417,N,001.9,N*59
$IIVWR,043,R,07.3,N,,,,*62
$IIDPT,053.3,-1.0,*45
$IIGLL,4630.435,N,00636.129,E,121610,A,A*5F
$IIHDG,047,,,,*54
$IIMTW,+09.0,C*31
$IIMWV,044,R,07.3,N,A*17
$IIMWV,075,T,05.0,N,A*12
$IIRMB,A,0.33,L,,VIDY,,,,,000.38,047,04.5,V,A*62
$IIRMC,121610,A,4630.435,N,00636.129,E,04.4,049,031107,,,A*4F
$IIVHW,,,047,M,04.0,N,,*63
$IIVLW,00417,N,001.9,N*59
$IIVWR,044,R,07.1,N,,,,*67
$IIDPT,054.4,-1.0,*45
$IIGLL,4630.435,N,00636.129,E,121610,A,A*5F
$IIHDG,047,,,,*54
$IIMTW,+09.0,C*31
$IIMWV,044,R,07.1,N,A*15
$IIMWV,077,T,05.1,N,A*11
$IIRMC,121610,A,4630.435,N,00636.129,E,04.4,049,031107,,,A*4F
$IIVHW,,,048,M,04.0,N,,*6C
$IIVLW,00417,N,001.9,N*59
$IIVWR,044,R,07.2,N,,,,*64
$IIDPT,054.8,-1.0,*49
$IIGLL,4630.436,N,00636.131,E,121612,A,A*57
$IIHDG,048,,,,*5B
$IIMTW,+09.5,C*34
$IIMWV,044,R,07.2,N,A*16
$IIMWV,077,T,04.9,N,A*18
$IIRMB,A,0.33,L,,VIDY,,,,,000.38,047,04.4,V,A*63
$IIRMC,121612,A,4630.436,N,00636.131,E,04.5,047,031107,,,A*48
$IIVHW,,,046,M,04.0,N,,*62
$IIVLW,00417,N,001.9,N*59
$IIVWR,043,R,07.4,N,,,,*65
$IIDPT,053.4,-1.0,*42
$IIGLL,4630.436,N,00636.131,E,121612,A,A*57
$IIHDG,046,,,,*55
$IIMTW,+09.5,C*34
$IIMWV,043,R,07.4,N,A*17
$IIMWV,075,T,05.1,N,A*13
$IIRMB,A,0.32,L,,VIDY,,,,,000.37,047,04.4,V,A*6D
$IIRMC,121614,A,4630.438,N,00636.134,E,04.4,050,031107,,,A*42
$IIVHW,,,047,M,04.1,N,,*62
$IIVLW,00417,N,001.9,N*59
$IIVWR,043,R,07.2,N,,,,*63
$IIDPT,052.5,-1.0,*42
$IIGLL,4630.438,N,00636.134,E,121614,A,A*5A
$IIHDG,048,,,,*5B
$IIMTW,+09.0,C*31
$IIMWV,044,R,07.2,N,A*16
$IIMWV,077,T,04.9,N,A*18
$IIRMC,121614,A,4630.438,N,00636.134,E,04.4,050,031107,,,A*42
$IIVHW,,,048,M,04.1,N,,*6D
$IIVLW,00417,N,001.9,N*59
$IIVWR,044,R,07.2,N,,,,*64
$IIDPT,051.8,-1.0,*4C
$IIGLL,4630.440,N,00636.137,E,121616,A,A*54
$IIHDG,048,,,,*5B
$IIMTW,+09.0,C*31
$IIMWV,044,R,07.4,N,A*10
$IIMWV,080,T,04.9,N,A*10
$IIRMB,A,0.32,L,,VIDY,,,,,000.37,047,04.7,V,A*6E
$IIRMC,121616,A,4630.440,N,00636.137,E,04.5,049,031107,,,A*45
$IIVHW,,,048,M,04.2,N,,*6E
$IIVLW,00417,N,001.9,N*59
$IIVWR,043,R,07.2,N,,,,*63
$IIDPT,051.2,-1.0,*46
$IIGLL,4630.440,N,00636.137,E,121616,A,A*54
$IIHDG,049,,,,*5A
$IIMTW,+09.0,C*31
$IIMWV,043,R,07.2,N,A*11
$IIMWV,078,T,05.2,N,A*1D
$IIRMC,121616,A,4630.440,N,00636.137,E,04.5,049,031107,,,A*45
$IIVHW,,,049,M,04.2,N,,*6F
$IIVLW,00417,N,001.9,N*59
$IIVWR,042,R,07.2,N,,,,*62
$IIDPT,051.2,-1.0,*46
$IIGLL,4630.441,N,00636.140,E,121618,A,A*5B
$IIHDG,049,,,,*5A
$IIMTW,+08.5,C*35
$IIMWV,042,R,07.2,N,A*10
$IIMWV,078,T,04.9,N,A*17
$IIRMB,A,0.32,L,,VIDY,,,,,000.37,047,04.4,V,A*6D
$IIRMC,121618,A,4630.441,N,00636.140,E,04.6,051,031107,,,A*40
$IIVHW,,,050,M,04.2,N,,*67
$IIVLW,00417,N,001.9,N*59
$IIVWR,041,R,07.4,N,,,,*67
$IIDPT,051.0,-1.0,*44
$IIGLL,4630.441,N,00636.140,E,121618,A,A*5B
$IIHDG,050,,,,*52
$IIMTW,+08.0,C*30
$IIMWV,041,R,07.4,N,A*15
$IIMWV,076,T,04.9,N,A*19
$IIRMB,A,0.32,L,,VIDY,,,,,000.37,047,04.6,V,A*6F
$IIRMC,121620,A,4630.443,N,00636.143,E,04.7,050,031107,,,A*4A
$IIVHW,,,048,M,04.2,N,,*6E
$IIVLW,00417,N,001.9,N*59
$IIVWR,042,R,07.1,N,,,,*61
$IIDPT,051.1,-1.0,*45
$IIGLL,4630.443,N,00636.143,E,121620,A,A*51
$IIHDG,049,,,,*5A
$IIMTW,+08.5,C*35
$IIMWV,043,R,07.3,N,A*10
$IIMWV,079,T,04.7,N,A*18
$IIRMC,121620,A,4630.443,N,00636.143,E,04.7,050,031107,,,A*4A
$IIVHW,,,049,M,04.2,N,,*6F
$IIVLW,00417,N,001.9,N*59
$IIVWR,043,R,07.3,N,,,,*62
$IIDPT,051.1,-1.0,*45
$IIGLL,4630.445,N,00636.145,E,121622,A,A*53
$IIHDG,048,,,,*5B
$IIMTW,+08.5,C*35
$IIMWV,043,R,07.1,N,A*12
$IIMWV,077,T,05.0,N,A*10
$IIRMB,A,0.32,L,,VIDY,,,,,000.36,047,04.6,V,A*6E
$IIRMC,121622,A,4630.445,N,00636.145,E,04.6,047,031107,,,A*4F
$IIVHW,,,048,M,04.2,N,,*6E
$IIVLW,00417,N,001.9,N*59
$IIVWR,044,R,07.3,N,,,,*65
$IIDPT,050.8,-1.0,*4D
$IIGLL,4630.445,N,00636.145,E,121622,A,A*53
$IIHDG,046,,,,*55
$IIMTW,+09.5,C*34
$IIMWV,044,R,07.3,N,A*17
$IIMWV,081,T,04.8,N,A*10
$IIRMC,121622,A,4630.445,N,00636.145,E,04.6,047,031107,,,A*4F
$IIVHW,,,045,M,04.2,N,,*63
$IIVLW,00417,N,001.9,N*59
$IIVWR,045,R,07.1,N,,,,*66
$IIDPT,050.8,-1.0,*4D
$IIGLL,4630.447,N,00636.148,E,121624,A,A*5A
$IIHDG,045,,,,*56
$IIMTW,+09.5,C*34
$IIMWV,045,R,07.1,N,A*14
$IIMWV,080,T,05.0,N,A*18
$IIRMB,A,0.31,L,,VIDY,,,,,000.36,047,04.6,V,A*6D
$IIRMC,121624,A,4630.447,N,00636.148,E,04.7,046,031107,,,A*46
$IIVHW,,,045,M,04.2,N,,*63
$IIVLW,00417,N,001.9,N*59
$IIVWR,045,R,07.3,N,,,,*64
$IIDPT,053.2,-1.0,*44
$IIGLL,4630.447,N,00636.148,E,121624,A,A*5A
$IIHDG,045,,,,*56
$IIMTW,+09.5,C*34
$IIMWV,045,R,07.3,N,A*16
$IIMWV,081,T,05.1,N,A*18
$IIRMB,A,0.31,L,,VIDY,,,,,000.36,047,04.7,V,A*6C
$IIRMC,121626,A,4630.448,N,00636.151,E,04.7,046,031107,,,A*43
$IIVHW,,,045,M,04.3,N,,*62
$IIVLW,00417,N,001.9,N*59
$IIVWR,045,R,07.1,N,,,,*66
$IIDPT,053.2,-1.0,*44
$IIGLL,4630.448,N,00636.151,E,121626,A,A*5F
$IIHDG,044,,,,*57
$IIMTW,+09.5,C*34
$IIMWV,046,R,07.3,N,A*15
$IIMWV,082,T,05.0,N,A*1A
$IIRMC,121626,A,4630.448,N,00636.151,E,04.7,046,031107,,,A*43
$IIVHW,,,044,M,04.3,N,,*63
$IIVLW,00417,N,001.9,N*59
$IIVWR,046,R,07.3,N,,,,*67
$IIDPT,062.7,-1.0,*43
$IIGLL,4630.450,N,00636.154,E,121628,A,A*5D
$IIHDG,044,,,,*57
$IIMTW,+09.5,C*34
$IIMWV,046,R,07.0,N,A*16
$IIMWV,082,T,05.2,N,A*18
$IIRMB,A,0.31,L,,VIDY,,,,,000.36,047,04.7,V,A*6C
$IIRMC,121628,A,4630.450,N,00636.154,E,04.8,045,031107,,,A*4D
$IIVHW,,,044,M,04.3,N,,*63
$IIVLW,00417,N,001.9,N*59
$IIVWR,047,R,06.9,N,,,,*6D
$IIDPT,072.2,-1.0,*47
$IIGLL,4630.450,N,00636.154,E,121628,A,A*5D
$IIHDG,043,,,,*50
$IIMTW,+09.5,C*34
$IIMWV,047,R,06.9,N,A*1F
$IIMWV,084,T,05.0,N,A*1C
$IIRMC,121628,A,4630.450,N,00636.154,E,04.8,045,031107,,,A*4D
$IIVHW,,,043,M,04.3,N,,*64
$IIVLW,00417,N,001.9,N*59
$IIVWR,047,R,06.8,N,,,,*6C
$IIDPT,072.2,-1.0,*47
$IIGLL,4630.452,N,00636.157,E,121630,A,A*55
$IIHDG,043,,,,*50
$IIMTW,+09.5,C*34
$IIMWV,047,R,06.8,N,A*1E
$IIMWV,088,T,05.0,N,A*10
$IIRMB,A,0.31,L,,VIDY,,,,,000.35,047,04.9,V,A*61
$IIRMC,121630,A,4630.452,N,00636.157,E,04.7,044,031107,,,A*4B
$IIVHW,,,043,M,04.3,N,,*64
$IIVLW,00417,N,001.9,N*59
$IIVWR,047,R,06.8,N,,,,*6C
$IIDPT,060.1,-1.0,*47
$IIGLL,4630.452,N,00636.157,E,121630,A,A*55
$IIHDG,043,,,,*50
$IIMTW,+09.0,C*31
$IIMWV,047,R,06.8,N,A*1E
$IIMWV,088,T,04.9,N,A*18
$IIRMB,A,0.30,L,,VIDY,,,,,000.35,047,04.7,V,A*6E
$IIRMC,121632,A,4630.454,N,00636.159,E,04.7,045,031107,,,A*40
$IIVHW,,,044,M,04.4,N,,*64
$IIVLW,00417,N,001.9,N*59
$IIVWR,049,R,06.3,N,,,,*69
$IIDPT,050.1,-1.0,*44
$IIGLL,4630.454,N,00636.159,E,121632,A,A*5F
$IIHDG,043,,,,*50
$IIMTW,+08.0,C*30
$IIMWV,050,R,06.4,N,A*14
$IIMWV,094,T,04.7,N,A*1B
$IIRMC,121632,A,4630.454,N,00636.159,E,04.7,045,031107,,,A*40
$IIVHW,,,043,M,04.4,N,,*63
$IIVLW,00417,N,001.9,N*59
$IIVWR,050,R,06.4,N,,,,*66
$IIDPT,049.9,-1.0,*44
$IIGLL,4630.456,N,00636.162,E,121634,A,A*53
$IIHDG,044,,,,*57
$IIMTW,+09.0,C*31
$IIMWV,047,R,06.5,N,A*13
$IIMWV,095,T,04.9,N,A*14
$IIRMB,A,0.30,L,,VIDY,,,,,000.35,047,04.8,V,A*61
$IIRMC,121634,A,4630.456,N,00636.162,E,04.8,045,031107,,,A*43
$IIVHW,,,044,M,04.4,N,,*64
$IIVLW,00417,N,001.9,N*59
$IIVWR,045,R,06.4,N,,,,*62
$IIDPT,049.9,-1.0,*44
$IIGLL,4630.456,N,00636.162,E,121634,A,A*53
$IIHDG,043,,,,*50
$IIMTW,+09.0,C*31
$IIMWV,045,R,06.4,N,A*10
$IIMWV,090,T,04.7,N,A*1F
$IIRMC,121634,A,4630.456,N,00636.162,E,04.8,045,031107,,,A*43
$IIVHW,,,043,M,04.4,N,,*63
$IIVLW,00417,N,001.9,N*59
$IIVWR,044,R,06.6,N,,,,*61
$IIDPT,049.9,-1.0,*44
$IIGLL,4630.458,N,00636.165,E,121636,A,A*58
$IIHDG,043,,,,*50
$IIMTW,+08.0,C*30
$IIMWV,044,R,06.6,N,A*13
$IIMWV,089,T,04.5,N,A*15
$IIRMB,A,0.30,L,,VIDY,,,,,000.34,047,04.8,V,A*60
$IIRMC,121636,A,4630.458,N,00636.165,E,04.7,044,031107,,,A*46
$IIVHW,,,042,M,04.4,N,,*62
$IIVLW,00417,N,001.9,N*59
$IIVWR,044,R,06.2,N,,,,*65
$IIDPT,050.3,-1.0,*46
$IIGLL,4630.458,N,00636.165,E,121636,A,A*58
$IIHDG,042,,,,*51
$IIMTW,+08.0,C*30
$IIMWV,044,R,06.2,N,A*17
$IIMWV,090,T,04.2,N,A*1A
$IIRMB,A,0.30,L,,VIDY,,,,,000.34,047,04.7,V,A*6F
$IIRMC,121638,A,4630.460,N,00636.167,E,04.7,043,031107,,,A*46
$IIVHW,,,042,M,04.4,N,,*62
$IIVLW,00417,N,001.9,N*59
$IIVWR,045,R,06.3,N,,,,*65
$IIDPT,055.9,-1.0,*49
$IIGLL,4630.460,N,00636.167,E,121638,A,A*5F
$IIHDG,042,,,,*51
$IIMTW,+09.0,C*31
$IIMWV,046,R,06.0,N,A*17
$IIMWV,090,T,04.4,N,A*1C
$IIRMC,121638,A,4630.460,N,00636.167,E,04.7,043,031107,,,A*46
$IIVHW,,,042,M,04.4,N,,*62
$IIVLW,00417,N,001.9,N*59
$IIVWR,046,R,06.0,N,,,,*65
$IIDPT,055.9,-1.0,*49
$IIGLL,4630.462,N,00636.170,E,121640,A,A*54
$IIHDG,041,,,,*52
$IIMTW,+09.0,C*31
$IIMWV,047,R,05.7,N,A*12
$IIMWV,094,T,04.3,N,A*1F
$IIRMB,A,0.29,L,,VIDY,,,,,000.34,047,04.8,V,A*68
$IIRMC,121640,A,4630.462,N,00636.170,E,04.6,042,031107,,,A*4D
$IIVHW,,,041,M,04.4,N,,*61
$IIVLW,00417,N,001.9,N*59
$IIVWR,048,R,06.1,N,,,,*6A
$IIDPT,049.6,-1.0,*4B
$IIGLL,4630.462,N,00636.170,E,121640,A,A*54
$IIHDG,041,,,,*52
$IIMTW,+09.0,C*31
$IIMWV,048,R,06.1,N,A*18
$IIMWV,099,T,04.1,N,A*10
$IIRMC,121640,A,4630.462,N,00636.170,E,04.6,042,031107,,,A*4D
$IIVHW,,,040,M,04.4,N,,*60
$IIVLW,00417,N,001.9,N*59
$IIVWR,050,R,05.9,N,,,,*68
$IIDPT,049.6,-1.0,*4B
$IIGLL,4630.464,N,00636.173,E,121642,A,A*53
$IIHDG,040,,,,*53
$IIMTW,+08.5,C*35
$IIMWV,050,R,05.9,N,A*1A
$IIMWV,095,T,04.5,N,A*18
$IIRMB,A,0.29,L,,VIDY,,,,,000.34,047,04.7,V,A*67
$IIRMC,121642,A,4630.464,N,00636.173,E,04.7,042,031107,,,A*4B
$IIVHW,,,040,M,04.4,N,,*60
$IIVLW,00417,N,001.9,N*59
$IIVWR,052,R,05.9,N,,,,*6A
$IIDPT,049.1,-1.0,*4C
$IIGLL,4630.464,N,00636.173,E,121642,A,A*53
$IIHDG,040,,,,*53
$IIMTW,+08.5,C*35
$IIMWV,052,R,05.9,N,A*18
$IIMWV,100,T,04.6,N,A*16
$IIRMB,A,0.29,L,,VIDY,,,,,000.33,047,04.7,V,A*60
$IIRMC,121644,A,4630.466,N,00636.175,E,04.8,043,031107,,,A*47
$IIVHW,,,041,M,04.4,N,,*61
$IIVLW,00417,N,001.9,N*59
$IIVWR,049,R,05.8,N,,,,*61
$IIDPT,049.1,-1.0,*4C
$IIGLL,4630.466,N,00636.175,E,121644,A,A*51
$IIHDG,042,,,,*51
$IIMTW,+08.5,C*35
$IIMWV,043,R,06.3,N,A*11
$IIMWV,098,T,04.3,N,A*13
$IIRMC,121644,A,4630.466,N,00636.175,E,04.8,043,031107,,,A*47
$IIVHW,,,042,M,04.4,N,,*62
$IIVLW,00417,N,001.9,N*59
$IIVWR,043,R,06.3,N,,,,*63
$IIDPT,048.8,-1.0,*44
$IIGLL,4630.468,N,00636.178,E,121646,A,A*50
$IIHDG,042,,,,*51
$IIMTW,+09.0,C*31
$IIMWV,044,R,06.5,N,A*10
$IIMWV,089,T,04.2,N,A*12
$IIRMB,A,0.29,L,,VIDY,,,,,000.33,048,04.8,V,A*60
$IIRMC,121646,A,4630.468,N,00636.178,E,04.7,045,031107,,,A*4F
$IIVHW,,,042,M,04.4,N,,*62
$IIVLW,00417,N,001.9,N*59
$IIVWR,041,R,06.6,N,,,,*64
$IIDPT,048.3,-1.0,*4F
$IIGLL,4630.468,N,00636.178,E,121646,A,A*50
$IIHDG,042,,,,*51
$IIMTW,+09.0,C*31
$IIMWV,041,R,06.6,N,A*16
$IIMWV,087,T,04.4,N,A*1A
$IIRMC,121646,A,4630.468,N,00636.178,E,04.7,045,031107,,,A*4F
$IIVHW,,,042,M,04.4,N,,*62
$IIVLW,00417,N,001.9,N*59
$IIVWR,039,R,06.6,N,,,,*6B
$IIDPT,048.3,-1.0,*4F
$IIGLL,4630.470,N,00636.181,E,121648,A,A*51
$IIHDG,042,,,,*51
$IIMTW,+09.0,C*31
$IIMWV,039,R,06.6,N,A*19
$IIMWV,083,T,04.3,N,A*19
$IIRMB,A,0.28,L,,VIDY,,,,,000.33,048,04.8,V,A*61
$IIRMC,121648,A,4630.470,N,00636.181,E,04.8,044,031107,,,A*40
$IIVHW,,,042,M,04.4,N,,*62
$IIVLW,00417,N,001.9,N*59
$IIVWR,037,R,06.7,N,,,,*64
$IIDPT,047.8,-1.0,*4B
$IIGLL,4630.470,N,00636.181,E,121648,A,A*51
$IIHDG,042,,,,*51
$IIMTW,+08.5,C*35
$IIMWV,037,R,06.7,N,A*16
$IIMWV,079,T,04.0,N,A*1F
$IIRMB,A,0.28,L,,VIDY,,,,,000.33,048,04.8,V,A*61
$IIRMC,121650,A,4630.472,N,00636.183,E,04.7,045,031107,,,A*47
$IIVHW,,,043,M,04.4,N,,*63
$IIVLW,00417,N,001.9,N*59
$IIVWR,035,R,07.1,N,,,,*61
$IIDPT,047.8,-1.0,*4B
$IIGLL,4630.472,N,00636.183,E,121650,A,A*58
$IIHDG,042,,,,*51
$IIMTW,+09.5,C*34
$IIMWV,037,R,06.9,N,A*18
$IIMWV,071,T,04.2,N,A*15
$IIRMC,121650,A,4630.472,N,00636.183,E,04.7,045,031107,,,A*47
$IIVHW,,,042,M,04.4,N,,*62
$IIVLW,00417,N,001.9,N*59
$IIVWR,037,R,06.9,N,,,,*6A
$IIDPT,047.3,-1.0,*40
$IIGLL,4630.474,N,00636.186,E,121652,A,A*59
$IIHDG,041,,,,*52
$IIMTW,+09.5,C*34
$IIMWV,035,R,06.7,N,A*14
$IIMWV,075,T,04.2,N,A*11
$IIRMB,A,0.28,L,,VIDY,,,,,000.32,048,04.7,V,A*6F
$IIRMC,121652,A,4630.474,N,00636.186,E,04.6,041,031107,,,A*43
$IIVHW,,,041,M,04.4,N,,*61
$IIVLW,00417,N,001.9,N*59
$IIVWR,036,R,06.7,N,,,,*65
$IIDPT,048.0,-1.0,*4C
$IIGLL,4630.474,N,00636.186,E,121652,A,A*59
$IIHDG,041,,,,*52
$IIMTW,+09.5,C*34
$IIMWV,036,R,06.7,N,A*17
$IIMWV,075,T,03.9,N,A*1D
$IIRMC,121652,A,4630.474,N,00636.186,E,04.6,041,031107,,,A*43
$IIVHW,,,041,M,04.3,N,,*66
$IIVLW,00417,N,001.9,N*59
$IIVWR,036,R,07.1,N,,,,*62
$IIDPT,048.0,-1.0,*4C
$IIGLL,4630.476,N,00636.188,E,121654,A,A*53
$IIHDG,041,,,,*52
$IIMTW,+08.5,C*35
$IIMWV,036,R,07.1,N,A*10
$IIMWV,075,T,04.0,N,A*13
$IIRMB,A,0.28,L,,VIDY,,,,,000.32,048,04.7,V,A*6F
$IIRMC,121654,A,4630.476,N,00636.188,E,04.7,043,031107,,,A*4A
$IIVHW,,,042,M,04.3,N,,*65
$IIVLW,00417,N,001.9,N*59
$IIVWR,037,R,07.3,N,,,,*61
$IIDPT,047.8,-1.0,*4B
$IIGLL,4630.476,N,00636.188,E,121654,A,A*53
$IIHDG,042,,,,*51
$IIMTW,+09.0,C*31
$IIMWV,037,R,07.3,N,A*13
$IIMWV,072,T,04.5,N,A*11
$IIRMB,A,0.28,L,,VIDY,,,,,000.32,048,04.6,V,A*6E
$IIRMC,121656,A,4630.478,N,00636.191,E,04.6,043,031107,,,A*4F
$IIVHW,,,042,M,04.3,N,,*65
$IIVLW,00417,N,001.9,N*59
$IIVWR,000,R,00.0,N,,,,*61
$IIDPT,048.5,-1.0,*49
$IIGLL,4630.478,N,00636.191,E,121656,A,A*57
$IIHDG,042,,,,*51
$IIMTW,+09.0,C*31
$IIMWV,037,R,07.5,N,A*15
$IIMWV,000,T,04.4,N,A*15
$IIRMC,121656,A,4630.478,N,00636.191,E,04.6,043,031107,,,A*4F
$IIVHW,,,042,M,04.3,N,,*65
$IIVLW,00417,N,001.9,N*59
$IIVWR,037,R,07.5,N,,,,*67
$IIDPT,050.9,-1.0,*4C
$IIGLL,4630.480,N,00636.194,E,121658,A,A*5B
$IIHDG,042,,,,*51
$IIMTW,+08.5,C*35
$IIMWV,037,R,07.9,N,A*19
$IIMWV,069,T,04.8,N,A*16
$IIRMB,A,0.27,L,,VIDY,,,,,000.32,048,04.6,V,A*61
$IIRMC,121658,A,4630.480,N,00636.194,E,04.6,043,031107,,,A*43
$IIVHW,,,042,M,04.3,N,,*65
$IIVLW,00417,N,001.9,N*59
$IIVWR,038,R,07.8,N,,,,*65
$IIDPT,049.6,-1.0,*4B
$IIGLL,4630.480,N,00636.194,E,121658,A,A*5B
$IIHDG,042,,,,*51
$IIMTW,+08.5,C*35
$IIMWV,038,R,07.8,N,A*17
$IIMWV,067,T,05.1,N,A*10
$IIRMC,121658,A,4630.480,N,00636.194,E,04.6,043,031107,,,A*43
$IIVHW,,,043,M,04.3,N,,*64
$IIVLW,00417,N,001.9,N*59
$IIVWR,037,R,08.2,N,,,,*6F
$IIDPT,049.6,-1.0,*4B
$IIGLL,4630.482,N,00636.196,E,121700,A,A*57
$IIHDG,043,,,,*50
$IIMTW,+08.5,C*35
$IIMWV,037,R,08.2,N,A*1D
$IIMWV,069,T,05.1,N,A*1E
$IIRMB,A,0.27,L,,VIDY,,,,,000.31,048,04.7,V,A*63
$IIRMC,121700,A,4630.482,N,00636.196,E,04.7,044,031107,,,A*49
$IIVHW,,,042,M,04.3,N,,*65
$IIVLW,00417,N,001.9,N*59
$IIVWR,036,R,08.3,N,,,,*6F
$IIDPT,056.2,-1.0,*41
$IIGLL,4630.482,N,00636.196,E,121700,A,A*57
$IIHDG,042,,,,*51
$IIMTW,+09.0,C*31
$IIMWV,036,R,08.3,N,A*1D
$IIMWV,063,T,05.3,N,A*16
$IIRMB,A,0.27,L,,VIDY,,,,,000.31,048,04.6,V,A*62
$IIRMC,121702,A,4630.483,N,00636.199,E,04.6,044,031107,,,A*44
$IIVHW,,,042,M,04.3,N,,*65
$IIVLW,00417,N,001.9,N*59
$IIVWR,036,R,08.1,N,,,,*6D
$IIDPT,055.1,-1.0,*41
$IIGLL,4630.483,N,00636.199,E,121702,A,A*5B
$IIHDG,043,,,,*50
$IIMTW,+08.0,C*30
$IIMWV,036,R,07.9,N,A*18
$IIMWV,065,T,05.1,N,A*12
$IIRMC,121702,A,4630.483,N,00636.199,E,04.6,044,031107,,,A*44
$IIVHW,,,043,M,04.3,N,,*64
$IIVLW,00417,N,001.9,N*59
$IIVWR,036,R,07.9,N,,,,*6A
$IIDPT,048.0,-1.0,*4C
$IIGLL,4630.485,N,00636.201,E,121704,A,A*59
$IIHDG,044,,,,*57
$IIMTW,+08.5,C*35
$IIMWV,036,R,07.8,N,A*19
$IIMWV,067,T,05.0,N,A*11
$IIRMB,A,0.27,L,,VIDY,,,,,000.31,048,04.6,V,A*62
$IIRMC,121704,A,4630.485,N,00636.201,E,04.7,045,031107,,,A*46
$IIVHW,,,044,M,04.2,N,,*62
$IIVLW,00417,N,001.9,N*59
$IIVWR,036,R,07.7,N,,,,*64
$IIDPT,052.7,-1.0,*40
$IIGLL,4630.485,N,00636.201,E,121704,A,A*59
$IIHDG,044,,,,*57
$IIMTW,+09.0,C*31
$IIMWV,036,R,07.7,N,A*16
$IIMWV,067,T,05.0,N,A*11
$IIRMC,121704,A,4630.485,N,00636.201,E,04.7,045,031107,,,A*46
$IIVHW,,,044,M,04.2,N,,*62
$IIVLW,00417,N,001.9,N*59
$IIVWR,035,R,08.1,N,,,,*6E
$IIDPT,052.7,-1.0,*40
$IIGLL,4630.487,N,00636.204,E,121706,A,A*5C
$IIHDG,044,,,,*57
$IIMTW,+09.0,C*31
$IIMWV,035,R,08.1,N,A*1C
$IIMWV,067,T,04.8,N,A*18
$IIRMB,A,0.26,L,,VIDY,,,,,000.31,048,04.6,V,A*63
$IIRMC,121706,A,4630.487,N,00636.204,E,04.5,046,031107,,,A*42
$IIVHW,,,046,M,04.2,N,,*60
$IIVLW,00417,N,001.9,N*59
$IIVWR,035,R,08.0,N,,,,*6F
$IIDPT,051.8,-1.0,*4C
$IIGLL,4630.487,N,00636.204,E,121706,A,A*5C
$IIHDG,046,,,,*55
$IIMTW,+09.0,C*31
$IIMWV,035,R,08.0,N,A*1D
$IIMWV,064,T,05.0,N,A*12
$IIRMB,A,0.26,L,,VIDY,,,,,000.30,048,04.6,V,A*62
$IIRMC,121708,A,4630.489,N,00636.207,E,04.6,048,031107,,,A*4C
$IIVHW,,,046,M,04.2,N,,*60
$IIVLW,00417,N,001.9,N*59
$IIVWR,037,R,07.8,N,,,,*6A
$IIDPT,051.8,-1.0,*4C
$IIGLL,4630.489,N,00636.207,E,121708,A,A*5F
$IIHDG,047,,,,*54
$IIMTW,+09.0,C*31
$IIMWV,038,R,08.1,N,A*11
$IIMWV,068,T,04.9,N,A*16
$IIRMC,121708,A,4630.489,N,00636.207,E,04.6,048,031107,,,A*4C
$IIVHW,,,047,M,04.2,N,,*61
$IIVLW,00417,N,001.9,N*59
$IIVWR,038,R,08.1,N,,,,*63
$IIDPT,056.7,-1.0,*44
$IIGLL,4630.491,N,00636.210,E,121710,A,A*59
$IIHDG,047,,,,*54
$IIMTW,+09.0,C*31
$IIMWV,037,R,07.9,N,A*19
$IIMWV,068,T,05.3,N,A*1D
$IIRMB,A,0.26,L,,VIDY,,,,,000.30,048,04.6,V,A*62
$IIRMC,121710,A,4630.491,N,00636.210,E,04.5,049,031107,,,A*48
$IIVHW,,,047,M,04.2,N,,*61
$IIVLW,00417,N,001.9,N*59
$IIVWR,038,R,07.7,N,,,,*6A
$IIDPT,051.2,-1.0,*46
$IIGLL,4630.491,N,00636.210,E,121710,A,A*59
$IIHDG,046,,,,*55
$IIMTW,+09.0,C*31
$IIMWV,038,R,07.7,N,A*18
$IIMWV,067,T,05.1,N,A*10
$IIRMC,121710,A,4630.491,N,00636.210,E,04.5,049,031107,,,A*48
$IIVHW,,,048,M,04.2,N,,*6E
$IIVLW,00417,N,001.9,N*59
$IIVWR,038,R,08.2,N,,,,*60
$IIDPT,050.0,-1.0,*45
$IIGLL,4630.492,N,00636.212,E,121712,A,A*5A
$IIHDG,048,,,,*5B
$IIMTW,+09.0,C*31
$IIMWV,038,R,08.2,N,A*12
$IIMWV,070,T,04.9,N,A*1F
$IIRMB,A,0.26,L,,VIDY,,,,,000.30,048,04.6,V,A*62
$IIRMC,121712,A,4630.492,N,00636.212,E,04.5,048,031107,,,A*4A
$IIVHW,,,046,M,04.2,N,,*60
$IIVLW,00417,N,001.9,N*59
$IIVWR,036,R,08.0,N,,,,*6C
$IIDPT,051.8,-1.0,*4C
$IIGLL,4630.492,N,00636.212,E,121712,A,A*5A
$IIHDG,046,,,,*55
$IIMTW,+09.0,C*31
$IIMWV,036,R,08.0,N,A*1E
$IIMWV,066,T,05.1,N,A*11
$IIRMB,A,0.25,L,,VIDY,,,,,000.29,048,04.6,V,A*69
$IIRMC,121714,A,4630.494,N,00636.215,E,04.5,048,031107,,,A*4D
$IIVHW,,,046,M,04.2,N,,*60
$IIVLW,00417,N,001.9,N*59
$IIVWR,035,R,08.3,N,,,,*6C
$IIDPT,051.8,-1.0,*4C
$IIGLL,4630.494,N,00636.215,E,121714,A,A*5D
$IIHDG,046,,,,*55
$IIMTW,+08.0,C*30
$IIMWV,036,R,07.9,N,A*18
$IIMWV,062,T,05.3,N,A*17
$IIRMC,121714,A,4630.494,N,00636.215,E,04.5,048,031107,,,A*4D
$IIVHW,,,046,M,04.2,N,,*60
$IIVLW,00417,N,001.9,N*59
$IIVWR,036,R,07.9,N,,,,*6A
$IIDPT,046.6,-1.0,*44
$IIGLL,4630.496,N,00636.218,E,121716,A,A*50
$IIHDG,046,,,,*55
$IIMTW,+08.0,C*30
$IIMWV,038,R,07.8,N,A*17
$IIMWV,067,T,05.0,N,A*11
$IIRMB,A,0.25,L,,VIDY,,,,,000.29,048,04.5,V,A*6A
$IIRMC,121716,A,4630.496,N,00636.218,E,04.5,047,031107,,,A*4F
$IIVHW,,,046,M,04.2,N,,*60
$IIVLW,00417,N,001.9,N*59
$IIVWR,038,R,08.1,N,,,,*63
$IIDPT,045.4,-1.0,*45
$IIGLL,4630.496,N,00636.218,E,121716,A,A*50
$IIHDG,046,,,,*55
$IIMTW,+09.5,C*34
$IIMWV,038,R,08.1,N,A*11
$IIMWV,069,T,05.1,N,A*1E
$IIRMC,121716,A,4630.496,N,00636.218,E,04.5,047,031107,,,A*4F
$IIVHW,,,046,M,04.2,N,,*60
$IIVLW,00417,N,001.9,N*59
$IIVWR,039,R,07.9,N,,,,*65
$IIDPT,045.4,-1.0,*45
$IIGLL,4630.497,N,00636.221,E,121718,A,A*55
$IIHDG,046,,,,*55
$IIMTW,+09.5,C*34
$IIMWV,039,R,07.9,N,A*17
$IIMWV,067,T,05.4,N,A*15
$IIRMB,A,0.25,L,,VIDY,,,,,000.29,048,04.5,V,A*6A
$IIRMC,121718,A,4630.497,N,00636.221,E,04.5,046,031107,,,A*4B
$IIVHW,,,046,M,04.2,N,,*60
$IIVLW,00417,N,002.0,N*53
$IIVWR,039,R,08.2,N,,,,*61
$IIDPT,044.8,-1.0,*48
$IIGLL,4630.497,N,00636.221,E,121718,A,A*55
$IIHDG,046,,,,*55
$IIMTW,+09.5,C*34
$IIMWV,039,R,08.2,N,A*13
$IIMWV,068,T,05.5,N,A*1B
$IIRMC,121720,A,4630.499,N,00636.223,E,04.5,046,031107,,,A*4C
$IIVHW,,,046,M,04.2,N,,*60
$IIVLW,00417,N,002.0,N*53
$IIVWR,040,R,07.9,N,,,,*6B
$IIDPT,044.8,-1.0,*48
$IIGLL,4630.499,N,00636.223,E,121720,A,A*52
$IIHDG,046,,,,*55
$IIMTW,+09.5,C*34
$IIMWV,040,R,08.3,N,A*1C
$IIMWV,070,T,05.3,N,A*14
$IIRMC,121720,A,4630.499,N,00636.223,E,04.5,046,031107,,,A*4C
$IIVHW,,,045,M,04.2,N,,*63
$IIVLW,00417,N,002.0,N*53
$IIVWR,040,R,08.3,N,,,,*6E
$IIDPT,041.8,-1.0,*4D
$IIGLL,4630.499,N,00636.223,E,121720,A,A*52
$IIHDG,045,,,,*56
$IIMTW,+09.5,C*34
$IIMWV,041,R,07.8,N,A*19
$IIMWV,069,T,05.7,N,A*18
$IIRMB,A,0.25,L,,VIDY,,,,,000.29,048,04.6,V,A*69
$IIRMC,121722,A,4630.501,N,00636.226,E,04.6,046,031107,,,A*48
$IIVHW,,,045,M,04.2,N,,*63
$IIVLW,00417,N,002.0,N*53
$IIVWR,041,R,07.8,N,,,,*6B
$IIDPT,040.5,-1.0,*41
$IIGLL,4630.501,N,00636.226,E,121722,A,A*55
$IIHDG,045,,,,*56
$IIMTW,+09.5,C*34
$IIMWV,042,R,08.2,N,A*1F
$IIMWV,073,T,05.3,N,A*17
$IIRMC,121722,A,4630.501,N,00636.226,E,04.6,046,031107,,,A*48
$IIVHW,,,045,M,04.2,N,,*63
$IIVLW,00417,N,002.0,N*53
$IIVWR,042,R,08.2,N,,,,*6D
$IIDPT,040.5,-1.0,*41
$IIGLL,4630.502,N,00636.229,E,121724,A,A*5F
$IIHDG,046,,,,*55
$IIMTW,+09.5,C*34
$IIMWV,039,R,07.9,N,A*17
$IIMWV,072,T,05.6,N,A*13
$IIRMB,A,0.24,L,,VIDY,,,,,000.28,048,04.6,V,A*69
$IIRMC,121724,A,4630.502,N,00636.229,E,04.6,047,031107,,,A*43
$IIVHW,,,046,M,04.2,N,,*60
$IIVLW,00417,N,002.0,N*53
$IIVWR,037,R,07.7,N,,,,*65
$IIDPT,040.1,-1.0,*45
$IIGLL,4630.502,N,00636.229,E,121724,A,A*5F
$IIHDG,046,,,,*55
$IIMTW,+08.5,C*35
$IIMWV,037,R,07.7,N,A*17
$IIMWV,070,T,05.2,N,A*15
$IIRMC,121724,A,4630.502,N,00636.229,E,04.6,047,031107,,,A*43
$IIVHW,,,046,M,04.2,N,,*60
$IIVLW,00417,N,002.0,N*53
$IIVWR,036,R,07.6,N,,,,*65
$IIDPT,041.9,-1.0,*4C
$IIGLL,4630.504,N,00636.231,E,121726,A,A*52
$IIHDG,046,,,,*55
$IIMTW,+09.0,C*31
$IIMWV,036,R,07.6,N,A*17
$IIMWV,069,T,04.9,N,A*17
$IIRMB,A,0.24,L,,VIDY,,,,,000.28,048,04.6,V,A*69
$IIRMC,121726,A,4630.504,N,00636.231,E,04.6,047,031107,,,A*4E
$IIVHW,,,046,M,04.2,N,,*60
$IIVLW,00417,N,002.0,N*53
$IIVWR,037,R,08.1,N,,,,*6C
$IIDPT,041.9,-1.0,*4C
$IIGLL,4630.504,N,00636.231,E,121726,A,A*52
$IIHDG,046,,,,*55
$IIMTW,+09.0,C*31
$IIMWV,037,R,08.1,N,A*1E
$IIMWV,066,T,05.2,N,A*12
$IIRMB,A,0.24,L,,VIDY,,,,,000.28,048,04.6,V,A*69
$IIRMC,121728,A,4630.506,N,00636.234,E,04.7,048,031107,,,A*49
$IIVHW,,,046,M,04.2,N,,*60
$IIVLW,00417,N,002.0,N*53
$IIVWR,039,R,07.8,N,,,,*64
$IIDPT,039.8,-1.0,*42
$IIGLL,4630.506,N,00636.234,E,121728,A,A*5B
$IIHDG,047,,,,*54
$IIMTW,+08.5,C*35
$IIMWV,044,R,08.3,N,A*18
$IIMWV,071,T,05.1,N,A*17
$IIRMC,121728,A,4630.506,N,00636.234,E,04.7,048,031107,,,A*49
$IIVHW,,,047,M,04.2,N,,*61
$IIVLW,00417,N,002.0,N*53
$IIVWR,044,R,08.3,N,,,,*6A
$IIDPT,041.4,-1.0,*41
$IIGLL,4630.507,N,00636.237,E,121730,A,A*50
$IIHDG,046,,,,*55
$IIMTW,+08.5,C*35
$IIMWV,040,R,07.3,N,A*13
$IIMWV,074,T,05.9,N,A*1A
$IIRMB,A,0.24,L,,VIDY,,,,,000.27,048,04.6,V,A*66
$IIRMC,121730,A,4630.507,N,00636.237,E,04.7,048,031107,,,A*42
$IIVHW,,,046,M,04.2,N,,*60
$IIVLW,00417,N,002.0,N*53
$IIVWR,039,R,08.0,N,,,,*63
$IIDPT,040.4,-1.0,*40
$IIGLL,4630.507,N,00636.237,E,121730,A,A*50
$IIHDG,046,,,,*55
$IIMTW,+08.0,C*30
$IIMWV,039,R,08.0,N,A*11
$IIMWV,074,T,04.7,N,A*15
$IIRMC,121730,A,4630.507,N,00636.237,E,04.7,048,031107,,,A*42
$IIVHW,,,046,M,04.3,N,,*61
$IIVLW,00417,N,002.0,N*53
$IIVWR,040,R,07.9,N,,,,*6B
$IIDPT,036.4,-1.0,*41
$IIGLL,4630.509,N,00636.240,E,121732,A,A*5C
$IIHDG,046,,,,*55
$IIMTW,+09.0,C*31
$IIMWV,040,R,07.9,N,A*19
$IIMWV,069,T,05.3,N,A*1C
$IIRMB,A,0.24,L,,VIDY,,,,,000.27,048,04.7,V,A*67
$IIRMC,121732,A,4630.509,N,00636.240,E,04.6,049,031107,,,A*4E
$IIVHW,,,046,M,04.3,N,,*61
$IIVLW,00417,N,002.0,N*53
$IIVWR,040,R,08.3,N,,,,*6E
$IIDPT,037.2,-1.0,*46
$IIGLL,4630.509,N,00636.240,E,121732,A,A*5C
$IIHDG,046,,,,*55
$IIMTW,+09.0,C*31
$IIMWV,040,R,08.3,N,A*1C
$IIMWV,069,T,05.6,N,A*19
$IIRMB,A,0.23,L,,VIDY,,,,,000.27,048,04.7,V,A*60
$IIRMC,121734,A,4630.511,N,00636.242,E,04.7,047,031107,,,A*4C
$IIVHW,,,046,M,04.3,N,,*61
$IIVLW,00417,N,002.0,N*53
$IIVWR,039,R,08.4,N,,,,*67
$IIDPT,040.9,-1.0,*4D
$IIGLL,4630.511,N,00636.242,E,121734,A,A*51
$IIHDG,046,,,,*55
$IIMTW,+09.0,C*31
$IIMWV,039,R,08.5,N,A*14
$IIMWV,068,T,05.6,N,A*18
$IIRMC,121734,A,4630.511,N,00636.242,E,04.7,047,031107,,,A*4C
$IIVHW,,,046,M,04.3,N,,*61
$IIVLW,00417,N,002.0,N*53
$IIVWR,039,R,08.5,N,,,,*66
$IIDPT,037.3,-1.0,*47
$IIGLL,4630.513,N,00636.245,E,121736,A,A*56
$IIHDG,046,,,,*55
$IIMTW,+08.0,C*30
$IIMWV,039,R,08.6,N,A*17
$IIMWV,067,T,05.7,N,A*16
$IIRMB,A,0.23,L,,VIDY,,,,,000.27,048,04.8,V,A*6F
$IIRMC,121736,A,4630.513,N,00636.245,E,04.8,048,031107,,,A*4B
$IIVHW,,,046,M,04.3,N,,*61
$IIVLW,00417,N,002.0,N*53
$IIVWR,039,R,08.6,N,,,,*65
$IIDPT,035.9,-1.0,*4F
$IIGLL,4630.513,N,00636.245,E,121736,A,A*56
$IIHDG,047,,,,*54
$IIMTW,+08.5,C*35
$IIMWV,039,R,08.6,N,A*17
$IIMWV,067,T,05.8,N,A*19
$IIRMC,121736,A,4630.513,N,00636.245,E,04.8,048,031107,,,A*4B
$IIVHW,,,046,M,04.4,N,,*66
$IIVLW,00417,N,002.0,N*53
$IIVWR,040,R,08.6,N,,,,*6B
$IIDPT,036.8,-1.0,*4D
$IIGLL,4630.515,N,00636.248,E,121738,A,A*53
$IIHDG,046,,,,*55
$IIMTW,+09.0,C*31
$IIMWV,040,R,08.6,N,A*19
$IIMWV,067,T,05.8,N,A*19
$IIRMB,A,0.23,L,,VIDY,,,,,000.26,048,04.8,V,A*6E
$IIRMC,121738,A,4630.515,N,00636.248,E,04.8,047,031107,,,A*41
$IIVHW,,,046,M,04.4,N,,*66
$IIVLW,00417,N,002.0,N*53
$IIVWR,039,R,08.6,N,,,,*65
$IIDPT,036.8,-1.0,*4D
$IIGLL,4630.515,N,00636.248,E,121738,A,A*53
$IIHDG,046,,,,*55
$IIMTW,+09.0,C*31
$IIMWV,039,R,08.6,N,A*17
$IIMWV,067,T,05.8,N,A*19
$IIRMB,A,0.23,L,,VIDY,,,,,000.26,048,04.8,V,A*6E
$IIRMC,121740,A,4630.516,N,00636.251,E,04.9,048,031107,,,A*4B
$IIVHW,,,046,M,04.4,N,,*66
$IIVLW,00417,N,002.0,N*53
$IIVWR,039,R,08.6,N,,,,*65
$IIDPT,035.9,-1.0,*4F
$IIGLL,4630.516,N,00636.251,E,121740,A,A*57
$IIHDG,048,,,,*5B
$IIMTW,+09.0,C*31
$IIMWV,039,R,08.6,N,A*17
$IIMWV,068,T,05.8,N,A*16
$IIRMC,121740,A,4630.516,N,00636.251,E,04.9,048,031107,,,A*4B
$IIVHW,,,048,M,04.4,N,,*68
$IIVLW,00417,N,002.0,N*53
$IIVWR,039,R,08.6,N,,,,*65
$IIDPT,036.8,-1.0,*4D
$IIGLL,4630.518,N,00636.254,E,121742,A,A*5E
$IIHDG,048,,,,*5B
$IIMTW,+09.0,C*31
$IIMWV,038,R,08.6,N,A*16
$IIMWV,067,T,05.7,N,A*16
$IIRMB,A,0.22,L,,VIDY,,,,,000.26,048,04.9,V,A*6E
$IIRMC,121742,A,4630.518,N,00636.254,E,04.9,049,031107,,,A*43
$IIVHW,,,048,M,04.5,N,,*69
$IIVLW,00417,N,002.0,N*53
$IIVWR,000,R,00.0,N,,,,*61
$IIDPT,032.5,-1.0,*44
$IIGLL,4630.520,N,00636.257,E,121744,A,A*50
$IIHDG,048,,,,*5B
$IIMTW,+09.0,C*31
$IIMWV,000,R,00.0,N,A*13
$IIMWV,067,T,05.7,N,A*16
$IIRMB,A,0.22,L,,VIDY,,,,,000.26,048,05.0,V,A*66
$IIRMC,121744,A,4630.520,N,00636.257,E,05.0,050,031107,,,A*4D
$IIVHW,,,048,M,04.5,N,,*69
$IIVLW,00417,N,002.0,N*53
$IIVWR,037,R,08.8,N,,,,*65
$IIDPT,032.5,-1.0,*44
$IIGLL,4630.520,N,00636.257,E,121744,A,A*50
$IIHDG,048,,,,*5B
$IIMTW,+09.0,C*31
$IIMWV,037,R,08.8,N,A*17
$IIMWV,064,T,05.7,N,A*15
$IIRMB,A,0.22,L,,VIDY,,,,,000.25,048,04.9,V,A*6D
$IIRMC,121746,A,4630.522,N,00636.260,E,04.9,049,031107,,,A*49
$IIVHW,,,048,M,04.5,N,,*69
$IIVLW,00417,N,002.0,N*53
$IIVWR,038,R,09.1,N,,,,*62
$IIDPT,032.4,-1.0,*45
$IIGLL,4630.522,N,00636.260,E,121746,A,A*54
$IIHDG,049,,,,*5A
$IIMTW,+09.5,C*34
$IIMWV,038,R,08.9,N,A*19
$IIMWV,066,T,06.1,N,A*12
$IIRMC,121746,A,4630.522,N,00636.260,E,04.9,049,031107,,,A*49
$IIVHW,,,049,M,04.5,N,,*68
$IIVLW,00417,N,002.0,N*53
$IIVWR,038,R,08.9,N,,,,*6B
$IIDPT,032.2,-1.0,*43
$IIGLL,4630.523,N,00636.263,E,121748,A,A*58
$IIHDG,049,,,,*5A
$IIMTW,+09.5,C*34
$IIMWV,038,R,09.2,N,A*13
$IIMWV,067,T,06.0,N,A*12
$IIRMB,A,0.22,L,,VIDY,,,,,000.25,048,04.9,V,A*6D
$IIRMC,121748,A,4630.523,N,00636.263,E,04.9,050,031107,,,A*4D
$IIVHW,,,049,M,04.5,N,,*68
$IIVLW,00417,N,002.0,N*53
$IIVWR,038,R,08.9,N,,,,*6B
$IIDPT,032.2,-1.0,*43
$IIGLL,4630.523,N,00636.263,E,121748,A,A*58
$IIHDG,049,,,,*5A
$IIMTW,+09.5,C*34
$IIMWV,038,R,08.9,N,A*19
$IIMWV,065,T,06.2,N,A*12
$IIRMC,121748,A,4630.523,N,00636.263,E,04.9,050,031107,,,A*4D
$IIVHW,,,049,M,04.5,N,,*68
$IIVLW,00417,N,002.0,N*53
$IIVWR,038,R,09.1,N,,,,*62
$IIDPT,032.0,-1.0,*41
$IIGLL,4630.525,N,00636.266,E,121750,A,A*52
$IIHDG,049,,,,*5A
$IIMTW,+08.5,C*35
$IIMWV,038,R,09.1,N,A*10
$IIMWV,067,T,06.0,N,A*12
$IIRMB,A,0.21,L,,VIDY,,,,,000.25,048,04.9,V,A*6E
$IIRMC,121750,A,4630.525,N,00636.266,E,04.8,051,031107,,,A*47
$IIVHW,,,049,M,04.5,N,,*68
$IIVLW,00417,N,002.0,N*53
$IIVWR,037,R,09.3,N,,,,*6F
$IIDPT,032.0,-1.0,*41
$IIGLL,4630.525,N,00636.266,E,121750,A,A*52
$IIHDG,049,,,,*5A
$IIMTW,+08.0,C*30
$IIMWV,037,R,09.3,N,A*1D
$IIMWV,063,T,06.1,N,A*17
$IIRMB,A,0.21,L,,VIDY,,,,,000.25,048,04.8,V,A*6F
$IIRMC,121752,A,4630.527,N,00636.269,E,04.8,053,031107,,,A*4A
$IIVHW,,,051,M,04.5,N,,*61
$IIVLW,00417,N,002.0,N*53
$IIVWR,036,R,09.5,N,,,,*68
$IIDPT,031.9,-1.0,*4B
$IIGLL,4630.527,N,00636.269,E,121752,A,A*5D
$IIHDG,052,,,,*50
$IIMTW,+08.0,C*30
$IIMWV,036,R,09.1,N,A*1E
$IIMWV,062,T,06.3,N,A*14
$IIRMC,121752,A,4630.527,N,00636.269,E,04.8,053,031107,,,A*4A
$IIVHW,,,052,M,04.5,N,,*62
$IIVLW,00417,N,002.0,N*53
$IIVWR,036,R,09.1,N,,,,*6C
$IIDPT,031.9,-1.0,*4B
$IIGLL,4630.528,N,00636.273,E,121754,A,A*5F
$IIHDG,052,,,,*50
$IIMTW,+08.5,C*35
$IIMWV,036,R,09.2,N,A*1D
$IIMWV,062,T,05.9,N,A*1D
$IIRMB,A,0.21,L,,VIDY,,,,,000.24,048,04.9,V,A*6F
$IIRMC,121754,A,4630.528,N,00636.273,E,04.9,053,031107,,,A*49
$IIVHW,,,052,M,04.5,N,,*62
$IIVLW,00417,N,002.0,N*53
$IIVWR,034,R,09.4,N,,,,*6B
$IIDPT,031.6,-1.0,*44
$IIGLL,4630.528,N,00636.273,E,121754,A,A*5F
$IIHDG,051,,,,*53
$IIMTW,+08.5,C*35
$IIMWV,034,R,09.4,N,A*19
$IIMWV,062,T,06.1,N,A*16
$IIRMC,121754,A,4630.528,N,00636.273,E,04.9,053,031107,,,A*49
$IIVHW,,,053,M,04.5,N,,*63
$IIVLW,00417,N,002.0,N*53
$IIVWR,036,R,09.0,N,,,,*6D
$IIDPT,030.5,-1.0,*46
$IIGLL,4630.530,N,00636.276,E,121756,A,A*51
$IIHDG,053,,,,*51
$IIMTW,+08.5,C*35
$IIMWV,036,R,09.0,N,A*1F
$IIMWV,058,T,06.1,N,A*1F
$IIRMB,A,0.21,L,,VIDY,,,,,000.24,048,04.8,V,A*6E
$IIRMC,121756,A,4630.530,N,00636.276,E,04.9,055,031107,,,A*41
$IIVHW,,,056,M,04.5,N,,*66
$IIVLW,00417,N,002.0,N*53
$IIVWR,036,R,09.3,N,,,,*6E
$IIDPT,029.7,-1.0,*4C
$IIGLL,4630.530,N,00636.276,E,121756,A,A*51
$IIHDG,056,,,,*54
$IIMTW,+08.0,C*30
$IIMWV,036,R,09.3,N,A*1C
$IIMWV,062,T,06.1,N,A*16
$IIRMB,A,0.21,L,,VIDY,,,,,000.24,048,04.8,V,A*6E
$IIRMC,121758,A,4630.531,N,00636.279,E,04.9,058,031107,,,A*4C
$IIVHW,,,055,M,04.5,N,,*65
$IIVLW,00417,N,002.0,N*53
$IIVWR,037,R,09.0,N,,,,*6C
$IIDPT,029.4,-1.0,*4F
$IIGLL,4630.531,N,00636.279,E,121758,A,A*51
$IIHDG,056,,,,*54
$IIMTW,+09.0,C*31
$IIMWV,036,R,09.1,N,A*1E
$IIMWV,064,T,05.9,N,A*1B
$IIRMC,121758,A,4630.531,N,00636.279,E,04.9,058,031107,,,A*4C
$IIVHW,,,056,M,04.6,N,,*65
$IIVLW,00417,N,002.0,N*53
$IIVWR,036,R,09.1,N,,,,*6C
$IIDPT,029.4,-1.0,*4F
$IIGLL,4630.533,N,00636.282,E,121800,A,A*55
$IIHDG,056,,,,*54
$IIMTW,+09.0,C*31
$IIMWV,038,R,09.3,N,A*12
$IIMWV,063,T,05.9,N,A*1C
$IIRMB,A,0.20,L,,VIDY,,,,,000.23,048,04.8,V,A*68
$IIRMC,121800,A,4630.533,N,00636.282,E,04.9,059,031107,,,A*49
$IIVHW,,,056,M,04.6,N,,*65
$IIVLW,00417,N,002.0,N*53
$IIVWR,037,R,09.5,N,,,,*69
$IIDPT,029.4,-1.0,*4F
$IIGLL,4630.533,N,00636.282,E,121800,A,A*55
$IIHDG,057,,,,*55
$IIMTW,+09.0,C*31
$IIMWV,037,R,09.5,N,A*1B
$IIMWV,065,T,06.3,N,A*13
$IIRMC,121800,A,4630.533,N,00636.282,E,04.9,059,031107,,,A*49
$IIVHW,,,057,M,04.6,N,,*64
$IIVLW,00417,N,002.0,N*53
$IIVWR,036,R,09.0,N,,,,*6D
$IIDPT,029.1,-1.0,*4A
$IIGLL,4630.534,N,00636.286,E,121802,A,A*54
$IIHDG,057,,,,*55
$IIMTW,+08.5,C*35
$IIMWV,036,R,09.0,N,A*1F
$IIMWV,062,T,06.4,N,A*13
$IIRMB,A,0.20,L,,VIDY,,,,,000.23,047,04.8,V,A*67
$IIRMC,121804,A,4630.535,N,00636.289,E,04.9,058,031107,,,A*41
$IIVHW,,,056,M,04.6,N,,*65
$IIVLW,00417,N,002.0,N*53
$IIVWR,034,R,08.7,N,,,,*69
$IIDPT,030.0,-1.0,*43
$IIGLL,4630.535,N,00636.289,E,121804,A,A*5C
$IIHDG,056,,,,*54
$IIMTW,+08.0,C*30
$IIMWV,034,R,08.7,N,A*1B
$IIMWV,061,T,05.4,N,A*13
$IIRMB,A,0.20,L,,VIDY,,,,,000.23,047,04.8,V,A*67
$IIRMC,121804,A,4630.535,N,00636.289,E,04.9,058,031107,,,A*41
$IIVHW,,,054,M,04.6,N,,*67
$IIVLW,00417,N,002.0,N*53
$IIVWR,035,R,08.6,N,,,,*69
$IIDPT,029.6,-1.0,*4D
$IIGLL,4630.535,N,00636.289,E,121804,A,A*5C
$IIHDG,054,,,,*56
$IIMTW,+09.0,C*31
$IIMWV,036,R,09.1,N,A*1E
$IIMWV,064,T,05.4,N,A*16
$IIRMB,A,0.20,L,,VIDY,,,,,000.23,047,04.9,V,A*66
$IIRMC,121806,A,4630.537,N,00636.292,E,04.9,056,031107,,,A*45
$IIVHW,,,054,M,04.6,N,,*67
$IIVLW,00417,N,002.0,N*53
$IIVWR,036,R,09.1,N,,,,*6C
$IIDPT,029.7,-1.0,*4C
$IIGLL,4630.537,N,00636.292,E,121806,A,A*56
$IIHDG,054,,,,*56
$IIMTW,+09.0,C*31
$IIMWV,037,R,08.8,N,A*17
$IIMWV,063,T,05.9,N,A*1C
$IIRMC,121806,A,4630.537,N,00636.292,E,04.9,056,031107,,,A*45
$IIVHW,,,054,M,04.6,N,,*67
$IIVLW,00417,N,002.0,N*53
$IIVWR,037,R,09.3,N,,,,*6F
$IIDPT,029.7,-1.0,*4C
$IIGLL,4630.538,N,00636.296,E,121808,A,A*53
$IIHDG,054,,,,*56
$IIMTW,+08.0,C*30
$IIMWV,037,R,09.3,N,A*1D
$IIMWV,065,T,05.7,N,A*14
$IIRMB,A,0.20,L,,VIDY,,,,,000.22,047,04.8,V,A*66
$IIRMC,121808,A,4630.538,N,00636.296,E,05.0,056,031107,,,A*48
$IIVHW,,,054,M,04.6,N,,*67
$IIVLW,00417,N,002.0,N*53
$IIVWR,037,R,08.8,N,,,,*65
$IIDPT,029.4,-1.0,*4F
$IIGLL,4630.538,N,00636.296,E,121808,A,A*53
$IIHDG,054,,,,*56
$IIMTW,+08.0,C*30
$IIMWV,037,R,08.8,N,A*17
$IIMWV,065,T,05.7,N,A*14
$IIRMB,A,0.19,L,,VIDY,,,,,000.22,047,04.9,V,A*6D
$IIRMC,121810,A,4630.540,N,00636.299,E,04.9,055,031107,,,A*4A
$IIVHW,,,053,M,04.6,N,,*60
$IIVLW,00417,N,002.0,N*53
$IIVWR,038,R,08.7,N,,,,*65
$IIDPT,029.4,-1.0,*4F
$IIGLL,4630.540,N,00636.299,E,121810,A,A*5A
$IIHDG,053,,,,*51
$IIMTW,+08.5,C*35
$IIMWV,036,R,08.6,N,A*18
$IIMWV,069,T,05.7,N,A*18
$IIRMC,121810,A,4630.540,N,00636.299,E,04.9,055,031107,,,A*4A
$IIVHW,,,053,M,04.6,N,,*60
$IIVLW,00417,N,002.0,N*53
$IIVWR,036,R,08.6,N,,,,*6A
$IIDPT,028.8,-1.0,*42
$IIGLL,4630.542,N,00636.302,E,121812,A,A*59
$IIHDG,053,,,,*51
$IIMTW,+09.0,C*31
$IIMWV,036,R,09.1,N,A*1E
$IIMWV,066,T,05.4,N,A*14
$IIRMB,A,0.19,L,,VIDY,,,,,000.22,047,04.9,V,A*6D
$IIRMC,121812,A,4630.542,N,00636.302,E,05.0,055,031107,,,A*41
$IIVHW,,,053,M,04.6,N,,*60
$IIVLW,00417,N,002.0,N*53
$IIVWR,038,R,08.2,N,,,,*60
$IIDPT,028.1,-1.0,*4B
$IIGLL,4630.542,N,00636.302,E,121812,A,A*59
$IIHDG,053,,,,*51
$IIMTW,+09.0,C*31
$IIMWV,038,R,08.2,N,A*12
$IIMWV,064,T,05.9,N,A*1B
$IIRMC,121812,A,4630.542,N,00636.302,E,05.0,055,031107,,,A*41
$IIVHW,,,053,M,04.6,N,,*60
$IIVLW,00417,N,002.0,N*53
$IIVWR,038,R,08.4,N,,,,*66
$IIDPT,028.1,-1.0,*4B
$IIGLL,4630.543,N,00636.305,E,121814,A,A*59
$IIHDG,053,,,,*51
$IIMTW,+08.0,C*30
$IIMWV,038,R,08.4,N,A*14
$IIMWV,071,T,05.2,N,A*14
$IIRMB,A,0.19,L,,VIDY,,,,,000.22,047,04.9,V,A*6D
$IIRMC,121814,A,4630.543,N,00636.305,E,04.9,055,031107,,,A*49
$IIVHW,,,053,M,04.6,N,,*60
$IIVLW,00417,N,002.0,N*53
$IIVWR,039,R,09.3,N,,,,*61
$IIDPT,027.2,-1.0,*47
$IIGLL,4630.543,N,00636.305,E,121814,A,A*59
$IIHDG,053,,,,*51
$IIMTW,+08.0,C*30
$IIMWV,039,R,09.3,N,A*13
$IIMWV,067,T,06.3,N,A*11
$IIRMB,A,0.19,L,,VIDY,,,,,000.21,047,04.9,V,A*6E
$IIRMC,121816,A,4630.545,N,00636.309,E,04.9,055,031107,,,A*41
$IIVHW,,,053,M,04.6,N,,*60
$IIVLW,00417,N,002.0,N*53
$IIVWR,039,R,08.9,N,,,,*6A
$IIDPT,027.2,-1.0,*47
$IIGLL,4630.545,N,00636.309,E,121816,A,A*51
$IIHDG,054,,,,*56
$IIMTW,+08.0,C*30
$IIMWV,038,R,08.7,N,A*17
$IIMWV,069,T,06.0,N,A*1C
$IIRMC,121816,A,4630.545,N,00636.309,E,04.9,055,031107,,,A*41
$IIVHW,,,054,M,04.6,N,,*67
$IIVLW,00417,N,002.0,N*53
$IIVWR,038,R,08.7,N,,,,*65
$IIDPT,027.1,-1.0,*44
$IIGLL,4630.546,N,00636.312,E,121818,A,A*56
$IIHDG,055,,,,*57
$IIMTW,+08.0,C*30
$IIMWV,038,R,08.6,N,A*16
$IIMWV,069,T,05.7,N,A*18
$IIRMB,A,0.19,L,,VIDY,,,,,000.21,047,04.9,V,A*6E
$IIRMC,121818,A,4630.546,N,00636.312,E,04.9,057,031107,,,A*44
$IIVHW,,,055,M,04.6,N,,*66
$IIVLW,00417,N,002.0,N*53
$IIVWR,041,R,08.6,N,,,,*6A
$IIDPT,027.1,-1.0,*44
$IIGLL,4630.546,N,00636.312,E,121818,A,A*56
$IIHDG,055,,,,*57
$IIMTW,+09.0,C*31
$IIMWV,041,R,08.6,N,A*18
$IIMWV,069,T,05.6,N,A*19
$IIRMC,121818,A,4630.546,N,00636.312,E,04.9,057,031107,,,A*44
$IIVHW,,,055,M,04.6,N,,*66
$IIVLW,00417,N,002.0,N*53
$IIVWR,040,R,08.6,N,,,,*6B
$IIDPT,027.2,-1.0,*47
$IIGLL,4630.548,N,00636.315,E,121820,A,A*54
$IIHDG,055,,,,*57
$IIMTW,+09.5,C*34
$IIMWV,040,R,08.6,N,A*19
$IIMWV,073,T,05.8,N,A*1C
$IIRMB,A,0.18,L,,VIDY,,,,,000.21,046,04.8,V,A*6F
$IIRMC,121820,A,4630.548,N,00636.315,E,04.8,057,031107,,,A*47
$IIVHW,,,054,M,04.6,N,,*67
$IIVLW,00417,N,002.0,N*53
$IIVWR,038,R,08.2,N,,,,*60
$IIDPT,027.2,-1.0,*47
$IIGLL,4630.548,N,00636.315,E,121820,A,A*54
$IIHDG,054,,,,*56
$IIMTW,+09.5,C*34
$IIMWV,038,R,08.2,N,A*12
$IIMWV,070,T,05.3,N,A*14
$IIRMB,A,0.18,L,,VIDY,,,,,000.21,046,04.8,V,A*6F
$IIRMC,121822,A,4630.549,N,00636.319,E,04.8,057,031107,,,A*48
$IIVHW,,,055,M,04.6,N,,*66
$IIVLW,00417,N,002.0,N*53
$IIVWR,036,R,08.4,N,,,,*68
$IIDPT,026.6,-1.0,*42
$IIGLL,4630.549,N,00636.319,E,121822,A,A*5B
$IIHDG,056,,,,*54
$IIMTW,+09.5,C*34
$IIMWV,035,R,08.0,N,A*1D
$IIMWV,066,T,05.3,N,A*13
$IIRMC,121822,A,4630.549,N,00636.319,E,04.8,057,031107,,,A*48
$IIVHW,,,056,M,04.5,N,,*66
$IIVLW,00417,N,002.0,N*53
$IIVWR,035,R,08.0,N,,,,*6F
$IIDPT,025.7,-1.0,*40
$IIGLL,4630.550,N,00636.322,E,121824,A,A*5D
$IIHDG,056,,,,*54
$IIMTW,+09.5,C*34
$IIMWV,036,R,07.9,N,A*18
$IIMWV,067,T,04.8,N,A*18
$IIRMB,A,0.18,L,,VIDY,,,,,000.20,046,04.7,V,A*61
$IIRMC,121824,A,4630.550,N,00636.322,E,04.8,058,031107,,,A*41
$IIVHW,,,056,M,04.5,N,,*66
$IIVLW,00417,N,002.0,N*53
$IIVWR,034,R,07.8,N,,,,*69
$IIDPT,025.1,-1.0,*46
$IIGLL,4630.550,N,00636.322,E,121824,A,A*5D
$IIHDG,057,,,,*55
$IIMTW,+09.5,C*34
$IIMWV,034,R,07.8,N,A*1B
$IIMWV,070,T,04.9,N,A*1F
$IIRMC,121824,A,4630.550,N,00636.322,E,04.8,058,031107,,,A*41
$IIVHW,,,056,M,04.5,N,,*66
$IIVLW,00417,N,002.0,N*53
$IIVWR,032,R,07.1,N,,,,*66
$IIDPT,024.5,-1.0,*43
$IIGLL,4630.552,N,00636.325,E,121826,A,A*5A
$IIHDG,056,,,,*54
$IIMTW,+08.5,C*35
$IIMWV,032,R,07.1,N,A*14
$IIMWV,066,T,04.7,N,A*16
$IIRMB,A,0.18,L,,VIDY,,,,,000.20,046,04.5,V,A*63
$IIRMC,121826,A,4630.552,N,00636.325,E,04.7,057,031107,,,A*46
$IIVHW,,,057,M,04.4,N,,*66
$IIVLW,00417,N,002.0,N*53
$IIVWR,026,R,07.4,N,,,,*66
$IIDPT,024.9,-1.0,*4F
$IIGLL,4630.552,N,00636.325,E,121826,A,A*5A
$IIHDG,057,,,,*55
$IIMTW,+08.5,C*35
$IIMWV,026,R,07.4,N,A*14
$IIMWV,057,T,03.8,N,A*1C
$IIRMB,A,0.18,L,,VIDY,,,,,000.20,046,04.6,V,A*60
$IIRMC,121828,A,4630.553,N,00636.328,E,04.7,058,031107,,,A*4B
$IIVHW,,,057,M,04.4,N,,*66
$IIVLW,00417,N,002.0,N*53
$IIVWR,025,R,07.0,N,,,,*61
$IIDPT,026.6,-1.0,*42
$IIGLL,4630.553,N,00636.328,E,121828,A,A*58
$IIHDG,056,,,,*54
$IIMTW,+08.0,C*30
$IIMWV,028,R,06.9,N,A*16
$IIMWV,058,T,03.4,N,A*1F
$IIRMC,121828,A,4630.553,N,00636.328,E,04.7,058,031107,,,A*4B
$IIVHW,,,056,M,04.4,N,,*67
$IIVLW,00417,N,002.0,N*53
$IIVWR,028,R,06.9,N,,,,*64
$IIDPT,026.1,-1.0,*45
$IIGLL,4630.554,N,00636.331,E,121830,A,A*5E
$IIHDG,054,,,,*56
$IIMTW,+08.0,C*30
$IIMWV,035,R,06.8,N,A*1B
$IIMWV,063,T,03.5,N,A*16
$IIRMB,A,0.17,L,,VIDY,,,,,000.20,046,04.6,V,A*6F
$IIRMC,121830,A,4630.554,N,00636.331,E,04.6,056,031107,,,A*42
$IIVHW,,,054,M,04.4,N,,*65
$IIVLW,00417,N,002.0,N*53
$IIVWR,033,R,06.6,N,,,,*61
$IIDPT,027.4,-1.0,*41
$IIGLL,4630.554,N,00636.331,E,121830,A,A*5E
$IIHDG,054,,,,*56
$IIMTW,+08.5,C*35
$IIMWV,033,R,06.6,N,A*13
$IIMWV,074,T,03.9,N,A*1C
$IIRMC,121830,A,4630.554,N,00636.331,E,04.6,056,031107,,,A*42
$IIVHW,,,054,M,04.3,N,,*62
$IIVLW,00417,N,002.0,N*53
$IIVWR,036,R,07.1,N,,,,*62
$IIDPT,027.4,-1.0,*41
$IIGLL,4630.556,N,00636.334,E,121832,A,A*5B
$IIHDG,054,,,,*56
$IIMTW,+08.0,C*30
$IIMWV,036,R,07.1,N,A*10
$IIMWV,073,T,03.6,N,A*14
$IIRMB,A,0.17,L,,VIDY,,,,,000.19,046,04.5,V,A*66
$IIRMC,121832,A,4630.556,N,00636.334,E,04.6,055,031107,,,A*44
$IIVHW,,,054,M,04.3,N,,*62
$IIVLW,00417,N,002.0,N*53
$IIVWR,036,R,06.8,N,,,,*6A
$IIDPT,025.6,-1.0,*41
$IIGLL,4630.556,N,00636.334,E,121832,A,A*5B
$IIHDG,054,,,,*56
$IIMTW,+08.0,C*30
$IIMWV,036,R,06.8,N,A*18
$IIMWV,075,T,04.1,N,A*12
$IIRMB,A,0.17,L,,VIDY,,,,,000.19,045,04.6,V,A*66
$IIRMC,121834,A,4630.557,N,00636.338,E,04.8,057,031107,,,A*43
$IIVHW,,,053,M,04.3,N,,*65
$IIVLW,00417,N,002.0,N*53
$IIVWR,036,R,07.4,N,,,,*67
$IIDPT,024.7,-1.0,*41
$IIGLL,4630.557,N,00636.338,E,121834,A,A*50
$IIHDG,053,,,,*51
$IIMTW,+08.5,C*35
$IIMWV,036,R,06.9,N,A*19
$IIMWV,070,T,04.5,N,A*13
$IIRMC,121834,A,4630.557,N,00636.338,E,04.8,057,031107,,,A*43
$IIVHW,,,053,M,04.3,N,,*65
$IIVLW,00417,N,002.0,N*53
$IIVWR,036,R,06.9,N,,,,*6B
$IIDPT,024.7,-1.0,*41
$IIGLL,4630.559,N,00636.341,E,121836,A,A*52
$IIHDG,054,,,,*56
$IIMTW,+08.5,C*35
$IIMWV,035,R,07.1,N,A*13
$IIMWV,073,T,04.1,N,A*14
$IIRMB,A,0.17,L,,VIDY,,,,,000.19,045,04.6,V,A*66
$IIRMC,121836,A,4630.559,N,00636.341,E,04.5,055,031107,,,A*4E
$IIVHW,,,054,M,04.3,N,,*62
$IIVLW,00417,N,002.0,N*53
$IIVWR,038,R,07.3,N,,,,*6E
$IIDPT,024.1,-1.0,*47
$IIGLL,4630.559,N,00636.341,E,121836,A,A*52
$IIHDG,052,,,,*50
$IIMTW,+08.5,C*35
$IIMWV,038,R,07.3,N,A*1C
$IIMWV,069,T,04.2,N,A*1C
$IIRMC,121836,A,4630.559,N,00636.341,E,04.5,055,031107,,,A*4E
$IIVHW,,,053,M,04.2,N,,*64
$IIVLW,00417,N,002.0,N*53
$IIVWR,035,R,07.0,N,,,,*60
$IIDPT,024.5,-1.0,*43
$IIGLL,4630.560,N,00636.344,E,121838,A,A*53
$IIHDG,053,,,,*51
$IIMTW,+08.5,C*35
$IIMWV,035,R,07.0,N,A*12
$IIMWV,073,T,04.7,N,A*12
$IIRMB,A,0.17,L,,VIDY,,,,,000.19,045,04.5,V,A*65
$IIRMC,121838,A,4630.560,N,00636.344,E,04.5,054,031107,,,A*4E
$IIVHW,,,052,M,04.2,N,,*65
$IIVLW,00417,N,002.0,N*53
$IIVWR,033,R,06.9,N,,,,*6E
$IIDPT,024.5,-1.0,*43
$IIGLL,4630.560,N,00636.344,E,121838,A,A*53
$IIHDG,052,,,,*50
$IIMTW,+09.0,C*31
$IIMWV,033,R,06.9,N,A*1C
$IIMWV,068,T,03.9,N,A*11
$IIRMB,A,0.16,L,,VIDY,,,,,000.18,045,04.4,V,A*64
$IIRMC,121840,A,4630.562,N,00636.346,E,04.6,053,031107,,,A*45
$IIVHW,,,052,M,04.2,N,,*65
$IIVLW,00417,N,002.1,N*52
$IIVWR,036,R,05.9,N,,,,*68
$IIDPT,023.5,-1.0,*44
$IIGLL,4630.562,N,00636.346,E,121840,A,A*5C
$IIHDG,050,,,,*52
$IIMTW,+08.5,C*35
$IIMWV,040,R,07.0,N,A*10
$IIMWV,081,T,03.4,N,A*1B
$IIRMC,121840,A,4630.562,N,00636.346,E,04.6,053,031107,,,A*45
$IIVHW,,,050,M,04.2,N,,*67
$IIVLW,00417,N,002.1,N*52
$IIVWR,040,R,07.0,N,,,,*62
$IIDPT,024.3,-1.0,*45
$IIGLL,4630.563,N,00636.349,E,121842,A,A*50
$IIHDG,050,,,,*52
$IIMTW,+09.0,C*31
$IIMWV,041,R,06.9,N,A*19
$IIMWV,076,T,04.5,N,A*15
$IIRMB,A,0.16,L,,VIDY,,,,,000.18,045,04.3,V,A*63
$IIRMC,121842,A,4630.563,N,00636.349,E,04.5,050,031107,,,A*49
$IIVHW,,,050,M,04.2,N,,*67
$IIVLW,00417,N,002.1,N*52
$IIVWR,000,R,00.0,N,,,,*61
$IIDPT,024.4,-1.0,*42
$IIGLL,4630.563,N,00636.349,E,121842,A,A*50
$IIHDG,049,,,,*5A
$IIMTW,+09.0,C*31
$IIMWV,000,R,00.0,N,A*13
$IIMWV,079,T,04.5,N,A*1A
$IIRMC,121842,A,4630.563,N,00636.349,E,04.5,050,031107,,,A*49
$IIVHW,,,048,M,04.1,N,,*6D
$IIVLW,00417,N,002.1,N*52
$IIVWR,044,R,08.0,N,,,,*69
$IIDPT,023.2,-1.0,*43
$IIGLL,4630.565,N,00636.352,E,121844,A,A*5A
$IIHDG,048,,,,*5B
$IIMTW,+09.0,C*31
$IIMWV,044,R,08.0,N,A*1B
$IIMWV,000,T,04.2,N,A*13
$IIRMB,A,0.16,L,,VIDY,,,,,000.18,045,04.5,V,A*65
$IIRMC,121844,A,4630.565,N,00636.352,E,04.5,048,031107,,,A*4A
$IIVHW,,,048,M,04.1,N,,*6D
$IIVLW,00417,N,002.1,N*52
$IIVWR,044,R,08.3,N,,,,*6A
$IIDPT,023.2,-1.0,*43
$IIGLL,4630.565,N,00636.352,E,121844,A,A*5A
$IIHDG,048,,,,*5B
$IIMTW,+09.0,C*31
$IIMWV,044,R,08.3,N,A*18
$IIMWV,073,T,05.9,N,A*1D
$IIRMB,A,0.16,L,,VIDY,,,,,000.18,045,04.6,V,A*66
$IIRMC,121846,A,4630.566,N,00636.355,E,04.6,049,031107,,,A*4E
$IIVHW,,,048,M,04.1,N,,*6D
$IIVLW,00417,N,002.1,N*52
$IIVWR,043,R,07.8,N,,,,*69
$IIDPT,024.2,-1.0,*44
$IIGLL,4630.566,N,00636.355,E,121846,A,A*5C
$IIHDG,048,,,,*5B
$IIMTW,+09.5,C*34
$IIMWV,043,R,08.2,N,A*1E
$IIMWV,075,T,05.4,N,A*16
$IIRMC,121846,A,4630.566,N,00636.355,E,04.6,049,031107,,,A*4E
$IIVHW,,,048,M,04.1,N,,*6D
$IIVLW,00417,N,002.1,N*52
$IIVWR,043,R,08.2,N,,,,*6C
$IIDPT,023.8,-1.0,*49
$IIGLL,4630.568,N,00636.358,E,121848,A,A*51
$IIHDG,048,,,,*5B
$IIMTW,+09.5,C*34
$IIMWV,046,R,07.5,N,A*13
$IIMWV,073,T,05.7,N,A*13
$IIRMB,A,0.16,L,,VIDY,,,,,000.17,045,04.5,V,A*6A
$IIRMC,121848,A,4630.568,N,00636.358,E,04.5,049,031107,,,A*40
$IIVHW,,,048,M,04.2,N,,*6E
$IIVLW,00417,N,002.1,N*52
$IIVWR,046,R,08.2,N,,,,*69
$IIDPT,023.2,-1.0,*43
$IIGLL,4630.568,N,00636.358,E,121848,A,A*51
$IIHDG,047,,,,*54
$IIMTW,+09.5,C*34
$IIMWV,046,R,08.2,N,A*1B
$IIMWV,081,T,05.4,N,A*1D
$IIRMC,121848,A,4630.568,N,00636.358,E,04.5,049,031107,,,A*40
$IIVHW,,,047,M,04.2,N,,*61
$IIVLW,00417,N,002.1,N*52
$IIVWR,042,R,07.9,N,,,,*69
$IIDPT,023.1,-1.0,*40
$IIGLL,4630.570,N,00636.360,E,121850,A,A*5A
$IIHDG,047,,,,*54
$IIMTW,+09.5,C*34
$IIMWV,042,R,07.9,N,A*1B
$IIMWV,077,T,06.0,N,A*13
$IIRMB,A,0.15,L,,VIDY,,,,,000.17,045,04.5,V,A*69
$IIRMC,121850,A,4630.570,N,00636.360,E,04.5,048,031107,,,A*4A
$IIVHW,,,046,M,04.2,N,,*60
$IIVLW,00417,N,002.1,N*52
$IIVWR,042,R,07.6,N,,,,*66
