$IIHDG,052,,,,*50
$IIMTW,+12.0,C*3B
$IIMWV,251,R,01.5,N,A*11
$IIMWV,241,T,01.2,N,A*11
$IIRMC,164800,A,4629.821,N,00640.621,E,01.3,064,280508,,,A*40
$IIVHW,,,052,M,00.1,N,,*62
$IIVWR,109,L,01.5,N,,,,*73
$IIDPT,047.5,-1.0,*46
$IIGLL,4629.822,N,00640.622,E,164802,A,A*5C
$IIHDG,052,,,,*50
$IIMTW,+12.0,C*3B
$IIMWV,250,R,01.3,N,A*16
$IIMWV,247,T,01.5,N,A*10
$IIRMB,A,0.31,R,,VIDY,,,,,002.94,287,-00.9,V,A*51
$IIRMC,164802,A,4629.822,N,00640.622,E,01.2,063,280508,,,A*44
$IIVHW,,,052,M,00.1,N,,*62
$IIVWR,114,L,01.4,N,,,,*7E
$IIDPT,047.5,-1.0,*46
$IIGLL,4629.822,N,00640.622,E,164802,A,A*5C
$IIHDG,052,,,,*50
$IIMTW,+12.0,C*3B
$IIMWV,246,R,01.4,N,A*16
$IIMWV,247,T,01.3,N,A*16
$IIRMC,164802,A,4629.822,N,00640.622,E,01.2,063,280508,,,A*44
$IIVHW,,,051,M,00.1,N,,*61
$IIVWR,109,L,01.3,N,,,,*75
$IIDPT,073.9,-1.0,*4D
$IIGLL,4629.822,N,00640.623,E,164804,A,A*5B
$IIHDG,051,,,,*53
$IIMTW,+12.0,C*3B
$IIMWV,251,R,01.3,N,A*17
$IIMWV,243,T,01.3,N,A*12
$IIRMB,A,0.31,R,,VIDY,,,,,002.94,287,-00.9,V,A*51
$IIRMC,164806,A,4629.822,N,00640.624,E,01.2,061,280508,,,A*44
$IIVHW,,,050,M,00.1,N,,*60
$IIVWR,112,L,01.3,N,,,,*7F
$IIDPT,064.8,-1.0,*4A
$IIGLL,4629.822,N,00640.624,E,164806,A,A*5E
$IIHDG,050,,,,*52
$IIMTW,+12.0,C*3B
$IIMWV,248,R,01.3,N,A*1F
$IIMWV,247,T,01.3,N,A*16
$IIRMB,A,0.31,R,,VIDY,,,,,002.94,287,-00.8,V,A*50
$IIRMC,164806,A,4629.822,N,00640.624,E,01.2,061,280508,,,A*44
$IIVHW,,,049,M,00.0,N,,*69
$IIVWR,110,L,01.4,N,,,,*7A
$IIDPT,064.8,-1.0,*4A
$IIGLL,4629.822,N,00640.624,E,164806,A,A*5E
$IIHDG,048,,,,*5B
$IIMTW,+12.0,C*3B
$IIMWV,250,R,01.2,N,A*17
$IIMWV,249,T,01.3,N,A*18
$IIRMC,164808,A,4629.823,N,00640.625,E,01.2,057,280508,,,A*4F
$IIVHW,,,048,M,00.0,N,,*68
$IIVWR,110,L,01.2,N,,,,*7C
$IIDPT,064.8,-1.0,*4A
$IIGLL,4629.823,N,00640.625,E,164808,A,A*50
$IIHDG,047,,,,*54
$IIMTW,+12.0,C*3B
$IIMWV,252,R,01.4,N,A*13
$IIMWV,245,T,01.2,N,A*15
$IIRMB,A,0.31,R,,VIDY,,,,,002.94,287,-00.8,V,A*50
$IIRMC,164808,A,4629.823,N,00640.625,E,01.2,057,280508,,,A*4F
$IIVHW,,,047,M,00.0,N,,*67
$IIVWR,107,L,01.3,N,,,,*7B
$IIDPT,057.6,-1.0,*44
$IIGLL,4629.823,N,00640.625,E,164810,A,A*59
$IIHDG,046,,,,*55
$IIMTW,+12.0,C*3B
$IIMWV,253,R,01.3,N,A*15
$IIMWV,249,T,01.3,N,A*18
$IIRMC,164810,A,4629.823,N,00640.625,E,01.3,052,280508,,,A*42
$IIVHW,,,045,M,00.0,N,,*65
$IIVWR,104,L,01.4,N,,,,*7F
$IIDPT,057.6,-1.0,*44
$IIGLL,4629.823,N,00640.625,E,164810,A,A*59
$IIHDG,045,,,,*56
$IIMTW,+12.0,C*3B
$IIMWV,256,R,01.4,N,A*17
$IIMWV,252,T,01.2,N,A*13
$IIRMB,A,0.31,R,,VIDY,,,,,002.94,287,-00.8,V,A*50
$IIRMC,164810,A,4629.823,N,00640.625,E,01.3,052,280508,,,A*42
$IIVHW,,,044,M,00.0,N,,*64
$IIVWR,106,L,01.5,N,,,,*7C
$IIDPT,031.1,-1.0,*43
$IIGLL,4629.823,N,00640.625,E,164810,A,A*59
$IIHDG,044,,,,*57
$IIMTW,+12.0,C*3B
$IIMWV,254,R,01.5,N,A*14
$IIMWV,250,T,01.4,N,A*17
$IIRMB,A,0.31,R,,VIDY,,,,,002.94,287,-00.8,V,A*50
$IIRMC,164812,A,4629.823,N,00640.626,E,01.1,055,280508,,,A*46
$IIVHW,,,043,M,00.0,N,,*63
$IIVWR,099,L,01.3,N,,,,*7D
$IIDPT,031.1,-1.0,*43
$IIGLL,4629.823,N,00640.626,E,164812,A,A*58
$IIHDG,042,,,,*51
$IIMTW,+12.0,C*3B
$IIMWV,257,R,01.5,N,A*17
$IIMWV,256,T,01.2,N,A*17
$IIRMC,164812,A,4629.823,N,00640.626,E,01.1,055,280508,,,A*46
$IIVHW,,,042,M,00.1,N,,*63
$IIVWR,103,L,01.5,N,,,,*79
$IIDPT,031.1,-1.0,*43
$IIGLL,4629.824,N,00640.627,E,164814,A,A*58
$IIHDG,041,,,,*52
$IIMTW,+12.0,C*3B
$IIMWV,261,R,01.3,N,A*14
$IIMWV,250,T,01.4,N,A*17
$IIRMB,A,0.31,R,,VIDY,,,,,002.94,287,-00.7,V,A*5F
$IIRMC,164814,A,4629.824,N,00640.627,E,01.2,049,280508,,,A*48
$IIVHW,,,041,M,00.1,N,,*60
$IIVWR,097,L,01.5,N,,,,*75
$IIDPT,025.6,-1.0,*41
$IIGLL,4629.824,N,00640.628,E,164816,A,A*55
$IIHDG,038,,,,*5C
$IIMTW,+12.0,C*3B
$IIMWV,263,R,01.5,N,A*10
$IIMWV,257,T,01.3,N,A*17
$IIRMB,A,0.31,R,,VIDY,,,,,002.95,287,-00.7,V,A*5E
$IIRMC,164816,A,4629.824,N,00640.628,E,01.1,054,280508,,,A*4A
$IIVHW,,,036,M,00.0,N,,*61
$IIVWR,095,L,01.3,N,,,,*71
$IIDPT,041.1,-1.0,*44
$IIGLL,4629.824,N,00640.628,E,164816,A,A*55
$IIHDG,036,,,,*52
$IIMTW,+12.0,C*3B
$IIMWV,265,R,01.3,N,A*10
$IIMWV,261,T,01.3,N,A*12
$IIRMB,A,0.31,R,,VIDY,,,,,002.95,287,-00.6,V,A*5F
$IIRMC,164818,A,4629.825,N,00640.629,E,01.2,049,280508,,,A*4B
$IIVHW,,,035,M,00.1,N,,*63
$IIVWR,093,L,01.5,N,,,,*71
$IIDPT,048.3,-1.0,*4F
$IIGLL,4629.825,N,00640.629,E,164818,A,A*5B
$IIHDG,033,,,,*57
$IIMTW,+12.0,C*3B
$IIMWV,268,R,01.6,N,A*18
$IIMWV,262,T,01.5,N,A*17
$IIRMC,164818,A,4629.825,N,00640.629,E,01.2,049,280508,,,A*4B
$IIVHW,,,033,M,00.2,N,,*66
$IIVWR,092,L,01.6,N,,,,*73
$IIDPT,048.3,-1.0,*4F
$IIGLL,4629.825,N,00640.629,E,164820,A,A*50
$IIHDG,032,,,,*56
$IIMTW,+12.0,C*3B
$IIMWV,268,R,01.7,N,A*19
$IIMWV,263,T,01.6,N,A*15
$IIRMB,A,0.31,R,,VIDY,,,,,002.95,287,-00.4,V,A*5D
$IIRMC,164820,A,4629.825,N,00640.629,E,01.1,049,280508,,,A*43
$IIVHW,,,032,M,00.1,N,,*64
$IIVWR,090,L,01.7,N,,,,*70
$IIDPT,056.6,-1.0,*45
$IIGLL,4629.825,N,00640.629,E,164820,A,A*50
$IIHDG,032,,,,*56
$IIMTW,+12.0,C*3B
$IIMWV,270,R,01.7,N,A*10
$IIMWV,263,T,01.7,N,A*14
$IIRMC,164820,A,4629.825,N,00640.629,E,01.1,049,280508,,,A*43
$IIVHW,,,030,M,00.1,N,,*66
$IIVWR,090,L,01.8,N,,,,*7F
$IIDPT,061.5,-1.0,*42
$IIGLL,4629.826,N,00640.630,E,164822,A,A*59
$IIHDG,030,,,,*54
$IIMTW,+12.0,C*3B
$IIMWV,270,R,01.8,N,A*1F
$IIMWV,267,T,01.7,N,A*10
$IIRMB,A,0.31,R,,VIDY,,,,,002.95,287,-00.5,V,A*5C
$IIRMC,164822,A,4629.826,N,00640.630,E,01.1,049,280508,,,A*4A
$IIVHW,,,030,M,00.0,N,,*67
$IIVWR,089,L,01.7,N,,,,*78
$IIDPT,059.4,-1.0,*48
$IIGLL,4629.826,N,00640.630,E,164822,A,A*59
$IIHDG,030,,,,*54
$IIMTW,+12.0,C*3B
$IIMWV,271,R,01.7,N,A*11
$IIMWV,267,T,01.7,N,A*10
$IIRMB,A,0.30,R,,VIDY,,,,,002.95,287,-00.4,V,A*5C
$IIRMC,164824,A,4629.826,N,00640.630,E,01.3,040,280508,,,A*47
$IIVHW,,,028,M,00.0,N,,*6E
$IIVWR,089,L,01.8,N,,,,*77
$IIDPT,059.4,-1.0,*48
$IIGLL,4629.826,N,00640.630,E,164824,A,A*5F
$IIHDG,029,,,,*5C
$IIMTW,+12.0,C*3B
$IIMWV,270,R,01.9,N,A*1E
$IIMWV,267,T,01.8,N,A*1F
$IIRMC,164824,A,4629.826,N,00640.630,E,01.3,040,280508,,,A*47
$IIVHW,,,029,M,00.0,N,,*6F
$IIVWR,090,L,01.9,N,,,,*7E
$IIDPT,051.0,-1.0,*44
$IIGLL,4629.827,N,00640.631,E,164826,A,A*5D
$IIHDG,028,,,,*5D
$IIMTW,+11.5,C*3D
$IIMWV,271,R,01.9,N,A*1F
$IIMWV,267,T,01.9,N,A*1E
$IIRMB,A,0.30,R,,VIDY,,,,,002.95,287,-00.4,V,A*5C
$IIRMC,164826,A,4629.827,N,00640.631,E,01.1,045,280508,,,A*42
$IIVHW,,,028,M,00.0,N,,*6E
$IIVWR,093,L,01.9,N,,,,*7D
$IIDPT,041.1,-1.0,*44
$IIGLL,4629.827,N,00640.631,E,164826,A,A*5D
$IIHDG,028,,,,*5D
$IIMTW,+11.5,C*3D
$IIMWV,267,R,01.9,N,A*18
$IIMWV,267,T,01.9,N,A*1E
$IIRMC,164826,A,4629.827,N,00640.631,E,01.1,045,280508,,,A*42
$IIVHW,,,029,M,00.0,N,,*6F
$IIVWR,091,L,01.9,N,,,,*7F
$IIDPT,032.2,-1.0,*43
$IIGLL,4629.827,N,00640.631,E,164828,A,A*53
$IIHDG,029,,,,*5C
$IIMTW,+11.5,C*3D
$IIMWV,269,R,01.9,N,A*16
$IIMWV,267,T,01.9,N,A*1E
$IIRMB,A,0.30,R,,VIDY,,,,,002.95,287,-00.4,V,A*5C
$IIRMC,164828,A,4629.827,N,00640.631,E,01.2,044,280508,,,A*4E
$IIVHW,,,028,M,00.0,N,,*6E
$IIVWR,092,L,01.8,N,,,,*7D
$IIDPT,032.2,-1.0,*43
$IIGLL,4629.827,N,00640.631,E,164828,A,A*53
$IIHDG,028,,,,*5D
$IIMTW,+11.5,C*3D
$IIMWV,268,R,01.8,N,A*16
$IIMWV,268,T,01.8,N,A*10
$IIRMB,A,0.30,R,,VIDY,,,,,002.95,287,-00.5,V,A*5D
$IIRMC,164830,A,4629.827,N,00640.632,E,01.2,044,280508,,,A*44
$IIVHW,,,028,M,00.0,N,,*6E
$IIVWR,092,L,01.9,N,,,,*7C
$IIDPT,039.6,-1.0,*4C
$IIGLL,4629.827,N,00640.632,E,164830,A,A*59
$IIHDG,028,,,,*5D
$IIMTW,+11.5,C*3D
$IIMWV,269,R,01.9,N,A*16
$IIMWV,268,T,01.9,N,A*11
$IIRMC,164830,A,4629.827,N,00640.632,E,01.2,044,280508,,,A*44
$IIVHW,,,028,M,00.0,N,,*6E
$IIVWR,091,L,01.9,N,,,,*7F
$IIDPT,039.6,-1.0,*4C
$IIGLL,4629.828,N,00640.633,E,164832,A,A*55
$IIHDG,028,,,,*5D
$IIMTW,+11.5,C*3D
$IIMWV,268,R,01.7,N,A*19
$IIMWV,269,T,01.9,N,A*10
$IIRMB,A,0.30,R,,VIDY,,,,,002.95,287,-00.5,V,A*5D
$IIRMC,164832,A,4629.828,N,00640.633,E,01.3,045,280508,,,A*48
$IIVHW,,,028,M,00.0,N,,*6E
$IIVWR,092,L,01.7,N,,,,*72
$IIDPT,040.3,-1.0,*47
$IIGLL,4629.828,N,00640.633,E,164832,A,A*55
$IIHDG,028,,,,*5D
$IIMTW,+11.5,C*3D
$IIMWV,268,R,01.7,N,A*19
$IIMWV,268,T,01.7,N,A*1F
$IIRMC,164832,A,4629.828,N,00640.633,E,01.3,045,280508,,,A*48
$IIVHW,,,028,M,00.0,N,,*6E
$IIVWR,091,L,01.8,N,,,,*7E
$IIDPT,042.5,-1.0,*43
$IIGLL,4629.828,N,00640.633,E,164834,A,A*53
$IIHDG,028,,,,*5D
$IIMTW,+11.5,C*3D
$IIMWV,269,R,01.8,N,A*17
$IIMWV,268,T,01.7,N,A*1F
$IIRMB,A,0.30,R,,VIDY,,,,,002.95,287,-00.5,V,A*5D
$IIRMC,164834,A,4629.828,N,00640.633,E,01.1,042,280508,,,A*4B
$IIVHW,,,029,M,00.0,N,,*6F
$IIVWR,092,L,01.6,N,,,,*73
$IIDPT,040.5,-1.0,*41
$IIGLL,4629.828,N,00640.633,E,164834,A,A*53
$IIHDG,029,,,,*5C
$IIMTW,+11.5,C*3D
$IIMWV,268,R,01.6,N,A*18
$IIMWV,268,T,01.6,N,A*1E
$IIRMB,A,0.30,R,,VIDY,,,,,002.95,287,-00.5,V,A*5D
$IIRMC,164836,A,4629.829,N,00640.634,E,01.1,038,280508,,,A*42
$IIVHW,,,028,M,00.0,N,,*6E
$IIVWR,086,L,01.6,N,,,,*76
$IIDPT,041.7,-1.0,*42
$IIGLL,4629.829,N,00640.634,E,164836,A,A*57
$IIHDG,028,,,,*5D
$IIMTW,+11.5,C*3D
$IIMWV,270,R,01.7,N,A*10
$IIMWV,274,T,01.6,N,A*13
$IIRMC,164836,A,4629.829,N,00640.634,E,01.1,038,280508,,,A*42
$IIVHW,,,028,M,00.0,N,,*6E
$IIVWR,090,L,01.7,N,,,,*70
$IIDPT,041.7,-1.0,*42
$IIGLL,4629.829,N,00640.635,E,164838,A,A*58
$IIHDG,028,,,,*5D
$IIMTW,+11.5,C*3D
$IIMWV,272,R,01.6,N,A*13
$IIMWV,270,T,01.7,N,A*16
$IIRMB,A,0.30,R,,VIDY,,,,,002.95,287,-00.5,V,A*5D
$IIRMC,164838,A,4629.829,N,00640.635,E,01.3,042,280508,,,A*42
$IIVHW,,,028,M,00.0,N,,*6E
$IIVWR,091,L,01.5,N,,,,*73
$IIDPT,040.3,-1.0,*47
$IIGLL,4629.829,N,00640.635,E,164838,A,A*58
$IIHDG,028,,,,*5D
$IIMTW,+11.5,C*3D
$IIMWV,269,R,01.5,N,A*1A
$IIMWV,272,T,01.6,N,A*15
$IIRMC,164838,A,4629.829,N,00640.635,E,01.3,042,280508,,,A*42
$IIVHW,,,028,M,00.0,N,,*6E
$IIVWR,094,L,01.6,N,,,,*75
$IIDPT,037.6,-1.0,*42
$IIGLL,4629.830,N,00640.635,E,164840,A,A*5F
$IIHDG,028,,,,*5D
$IIMTW,+11.5,C*3D
$IIMWV,266,R,01.6,N,A*16
$IIMWV,269,T,01.5,N,A*1C
$IIRMB,A,0.30,R,,VIDY,,,,,002.95,287,-00.4,V,A*5C
$IIRMC,164840,A,4629.830,N,00640.635,E,01.2,040,280508,,,A*46
$IIVHW,,,028,M,00.0,N,,*6E
$IIVWR,091,L,01.5,N,,,,*73
$IIDPT,043.7,-1.0,*40
$IIGLL,4629.830,N,00640.635,E,164840,A,A*5F
$IIHDG,028,,,,*5D
$IIMTW,+11.5,C*3D
$IIMWV,269,R,01.5,N,A*1A
$IIMWV,269,T,01.5,N,A*1C
$IIRMB,A,0.30,R,,VIDY,,,,,002.95,287,-00.6,V,A*5E
$IIRMC,164842,A,4629.830,N,00640.636,E,01.1,037,280508,,,A*44
$IIVHW,,,028,M,00.0,N,,*6E
$IIVWR,093,L,01.5,N,,,,*71
$IIDPT,043.7,-1.0,*40
$IIGLL,4629.830,N,00640.636,E,164842,A,A*5E
$IIHDG,028,,,,*5D
$IIMTW,+11.5,C*3D
$IIMWV,264,R,01.7,N,A*15
$IIMWV,267,T,01.5,N,A*12
$IIRMC,164842,A,4629.830,N,00640.636,E,01.1,037,280508,,,A*44
$IIVHW,,,028,M,00.0,N,,*6E
$IIVWR,096,L,01.7,N,,,,*76
$IIDPT,043.7,-1.0,*40
$IIGLL,4629.831,N,00640.636,E,164844,A,A*59
$IIHDG,028,,,,*5D
$IIMTW,+12.0,C*3B
$IIMWV,269,R,01.6,N,A*19
$IIMWV,264,T,01.7,N,A*13
$IIRMB,A,0.30,R,,VIDY,,,,,002.95,287,-00.5,V,A*5D
$IIRMC,164844,A,4629.831,N,00640.636,E,01.1,041,280508,,,A*42
$IIVHW,,,028,M,00.0,N,,*6E
$IIVWR,097,L,01.5,N,,,,*75
$IIDPT,044.5,-1.0,*45
$IIGLL,4629.831,N,00640.636,E,164844,A,A*59
$IIHDG,028,,,,*5D
$IIMTW,+12.0,C*3B
$IIMWV,263,R,01.5,N,A*10
$IIMWV,269,T,01.6,N,A*1F
$IIRMC,164844,A,4629.831,N,00640.636,E,01.1,041,280508,,,A*42
$IIVHW,,,028,M,00.0,N,,*6E
$IIVWR,092,L,01.7,N,,,,*72
$IIDPT,050.8,-1.0,*4D
$IIGLL,4629.831,N,00640.637,E,164846,A,A*5A
$IIHDG,028,,,,*5D
$IIMTW,+12.0,C*3B
$IIMWV,268,R,01.7,N,A*19
$IIMWV,263,T,01.5,N,A*16
$IIRMB,A,0.30,R,,VIDY,,,,,002.95,287,-00.4,V,A*5C
$IIRMC,164846,A,4629.831,N,00640.637,E,01.2,043,280508,,,A*40
$IIVHW,,,027,M,00.0,N,,*61
$IIVWR,093,L,01.3,N,,,,*77
$IIDPT,043.3,-1.0,*44
$IIGLL,4629.831,N,00640.637,E,164846,A,A*5A
$IIHDG,027,,,,*52
$IIMTW,+12.0,C*3B
$IIMWV,267,R,01.3,N,A*12
$IIMWV,267,T,01.3,N,A*14
$IIRMB,A,0.30,R,,VIDY,,,,,002.95,287,-00.4,V,A*5C
$IIRMC,164848,A,4629.831,N,00640.638,E,01.2,041,280508,,,A*43
$IIVHW,,,028,M,00.0,N,,*6E
$IIVWR,095,L,01.5,N,,,,*77
$IIDPT,043.3,-1.0,*44
$IIGLL,4629.831,N,00640.638,E,164848,A,A*5B
$IIHDG,028,,,,*5D
$IIMTW,+12.0,C*3B
$IIMWV,267,R,01.2,N,A*13
$IIMWV,265,T,01.5,N,A*10
$IIRMC,164848,A,4629.831,N,00640.638,E,01.2,041,280508,,,A*43
$IIVHW,,,028,M,00.0,N,,*6E
$IIVWR,093,L,01.2,N,,,,*76
$IIDPT,043.3,-1.0,*44
$IIGLL,4629.832,N,00640.638,E,164850,A,A*51
$IIHDG,027,,,,*52
$IIMTW,+12.0,C*3B
$IIMWV,266,R,01.4,N,A*14
$IIMWV,267,T,01.2,N,A*15
$IIRMB,A,0.30,R,,VIDY,,,,,002.95,287,-00.5,V,A*5D
$IIRMC,164850,A,4629.832,N,00640.638,E,01.1,037,280508,,,A*4B
$IIVHW,,,027,M,00.0,N,,*61
$IIVWR,094,L,01.2,N,,,,*71
$IIDPT,009.8,-1.0,*41
$IIGLL,4629.832,N,00640.638,E,164850,A,A*51
$IIHDG,027,,,,*52
$IIMTW,+12.0,C*3B
$IIMWV,266,R,01.2,N,A*12
$IIMWV,266,T,01.4,N,A*12
$IIRMC,164850,A,4629.832,N,00640.638,E,01.1,037,280508,,,A*4B
$IIVHW,,,027,M,00.0,N,,*61
$IIVWR,094,L,01.3,N,,,,*70
$IIDPT,009.7,-1.0,*4E
$IIGLL,4629.832,N,00640.639,E,164852,A,A*52
$IIHDG,027,,,,*52
$IIMTW,+12.0,C*3B
$IIMWV,266,R,01.3,N,A*13
$IIMWV,266,T,01.2,N,A*14
$IIRMB,A,0.30,R,,VIDY,,,,,002.95,287,-00.5,V,A*5D
$IIRMC,164852,A,4629.832,N,00640.639,E,01.1,041,280508,,,A*49
$IIVHW,,,026,M,00.0,N,,*60
$IIVWR,092,L,01.3,N,,,,*76
$IIDPT,009.7,-1.0,*4E
$IIGLL,4629.832,N,00640.639,E,164852,A,A*52
$IIHDG,026,,,,*53
$IIMTW,+12.0,C*3B
$IIMWV,268,R,01.3,N,A*1D
$IIMWV,268,T,01.3,N,A*1B
$IIRMB,A,0.30,R,,VIDY,,,,,002.95,286,-00.5,V,A*5C
$IIRMC,164854,A,4629.833,N,00640.639,E,01.1,039,280508,,,A*41
$IIVHW,,,026,M,00.0,N,,*60
$IIVWR,094,L,01.3,N,,,,*70
$IIDPT,009.7,-1.0,*4E
$IIGLL,4629.833,N,00640.639,E,164854,A,A*55
$IIHDG,027,,,,*52
$IIMTW,+12.0,C*3B
$IIMWV,268,R,01.3,N,A*1D
$IIMWV,266,T,01.3,N,A*15
$IIRMC,164854,A,4629.833,N,00640.639,E,01.1,039,280508,,,A*41
$IIVHW,,,027,M,00.0,N,,*61
$IIVWR,092,L,01.3,N,,,,*76
$IIDPT,009.8,-1.0,*41
$IIGLL,4629.833,N,00640.640,E,164856,A,A*59
$IIHDG,027,,,,*52
$IIMTW,+11.5,C*3D
$IIMWV,265,R,01.3,N,A*10
$IIMWV,268,T,01.3,N,A*1B
$IIRMB,A,0.30,R,,VIDY,,,,,002.95,286,-00.5,V,A*5C
$IIRMC,164856,A,4629.833,N,00640.640,E,01.0,043,280508,,,A*41
$IIVHW,,,027,M,00.0,N,,*61
$IIVWR,097,L,01.5,N,,,,*75
$IIDPT,009.8,-1.0,*41
$IIGLL,4629.833,N,00640.640,E,164856,A,A*59
$IIHDG,027,,,,*52
$IIMTW,+11.5,C*3D
$IIMWV,263,R,01.5,N,A*10
$IIMWV,265,T,01.3,N,A*16
$IIRMC,164856,A,4629.833,N,00640.640,E,01.0,043,280508,,,A*41
$IIVHW,,,027,M,00.0,N,,*61
$IIVWR,094,L,01.3,N,,,,*70
$IIDPT,009.8,-1.0,*41
$IIGLL,4629.834,N,00640.640,E,164858,A,A*50
$IIHDG,027,,,,*52
$IIMTW,+11.5,C*3D
$IIMWV,266,R,01.3,N,A*13
$IIMWV,263,T,01.5,N,A*16
$IIRMB,A,0.30,R,,VIDY,,,,,002.95,286,-00.5,V,A*5C
$IIRMC,164858,A,4629.834,N,00640.640,E,01.1,041,280508,,,A*4B
$IIVHW,,,027,M,00.0,N,,*61
$IIVWR,095,L,01.4,N,,,,*76
$IIDPT,009.8,-1.0,*41
$IIGLL,4629.834,N,00640.640,E,164858,A,A*50
$IIHDG,027,,,,*52
$IIMTW,+11.5,C*3D
$IIMWV,265,R,01.4,N,A*17
$IIMWV,265,T,01.4,N,A*11
$IIRMB,A,0.30,R,,VIDY,,,,,002.95,286,-00.4,V,A*5D
$IIRMC,164900,A,4629.834,N,00640.641,E,01.1,042,280508,,,A*45
$IIVHW,,,026,M,00.0,N,,*60
$IIVWR,099,L,01.3,N,,,,*7D
$IIDPT,009.8,-1.0,*41
$IIGLL,4629.834,N,00640.641,E,164900,A,A*5D
$IIHDG,026,,,,*53
$IIMTW,+11.5,C*3D
$IIMWV,264,R,01.3,N,A*11
$IIMWV,261,T,01.3,N,A*12
$IIRMC,164900,A,4629.834,N,00640.641,E,01.1,042,280508,,,A*45
$IIVHW,,,026,M,00.0,N,,*60
$IIVWR,096,L,01.3,N,,,,*72
$IIDPT,009.8,-1.0,*41
$IIGLL,4629.835,N,00640.641,E,164902,A,A*5E
$IIHDG,026,,,,*53
$IIMTW,+11.5,C*3D
$IIMWV,262,R,01.0,N,A*14
$IIMWV,264,T,01.3,N,A*17
$IIRMB,A,0.29,R,,VIDY,,,,,002.95,286,-00.4,V,A*55
$IIRMC,164902,A,4629.835,N,00640.641,E,01.0,038,280508,,,A*4A
$IIVHW,,,026,M,00.0,N,,*60
$IIVWR,096,L,01.0,N,,,,*71
$IIDPT,009.8,-1.0,*41
$IIGLL,4629.835,N,00640.641,E,164902,A,A*5E
$IIHDG,026,,,,*53
$IIMTW,+11.5,C*3D
$IIMWV,264,R,01.0,N,A*12
$IIMWV,262,T,01.0,N,A*12
$IIRMC,164902,A,4629.835,N,00640.641,E,01.0,038,280508,,,A*4A
$IIVHW,,,025,M,00.0,N,,*63
$IIVWR,095,L,01.1,N,,,,*73
$IIDPT,009.8,-1.0,*41
$IIGLL,4629.835,N,00640.642,E,164904,A,A*5B
$IIHDG,025,,,,*50
$IIMTW,+11.5,C*3D
$IIMWV,265,R,01.1,N,A*12
$IIMWV,264,T,01.0,N,A*14
$IIRMB,A,0.29,R,,VIDY,,,,,002.95,286,-00.4,V,A*55
$IIRMC,164904,A,4629.835,N,00640.642,E,01.1,038,280508,,,A*4E
$IIVHW,,,025,M,00.0,N,,*63
$IIVWR,096,L,00.9,N,,,,*79
$IIDPT,009.8,-1.0,*41
$IIGLL,4629.835,N,00640.642,E,164904,A,A*5B
$IIHDG,025,,,,*50
$IIMTW,+11.5,C*3D
$IIMWV,264,R,00.9,N,A*1A
$IIMWV,264,T,00.9,N,A*1C
$IIRMB,A,0.29,R,,VIDY,,,,,002.95,286,-00.4,V,A*55
$IIRMC,164906,A,4629.836,N,00640.642,E,01.1,038,280508,,,A*4F
$IIVHW,,,026,M,00.0,N,,*60
$IIVWR,094,L,00.7,N,,,,*75
$IIDPT,009.8,-1.0,*41
$IIGLL,4629.836,N,00640.642,E,164906,A,A*5A
$IIHDG,025,,,,*50
$IIMTW,+11.5,C*3D
$IIMWV,265,R,00.7,N,A*15
$IIMWV,266,T,00.7,N,A*10
$IIRMC,164906,A,4629.836,N,00640.642,E,01.1,038,280508,,,A*4F
$IIVHW,,,025,M,00.0,N,,*63
$IIVWR,095,L,00.7,N,,,,*74
$IIDPT,009.8,-1.0,*41
$IIGLL,4629.836,N,00640.643,E,164908,A,A*55
$IIHDG,023,,,,*56
$IIMTW,+11.5,C*3D
$IIMWV,269,R,00.9,N,A*17
$IIMWV,265,T,00.7,N,A*13
$IIRMB,A,0.29,R,,VIDY,,,,,002.95,286,-00.5,V,A*54
$IIRMC,164908,A,4629.836,N,00640.643,E,01.1,038,280508,,,A*40
$IIVHW,,,023,M,00.0,N,,*65
$IIVWR,093,L,00.7,N,,,,*72
$IIDPT,009.8,-1.0,*41
$IIGLL,4629.836,N,00640.643,E,164908,A,A*55
$IIHDG,024,,,,*51
$IIMTW,+11.5,C*3D
$IIMWV,267,R,00.7,N,A*17
$IIMWV,269,T,00.9,N,A*11
$IIRMC,164908,A,4629.836,N,00640.643,E,01.1,038,280508,,,A*40
$IIVHW,,,024,M,00.0,N,,*62
$IIVWR,088,L,00.7,N,,,,*78
$IIDPT,009.6,-1.0,*4F
$IIGLL,4629.837,N,00640.643,E,164910,A,A*5D
$IIHDG,024,,,,*51
$IIMTW,+11.5,C*3D
$IIMWV,272,R,00.7,N,A*13
$IIMWV,267,T,00.7,N,A*11
$IIRMB,A,0.29,R,,VIDY,,,,,002.95,286,-00.4,V,A*55
$IIRMC,164910,A,4629.837,N,00640.643,E,01.1,037,280508,,,A*47
$IIVHW,,,025,M,00.0,N,,*63
$IIVWR,086,L,00.9,N,,,,*78
$IIDPT,009.6,-1.0,*4F
$IIGLL,4629.837,N,00640.643,E,164910,A,A*5D
$IIHDG,025,,,,*50
$IIMTW,+11.5,C*3D
$IIMWV,274,R,00.9,N,A*1B
$IIMWV,274,T,00.9,N,A*1D
$IIRMB,A,0.29,R,,VIDY,,,,,002.95,286,-00.3,V,A*52
$IIRMC,164912,A,4629.837,N,00640.644,E,01.0,045,280508,,,A*46
$IIVHW,,,025,M,00.0,N,,*63
$IIVWR,089,L,00.7,N,,,,*79
$IIDPT,009.6,-1.0,*4F
$IIGLL,4629.837,N,00640.644,E,164912,A,A*58
$IIHDG,025,,,,*50
$IIMTW,+12.0,C*3B
$IIMWV,277,R,01.0,N,A*10
$IIMWV,271,T,00.7,N,A*16
$IIRMC,164912,A,4629.837,N,00640.644,E,01.0,045,280508,,,A*46
$IIVHW,,,025,M,00.0,N,,*63
$IIVWR,083,L,01.0,N,,,,*75
$IIDPT,025.3,-1.0,*44
$IIGLL,4629.837,N,00640.644,E,164914,A,A*5E
$IIHDG,023,,,,*56
$IIMTW,+12.0,C*3B
$IIMWV,285,R,00.8,N,A*14
$IIMWV,277,T,01.0,N,A*16
$IIRMB,A,0.29,R,,VIDY,,,,,002.95,286,-00.4,V,A*55
$IIRMC,164914,A,4629.837,N,00640.644,E,01.3,024,280508,,,A*44
$IIVHW,,,023,M,00.0,N,,*65
$IIVWR,078,L,01.1,N,,,,*70
$IIDPT,025.3,-1.0,*44
$IIGLL,4629.837,N,00640.644,E,164914,A,A*5E
$IIHDG,023,,,,*56
$IIMTW,+12.0,C*3B
$IIMWV,282,R,01.1,N,A*1B
$IIMWV,285,T,00.8,N,A*12
$IIRMC,164914,A,4629.837,N,00640.644,E,01.3,024,280508,,,A*44
$IIVHW,,,023,M,00.0,N,,*65
$IIVWR,076,L,01.1,N,,,,*7E
$IIDPT,026.1,-1.0,*45
$IIGLL,4629.838,N,00640.645,E,164916,A,A*52
$IIHDG,023,,,,*56
$IIMTW,+12.0,C*3B
$IIMWV,284,R,01.1,N,A*1D
$IIMWV,282,T,01.1,N,A*1D
$IIRMB,A,0.29,R,,VIDY,,,,,002.95,286,-00.4,V,A*55
$IIRMC,164916,A,4629.838,N,00640.645,E,01.2,036,280508,,,A*4A
$IIVHW,,,022,M,00.0,N,,*64
$IIVWR,077,L,01.3,N,,,,*7D
$IIDPT,026.1,-1.0,*45
$IIGLL,4629.838,N,00640.645,E,164916,A,A*52
$IIHDG,022,,,,*57
$IIMTW,+11.5,C*3D
$IIMWV,283,R,01.3,N,A*18
$IIMWV,283,T,01.3,N,A*1E
$IIRMB,A,0.29,R,,VIDY,,,,,002.95,286,-00.2,V,A*53
$IIRMC,164918,A,4629.838,N,00640.646,E,01.1,037,280508,,,A*45
$IIVHW,,,022,M,00.0,N,,*64
$IIVWR,080,L,01.4,N,,,,*72
$IIDPT,026.1,-1.0,*45
$IIGLL,4629.838,N,00640.646,E,164918,A,A*5F
$IIHDG,022,,,,*57
$IIMTW,+11.5,C*3D
$IIMWV,283,R,01.5,N,A*1E
$IIMWV,280,T,01.4,N,A*1A
$IIRMC,164918,A,4629.838,N,00640.646,E,01.1,037,280508,,,A*45
$IIVHW,,,022,M,00.0,N,,*64
$IIVWR,077,L,01.5,N,,,,*7B
$IIDPT,026.1,-1.0,*45
$IIGLL,4629.839,N,00640.646,E,164920,A,A*55
$IIHDG,021,,,,*54
$IIMTW,+11.5,C*3D
$IIMWV,282,R,01.7,N,A*1D
$IIMWV,283,T,01.5,N,A*18
$IIRMB,A,0.29,R,,VIDY,,,,,002.95,286,-00.3,V,A*52
$IIRMC,164920,A,4629.839,N,00640.646,E,01.0,029,280508,,,A*41
$IIVHW,,,021,M,00.0,N,,*67
$IIVWR,077,L,01.8,N,,,,*76
$IIDPT,039.3,-1.0,*49
$IIGLL,4629.839,N,00640.646,E,164920,A,A*55
$IIHDG,022,,,,*57
$IIMTW,+11.5,C*3D
$IIMWV,283,R,01.8,N,A*13
$IIMWV,282,T,01.7,N,A*1B
$IIRMC,164920,A,4629.839,N,00640.646,E,01.0,029,280508,,,A*41
$IIVHW,,,021,M,00.0,N,,*67
$IIVWR,080,L,01.9,N,,,,*7F
$IIDPT,041.5,-1.0,*40
$IIGLL,4629.839,N,00640.646,E,164922,A,A*57
$IIHDG,021,,,,*54
$IIMTW,+11.5,C*3D
$IIMWV,280,R,01.9,N,A*11
$IIMWV,283,T,01.8,N,A*15
$IIRMB,A,0.29,R,,VIDY,,,,,002.95,286,-00.5,V,A*54
$IIRMC,164922,A,4629.839,N,00640.646,E,00.9,035,280508,,,A*46
$IIVHW,,,021,M,00.0,N,,*67
$IIVWR,081,L,02.0,N,,,,*74
$IIDPT,041.5,-1.0,*40
$IIGLL,4629.839,N,00640.646,E,164922,A,A*57
$IIHDG,021,,,,*54
$IIMTW,+11.5,C*3D
$IIMWV,279,R,02.0,N,A*1D
$IIMWV,279,T,02.0,N,A*1B
$IIRMB,A,0.29,R,,VIDY,,,,,002.95,286,-00.5,V,A*54
$IIRMC,164924,A,4629.840,N,00640.647,E,01.0,032,280508,,,A*40
$IIVHW,,,021,M,00.0,N,,*67
$IIVWR,069,L,02.0,N,,,,*72
$IIDPT,041.5,-1.0,*40
$IIGLL,4629.840,N,00640.647,E,164924,A,A*5E
$IIHDG,021,,,,*54
$IIMTW,+11.5,C*3D
$IIMWV,290,R,01.8,N,A*11
$IIMWV,291,T,02.0,N,A*1D
$IIRMC,164924,A,4629.840,N,00640.647,E,01.0,032,280508,,,A*40
$IIVHW,,,021,M,00.0,N,,*67
$IIVWR,070,L,01.8,N,,,,*71
$IIDPT,026.0,-1.0,*44
$IIGLL,4629.840,N,00640.648,E,164926,A,A*53
$IIHDG,021,,,,*54
$IIMTW,+11.5,C*3D
$IIMWV,292,R,01.8,N,A*13
$IIMWV,292,T,01.9,N,A*14
$IIRMB,A,0.29,R,,VIDY,,,,,002.95,286,-00.3,V,A*52
$IIRMC,164926,A,4629.840,N,00640.648,E,00.9,032,280508,,,A*45
$IIVHW,,,021,M,00.0,N,,*67
$IIVWR,071,L,01.9,N,,,,*71
$IIDPT,024.4,-1.0,*42
$IIGLL,4629.841,N,00640.648,E,164928,A,A*5C
$IIHDG,021,,,,*54
$IIMTW,+11.5,C*3D
$IIMWV,289,R,01.9,N,A*18
$IIMWV,292,T,01.8,N,A*15
$IIRMB,A,0.29,R,,VIDY,,,,,002.95,286,-00.3,V,A*52
$IIRMC,164928,A,4629.841,N,00640.648,E,01.1,035,280508,,,A*44
$IIVHW,,,021,M,00.0,N,,*67
$IIVWR,074,L,01.9,N,,,,*74
$IIDPT,024.4,-1.0,*42
$IIGLL,4629.841,N,00640.648,E,164928,A,A*5C
$IIHDG,021,,,,*54
$IIMTW,+11.5,C*3D
$IIMWV,286,R,01.9,N,A*17
$IIMWV,286,T,01.9,N,A*11
$IIRMB,A,0.29,R,,VIDY,,,,,002.95,286,-00.3,V,A*52
$IIRMC,164930,A,4629.841,N,00640.649,E,00.9,040,280508,,,A*47
$IIVHW,,,020,M,00.0,N,,*66
$IIVWR,077,L,01.9,N,,,,*77
$IIDPT,027.1,-1.0,*44
$IIGLL,4629.841,N,00640.649,E,164930,A,A*54
$IIHDG,020,,,,*55
$IIMTW,+11.5,C*3D
$IIMWV,285,R,01.7,N,A*1A
$IIMWV,283,T,01.9,N,A*14
$IIRMC,164930,A,4629.841,N,00640.649,E,00.9,040,280508,,,A*47
$IIVHW,,,020,M,00.0,N,,*66
$IIVWR,075,L,01.7,N,,,,*7B
$IIDPT,027.1,-1.0,*44
$IIGLL,4629.842,N,00640.649,E,164932,A,A*55
$IIHDG,020,,,,*55
$IIMTW,+11.5,C*3D
$IIMWV,281,R,01.8,N,A*11
$IIMWV,285,T,01.7,N,A*1C
$IIRMB,A,0.29,R,,VIDY,,,,,002.95,286,-00.3,V,A*52
$IIRMC,164932,A,4629.842,N,00640.649,E,00.9,036,280508,,,A*47
$IIVHW,,,020,M,00.0,N,,*66
$IIVWR,077,L,01.8,N,,,,*76
$IIDPT,009.9,-1.0,*40
$IIGLL,4629.842,N,00640.649,E,164932,A,A*55
$IIHDG,019,,,,*5F
$IIMTW,+11.5,C*3D
$IIMWV,283,R,01.8,N,A*13
$IIMWV,281,T,01.8,N,A*17
$IIRMC,164932,A,4629.842,N,00640.649,E,00.9,036,280508,,,A*47
$IIVHW,,,018,M,00.0,N,,*6D
$IIVWR,079,L,01.7,N,,,,*77
$IIDPT,009.9,-1.0,*40
$IIGLL,4629.842,N,00640.649,E,164934,A,A*53
$IIHDG,018,,,,*5E
$IIMTW,+11.5,C*3D
$IIMWV,281,R,01.7,N,A*1E
$IIMWV,283,T,01.8,N,A*15
$IIRMB,A,0.29,R,,VIDY,,,,,002.95,286,-00.3,V,A*52
$IIRMC,164934,A,4629.842,N,00640.649,E,00.9,033,280508,,,A*44
$IIVHW,,,016,M,00.0,N,,*63
$IIVWR,079,L,01.7,N,,,,*77
$IIDPT,009.9,-1.0,*40
$IIGLL,4629.842,N,00640.649,E,164934,A,A*53
$IIHDG,016,,,,*50
$IIMTW,+11.5,C*3D
$IIMWV,281,R,01.7,N,A*1E
$IIMWV,281,T,01.7,N,A*18
$IIRMB,A,0.29,R,,VIDY,,,,,002.95,286,-00.2,V,A*53
$IIRMC,164936,A,4629.843,N,00640.650,E,00.9,030,280508,,,A*4C
$IIVHW,,,018,M,00.0,N,,*6D
$IIVWR,078,L,01.7,N,,,,*76
$IIDPT,009.9,-1.0,*40
$IIGLL,4629.843,N,00640.650,E,164936,A,A*58
$IIHDG,014,,,,*52
$IIMTW,+11.5,C*3D
$IIMWV,286,R,01.6,N,A*18
$IIMWV,282,T,01.7,N,A*1B
$IIRMC,164936,A,4629.843,N,00640.650,E,00.9,030,280508,,,A*4C
$IIVHW,,,014,M,00.0,N,,*61
$IIVWR,074,L,01.6,N,,,,*7B
$IIDPT,009.9,-1.0,*40
$IIGLL,4629.843,N,00640.650,E,164938,A,A*56
$IIHDG,015,,,,*53
$IIMTW,+11.5,C*3D
$IIMWV,288,R,01.6,N,A*16
$IIMWV,286,T,01.6,N,A*1E
$IIRMB,A,0.29,R,,VIDY,,,,,002.95,286,-00.3,V,A*52
$IIRMC,164938,A,4629.843,N,00640.650,E,01.0,034,280508,,,A*4E
$IIVHW,,,015,M,00.0,N,,*60
$IIVWR,072,L,01.7,N,,,,*7C
$IIDPT,066.0,-1.0,*40
$IIGLL,4629.843,N,00640.650,E,164938,A,A*56
$IIHDG,013,,,,*55
$IIMTW,+11.5,C*3D
$IIMWV,288,R,01.7,N,A*17
$IIMWV,288,T,01.6,N,A*10
$IIRMC,164938,A,4629.843,N,00640.650,E,01.0,034,280508,,,A*4E
$IIVHW,,,012,M,00.0,N,,*67
$IIVWR,069,L,01.8,N,,,,*79
$IIDPT,060.1,-1.0,*47
$IIGLL,4629.844,N,00640.651,E,164940,A,A*5F
$IIHDG,012,,,,*54
$IIMTW,+11.5,C*3D
$IIMWV,291,R,01.8,N,A*10
$IIMWV,288,T,01.7,N,A*11
$IIRMB,A,0.28,R,,VIDY,,,,,002.95,286,-00.5,V,A*55
$IIRMC,164940,A,4629.844,N,00640.651,E,00.7,024,280508,,,A*40
$IIVHW,,,012,M,00.0,N,,*67
$IIVWR,070,L,01.9,N,,,,*70
$IIDPT,060.1,-1.0,*47
$IIGLL,4629.844,N,00640.651,E,164940,A,A*5F
$IIHDG,012,,,,*54
$IIMTW,+12.0,C*3B
$IIMWV,290,R,01.9,N,A*10
$IIMWV,290,T,01.9,N,A*16
$IIRMB,A,0.28,R,,VIDY,,,,,002.95,286,00.0,V,A*7D
$IIRMC,164942,A,4629.844,N,00640.651,E,00.7,024,280508,,,A*42
$IIVHW,,,012,M,00.0,N,,*67
$IIVWR,076,L,02.0,N,,,,*7C
$IIDPT,060.1,-1.0,*47
$IIGLL,4629.844,N,00640.651,E,164942,A,A*5D
$IIHDG,012,,,,*54
$IIMTW,+12.0,C*3B
$IIMWV,289,R,01.9,N,A*18
$IIMWV,284,T,02.0,N,A*19
$IIRMC,164942,A,4629.844,N,00640.651,E,00.7,024,280508,,,A*42
$IIVHW,,,012,M,00.0,N,,*67
$IIVWR,071,L,01.9,N,,,,*71
$IIDPT,050.3,-1.0,*46
$IIGLL,4629.845,N,00640.651,E,164944,A,A*5A
$IIHDG,012,,,,*54
$IIMTW,+11.5,C*3D
$IIMWV,293,R,01.7,N,A*1D
$IIMWV,289,T,01.9,N,A*1E
$IIRMB,A,0.28,R,,VIDY,,,,,002.95,286,-00.2,V,A*52
$IIRMC,164944,A,4629.845,N,00640.651,E,01.3,022,280508,,,A*46
$IIVHW,,,012,M,00.0,N,,*67
$IIVWR,069,L,01.8,N,,,,*79
$IIDPT,019.7,-1.0,*4F
$IIGLL,4629.845,N,00640.651,E,164944,A,A*5A
$IIHDG,011,,,,*57
$IIMTW,+11.5,C*3D
$IIMWV,291,R,01.8,N,A*10
$IIMWV,293,T,01.7,N,A*1B
$IIRMC,164944,A,4629.845,N,00640.651,E,01.3,022,280508,,,A*46
$IIVHW,,,012,M,00.0,N,,*67
$IIVWR,070,L,01.9,N,,,,*70
$IIDPT,021.9,-1.0,*4A
$IIGLL,4629.845,N,00640.652,E,164946,A,A*5B
$IIHDG,012,,,,*54
$IIMTW,+11.5,C*3D
$IIMWV,290,R,01.9,N,A*10
$IIMWV,291,T,01.8,N,A*16
$IIRMB,A,0.28,R,,VIDY,,,,,002.96,286,-00.4,V,A*57
$IIRMC,164946,A,4629.845,N,00640.652,E,01.0,028,280508,,,A*4E
$IIVHW,,,009,M,00.0,N,,*6D
$IIVWR,070,L,02.0,N,,,,*7A
$IIDPT,024.9,-1.0,*4F
$IIGLL,4629.845,N,00640.652,E,164946,A,A*5B
$IIHDG,009,,,,*5E
$IIMTW,+11.5,C*3D
$IIMWV,290,R,02.0,N,A*1A
$IIMWV,290,T,02.0,N,A*1C
$IIRMB,A,0.28,R,,VIDY,,,,,002.96,286,-00.2,V,A*51
$IIRMC,164948,A,4629.846,N,00640.652,E,00.9,027,280508,,,A*44
$IIVHW,,,011,M,00.0,N,,*64
$IIVWR,071,L,01.8,N,,,,*70
$IIDPT,024.9,-1.0,*4F
$IIGLL,4629.846,N,00640.652,E,164948,A,A*56
$IIHDG,011,,,,*57
$IIMTW,+11.5,C*3D
$IIMWV,290,R,01.9,N,A*10
$IIMWV,289,T,01.8,N,A*1F
$IIRMC,164948,A,4629.846,N,00640.652,E,00.9,027,280508,,,A*44
$IIVHW,,,011,M,00.0,N,,*64
$IIVWR,070,L,01.9,N,,,,*70
$IIDPT,024.9,-1.0,*4F
$IIGLL,4629.846,N,00640.653,E,164950,A,A*5E
$IIHDG,012,,,,*54
$IIMTW,+11.5,C*3D
$IIMWV,285,R,02.4,N,A*1A
$IIMWV,290,T,01.9,N,A*16
$IIRMB,A,0.28,R,,VIDY,,,,,002.96,286,-00.2,V,A*51
$IIRMC,164950,A,4629.846,N,00640.653,E,00.8,028,280508,,,A*42
$IIVHW,,,012,M,00.0,N,,*67
$IIVWR,066,L,02.4,N,,,,*79
$IIDPT,024.9,-1.0,*4F
$IIGLL,4629.846,N,00640.653,E,164950,A,A*5E
$IIHDG,011,,,,*57
$IIMTW,+11.5,C*3D
$IIMWV,294,R,02.4,N,A*1A
$IIMWV,285,T,02.4,N,A*1C
$IIRMC,164950,A,4629.846,N,00640.653,E,00.8,028,280508,,,A*42
$IIVHW,,,012,M,00.0,N,,*67
$IIVWR,067,L,02.2,N,,,,*7E
$IIDPT,022.2,-1.0,*42
$IIGLL,4629.847,N,00640.653,E,164952,A,A*5D
$IIHDG,012,,,,*54
$IIMTW,+11.5,C*3D
$IIMWV,293,R,02.2,N,A*1B
$IIMWV,294,T,02.4,N,A*1C
$IIRMB,A,0.28,R,,VIDY,,,,,002.96,286,-00.2,V,A*51
$IIRMC,164952,A,4629.847,N,00640.653,E,00.8,028,280508,,,A*41
$IIVHW,,,012,M,00.0,N,,*67
$IIVWR,060,L,02.2,N,,,,*79
$IIDPT,022.2,-1.0,*42
$IIGLL,4629.847,N,00640.653,E,164952,A,A*5D
$IIHDG,012,,,,*54
$IIMTW,+11.5,C*3D
$IIMWV,300,R,02.2,N,A*10
$IIMWV,300,T,02.2,N,A*16
$IIRMB,A,0.28,R,,VIDY,,,,,002.96,286,-00.2,V,A*51
$IIRMC,164954,A,4629.847,N,00640.653,E,00.9,029,280508,,,A*47
$IIVHW,,,011,M,00.0,N,,*64
$IIVWR,062,L,02.2,N,,,,*7B
$IIDPT,022.2,-1.0,*42
$IIGLL,4629.847,N,00640.653,E,164954,A,A*5B
$IIHDG,012,,,,*54
$IIMTW,+11.5,C*3D
$IIMWV,301,R,02.2,N,A*11
$IIMWV,298,T,02.2,N,A*16
$IIRMC,164954,A,4629.847,N,00640.653,E,00.9,029,280508,,,A*47
$IIVHW,,,012,M,00.0,N,,*67
$IIVWR,059,L,02.2,N,,,,*73
$IIDPT,022.2,-1.0,*42
$IIGLL,4629.848,N,00640.654,E,164956,A,A*51
$IIHDG,012,,,,*54
$IIMTW,+11.5,C*3D
$IIMWV,298,R,02.2,N,A*10
$IIMWV,301,T,02.2,N,A*17
$IIRMB,A,0.28,R,,VIDY,,,,,002.96,286,-00.3,V,A*50
$IIRMC,164956,A,4629.848,N,00640.654,E,00.9,029,280508,,,A*4D
$IIVHW,,,012,M,00.0,N,,*67
$IIVWR,065,L,02.0,N,,,,*7E
$IIDPT,055.3,-1.0,*43
$IIGLL,4629.848,N,00640.654,E,164958,A,A*5F
$IIHDG,012,,,,*54
$IIMTW,+11.5,C*3D
$IIMWV,295,R,02.0,N,A*1F
$IIMWV,294,T,02.1,N,A*19
$IIRMB,A,0.28,R,,VIDY,,,,,002.96,286,-00.3,V,A*50
$IIRMC,164958,A,4629.848,N,00640.654,E,00.9,028,280508,,,A*42
$IIVHW,,,012,M,00.0,N,,*67
$IIVWR,067,L,01.9,N,,,,*76
$IIDPT,054.0,-1.0,*41
$IIGLL,4629.848,N,00640.654,E,164958,A,A*5F
$IIHDG,012,,,,*54
$IIMTW,+11.5,C*3D
$IIMWV,293,R,01.9,N,A*13
$IIMWV,293,T,01.9,N,A*15
$IIRMB,A,0.28,R,,VIDY,,,,,002.96,286,00.1,V,A*7F
$IIRMC,165000,A,4629.848,N,00640.654,E,00.9,025,280508,,,A*4A
$IIVHW,,,011,M,00.0,N,,*64
$IIVWR,066,L,01.9,N,,,,*77
$IIDPT,054.0,-1.0,*41
$IIGLL,4629.848,N,00640.654,E,165000,A,A*5A
$IIHDG,011,,,,*57
$IIMTW,+11.5,C*3D
$IIMWV,292,R,01.8,N,A*13
$IIMWV,294,T,01.9,N,A*12
$IIRMC,165000,A,4629.848,N,00640.654,E,00.9,025,280508,,,A*4A
$IIVHW,,,011,M,00.0,N,,*64
$IIVWR,068,L,01.8,N,,,,*78
$IIDPT,052.6,-1.0,*41
$IIGLL,4629.849,N,00640.655,E,165002,A,A*58
$IIHDG,011,,,,*57
$IIMTW,+11.5,C*3D
$IIMWV,297,R,01.7,N,A*19
$IIMWV,292,T,01.8,N,A*15
$IIRMB,A,0.28,R,,VIDY,,,,,002.96,286,-00.3,V,A*50
$IIRMC,165002,A,4629.849,N,00640.655,E,00.9,028,280508,,,A*45
$IIVHW,,,011,M,00.0,N,,*64
$IIVWR,068,L,01.8,N,,,,*78
$IIDPT,051.6,-1.0,*42
$IIGLL,4629.849,N,00640.655,E,165002,A,A*58
$IIHDG,011,,,,*57
$IIMTW,+11.5,C*3D
$IIMWV,292,R,01.8,N,A*13
$IIMWV,297,T,01.7,N,A*1F
$IIRMC,165002,A,4629.849,N,00640.655,E,00.9,028,280508,,,A*45
$IIVHW,,,012,M,00.0,N,,*67
$IIVWR,072,L,01.7,N,,,,*7C
$IIDPT,052.3,-1.0,*44
$IIGLL,4629.849,N,00640.655,E,165004,A,A*5E
$IIHDG,012,,,,*54
$IIMTW,+11.5,C*3D
$IIMWV,288,R,01.7,N,A*17
$IIMWV,292,T,01.8,N,A*15
$IIRMB,A,0.28,R,,VIDY,,,,,002.96,286,-00.2,V,A*51
$IIRMC,165004,A,4629.849,N,00640.655,E,00.9,028,280508,,,A*43
$IIVHW,,,012,M,00.0,N,,*67
$IIVWR,072,L,01.6,N,,,,*7D
$IIDPT,052.3,-1.0,*44
$IIGLL,4629.849,N,00640.655,E,165004,A,A*5E
$IIHDG,012,,,,*54
$IIMTW,+11.5,C*3D
$IIMWV,288,R,01.6,N,A*16
$IIMWV,288,T,01.6,N,A*10
$IIRMB,A,0.28,R,,VIDY,,,,,002.96,286,-00.3,V,A*50
$IIRMC,165006,A,4629.850,N,00640.655,E,00.9,035,280508,,,A*45
$IIVHW,,,012,M,00.0,N,,*67
$IIVWR,074,L,01.7,N,,,,*7A
$IIDPT,025.8,-1.0,*4F
$IIGLL,4629.850,N,00640.655,E,165006,A,A*54
$IIHDG,012,,,,*54
$IIMTW,+11.5,C*3D
$IIMWV,283,R,01.6,N,A*1D
$IIMWV,286,T,01.7,N,A*1F
$IIRMC,165006,A,4629.850,N,00640.655,E,00.9,035,280508,,,A*45
$IIVHW,,,012,M,00.0,N,,*67
$IIVWR,077,L,01.6,N,,,,*78
$IIDPT,025.8,-1.0,*4F
$IIGLL,4629.850,N,00640.656,E,165008,A,A*59
$IIHDG,012,,,,*54
$IIMTW,+11.5,C*3D
$IIMWV,282,R,01.5,N,A*1F
$IIMWV,283,T,01.6,N,A*1B
$IIRMB,A,0.28,R,,VIDY,,,,,002.96,286,-00.2,V,A*51
$IIRMC,165008,A,4629.850,N,00640.656,E,00.9,035,280508,,,A*48
$IIVHW,,,012,M,00.0,N,,*67
$IIVWR,082,L,01.7,N,,,,*73
$IIDPT,024.8,-1.0,*4E
$IIGLL,4629.850,N,00640.656,E,165008,A,A*59
$IIHDG,012,,,,*54
$IIMTW,+11.5,C*3D
$IIMWV,278,R,01.7,N,A*18
$IIMWV,282,T,01.5,N,A*19
$IIRMC,165008,A,4629.850,N,00640.656,E,00.9,035,280508,,,A*48
$IIVHW,,,012,M,00.0,N,,*67
$IIVWR,075,L,01.7,N,,,,*7B
$IIDPT,023.5,-1.0,*44
$IIGLL,4629.851,N,00640.656,E,165010,A,A*51
$IIHDG,012,,,,*54
$IIMTW,+11.5,C*3D
$IIMWV,285,R,01.7,N,A*1A
$IIMWV,278,T,01.7,N,A*1E
$IIRMB,A,0.28,R,,VIDY,,,,,002.96,286,-00.2,V,A*51
$IIRMC,165010,A,4629.851,N,00640.656,E,00.9,024,280508,,,A*40
$IIVHW,,,012,M,00.0,N,,*67
$IIVWR,074,L,01.7,N,,,,*7A
$IIDPT,023.5,-1.0,*44
$IIGLL,4629.851,N,00640.656,E,165010,A,A*51
$IIHDG,012,,,,*54
$IIMTW,+11.5,C*3D
$IIMWV,286,R,01.7,N,A*19
$IIMWV,286,T,01.7,N,A*1F
$IIRMB,A,0.28,R,,VIDY,,,,,002.96,286,00.0,V,A*7E
$IIRMC,165012,A,4629.851,N,00640.656,E,01.0,024,280508,,,A*4A
$IIVHW,,,012,M,00.0,N,,*67
$IIVWR,076,L,01.5,N,,,,*7A
$IIDPT,023.5,-1.0,*44
$IIGLL,4629.851,N,00640.656,E,165012,A,A*53
$IIHDG,011,,,,*57
$IIMTW,+11.5,C*3D
$IIMWV,285,R,01.7,N,A*1A
$IIMWV,284,T,01.5,N,A*1F
$IIRMC,165012,A,4629.851,N,00640.656,E,01.0,024,280508,,,A*4A
$IIVHW,,,011,M,00.0,N,,*64
$IIVWR,075,L,01.7,N,,,,*7B
$IIDPT,023.5,-1.0,*44
$IIGLL,4629.851,N,00640.656,E,165014,A,A*55
$IIHDG,011,,,,*57
$IIMTW,+11.5,C*3D
$IIMWV,283,R,01.5,N,A*1E
$IIMWV,285,T,01.7,N,A*1C
$IIRMB,A,0.28,R,,VIDY,,,,,002.96,286,-00.3,V,A*50
$IIRMC,165014,A,4629.851,N,00640.656,E,00.9,024,280508,,,A*44
$IIVHW,,,011,M,00.0,N,,*64
$IIVWR,076,L,01.5,N,,,,*7A
$IIDPT,009.6,-1.0,*4F
$IIGLL,4629.852,N,00640.657,E,165016,A,A*55
$IIHDG,010,,,,*56
$IIMTW,+11.5,C*3D
$IIMWV,284,R,01.5,N,A*19
$IIMWV,283,T,01.5,N,A*18
$IIRMC,165016,A,4629.852,N,00640.657,E,00.7,027,280508,,,A*49
$IIVHW,,,009,M,00.0,N,,*6D
$IIVWR,077,L,01.4,N,,,,*7A
$IIDPT,009.6,-1.0,*4F
$IIGLL,4629.852,N,00640.657,E,165016,A,A*55
$IIHDG,009,,,,*5E
$IIMTW,+11.5,C*3D
$IIMWV,283,R,01.4,N,A*1F
$IIMWV,284,T,01.5,N,A*1F
$IIRMB,A,0.28,R,,VIDY,,,,,002.96,286,-00.2,V,A*51
$IIRMC,165016,A,4629.852,N,00640.657,E,00.7,027,280508,,,A*49
$IIVHW,,,010,M,00.0,N,,*65
$IIVWR,077,L,01.4,N,,,,*7A
$IIDPT,009.6,-1.0,*4F
$IIGLL,4629.852,N,00640.657,E,165016,A,A*55
$IIHDG,010,,,,*56
$IIMTW,+11.5,C*3D
$IIMWV,283,R,01.4,N,A*1F
$IIMWV,283,T,01.4,N,A*19
$IIRMB,A,0.28,R,,VIDY,,,,,002.96,286,-00.1,V,A*52
$IIRMC,165018,A,4629.852,N,00640.657,E,00.8,023,280508,,,A*4C
$IIVHW,,,009,M,00.0,N,,*6D
$IIVWR,076,L,01.5,N,,,,*7A
$IIDPT,009.6,-1.0,*4F
$IIGLL,4629.852,N,00640.657,E,165018,A,A*5B
$IIHDG,010,,,,*56
$IIMTW,+11.5,C*3D
$IIMWV,278,R,01.5,N,A*1A
$IIMWV,284,T,01.5,N,A*1F
$IIRMC,165018,A,4629.852,N,00640.657,E,00.8,023,280508,,,A*4C
$IIVHW,,,010,M,00.0,N,,*65
$IIVWR,082,L,01.5,N,,,,*71
$IIDPT,019.8,-1.0,*40
$IIGLL,4629.853,N,00640.657,E,165020,A,A*51
$IIHDG,009,,,,*5E
$IIMTW,+11.5,C*3D
$IIMWV,279,R,01.5,N,A*1B
$IIMWV,278,T,01.5,N,A*1C
$IIRMB,A,0.28,R,,VIDY,,,,,002.96,286,00.0,V,A*7E
$IIRMC,165020,A,4629.853,N,00640.657,E,00.9,023,280508,,,A*47
$IIVHW,,,009,M,00.0,N,,*6D
$IIVWR,075,L,01.6,N,,,,*7A
$IIDPT,019.8,-1.0,*40
$IIGLL,4629.853,N,00640.658,E,165022,A,A*5C
$IIHDG,009,,,,*5E
$IIMTW,+11.5,C*3D
$IIMWV,285,R,01.6,N,A*1B
$IIMWV,279,T,01.5,N,A*1D
$IIRMC,165022,A,4629.853,N,00640.658,E,00.0,020,280508,,,A*40
$IIVHW,,,010,M,00.0,N,,*65
$IIVWR,075,L,01.3,N,,,,*7F
$IIDPT,019.8,-1.0,*40
$IIGLL,4629.853,N,00640.658,E,165022,A,A*5C
$IIHDG,010,,,,*56
$IIMTW,+11.5,C*3D
$IIMWV,285,R,01.3,N,A*1E
$IIMWV,285,T,01.6,N,A*1D
$IIRMB,A,0.27,R,,VIDY,,,,,002.96,286,00.0,V,A*71
$IIRMC,165024,A,4629.854,N,00640.658,E,00.8,020,280508,,,A*49
$IIVHW,,,010,M,00.0,N,,*65
$IIVWR,072,L,01.5,N,,,,*7E
$IIDPT,009.7,-1.0,*4E
$IIGLL,4629.854,N,00640.658,E,165024,A,A*5D
$IIHDG,010,,,,*56
$IIMTW,+11.5,C*3D
$IIMWV,288,R,01.5,N,A*15
$IIMWV,288,T,01.5,N,A*13
$IIRMB,A,0.27,R,,VIDY,,,,,002.96,286,-00.1,V,A*5D
$IIRMC,165024,A,4629.854,N,00640.658,E,00.8,020,280508,,,A*49
$IIVHW,,,010,M,00.0,N,,*65
$IIVWR,075,L,01.4,N,,,,*78
$IIDPT,009.7,-1.0,*4E
$IIGLL,4629.854,N,00640.658,E,165024,A,A*5D
$IIHDG,009,,,,*5E
$IIMTW,+11.5,C*3D
$IIMWV,290,R,01.4,N,A*1D
$IIMWV,285,T,01.4,N,A*1F
$IIRMC,165026,A,4629.854,N,00640.658,E,00.9,022,280508,,,A*48
$IIVHW,,,009,M,00.0,N,,*6D
$IIVWR,070,L,01.4,N,,,,*7D
$IIDPT,009.7,-1.0,*4E
$IIGLL,4629.854,N,00640.658,E,165026,A,A*5F
$IIHDG,009,,,,*5E
$IIMTW,+11.5,C*3D
$IIMWV,292,R,01.3,N,A*18
$IIMWV,290,T,01.4,N,A*1B
$IIRMB,A,0.27,R,,VIDY,,,,,002.96,286,-00.1,V,A*5D
$IIRMC,165026,A,4629.854,N,00640.658,E,00.9,022,280508,,,A*48
$IIVHW,,,009,M,00.0,N,,*6D
$IIVWR,069,L,01.3,N,,,,*72
$IIDPT,009.9,-1.0,*40
$IIGLL,4629.854,N,00640.658,E,165026,A,A*5F
$IIHDG,009,,,,*5E
$IIMTW,+11.5,C*3D
$IIMWV,291,R,01.3,N,A*1B
$IIMWV,292,T,01.3,N,A*1E
$IIRMC,165026,A,4629.854,N,00640.658,E,00.9,022,280508,,,A*48
$IIVHW,,,009,M,00.0,N,,*6D
$IIVWR,066,L,01.3,N,,,,*7D
$IIDPT,009.9,-1.0,*40
$IIGLL,4629.855,N,00640.658,E,165028,A,A*50
$IIHDG,009,,,,*5E
$IIMTW,+11.5,C*3D
$IIMWV,294,R,01.3,N,A*1E
$IIMWV,291,T,01.3,N,A*1D
$IIRMB,A,0.27,R,,VIDY,,,,,002.96,286,-00.1,V,A*5D
$IIRMC,165030,A,4629.855,N,00640.658,E,00.0,020,280508,,,A*45
$IIVHW,,,009,M,00.0,N,,*6D
$IIVWR,068,L,01.2,N,,,,*72
$IIDPT,009.9,-1.0,*40
$IIGLL,4629.855,N,00640.658,E,165030,A,A*59
$IIHDG,009,,,,*5E
$IIMTW,+11.5,C*3D
$IIMWV,292,R,01.2,N,A*19
$IIMWV,292,T,01.2,N,A*1F
$IIRMB,A,0.27,R,,VIDY,,,,,002.96,286,-00.1,V,A*5D
$IIRMC,165030,A,4629.855,N,00640.658,E,00.0,020,280508,,,A*45
$IIVHW,,,009,M,00.0,N,,*6D
$IIVWR,052,L,01.5,N,,,,*7C
$IIDPT,041.9,-1.0,*4C
$IIGLL,4629.855,N,00640.658,E,165030,A,A*59
$IIHDG,009,,,,*5E
$IIMTW,+11.5,C*3D
$IIMWV,316,R,01.6,N,A*10
$IIMWV,308,T,01.5,N,A*1A
$IIRMC,165030,A,4629.855,N,00640.658,E,00.0,020,280508,,,A*45
$IIVHW,,,009,M,00.0,N,,*6D
$IIVWR,044,L,01.6,N,,,,*78
$IIDPT,034.2,-1.0,*45
$IIGLL,4629.855,N,00640.659,E,165032,A,A*5A
$IIHDG,009,,,,*5E
$IIMTW,+11.5,C*3D
$IIMWV,307,R,01.5,N,A*13
$IIMWV,316,T,01.6,N,A*16
$IIRMB,A,0.27,R,,VIDY,,,,,002.96,286,-00.2,V,A*5E
$IIRMC,165032,A,4629.855,N,00640.659,E,00.9,026,280508,,,A*49
$IIVHW,,,009,M,00.0,N,,*6D
$IIVWR,052,L,01.5,N,,,,*7C
$IIDPT,034.2,-1.0,*45
$IIGLL,4629.855,N,00640.659,E,165032,A,A*5A
$IIHDG,009,,,,*5E
$IIMTW,+11.5,C*3D
$IIMWV,308,R,01.5,N,A*1C
$IIMWV,307,T,01.5,N,A*15
$IIRMC,165032,A,4629.855,N,00640.659,E,00.9,026,280508,,,A*49
$IIVHW,,,009,M,00.0,N,,*6D
$IIVWR,052,L,01.6,N,,,,*7F
$IIDPT,034.2,-1.0,*45
$IIGLL,4629.856,N,00640.659,E,165034,A,A*5F
$IIHDG,009,,,,*5E
$IIMTW,+11.5,C*3D
$IIMWV,308,R,01.6,N,A*1F
$IIMWV,308,T,01.5,N,A*1A
$IIRMB,A,0.27,R,,VIDY,,,,,002.96,286,00.0,V,A*71
$IIRMC,165036,A,4629.856,N,00640.659,E,00.8,018,280508,,,A*42
$IIVHW,,,009,M,00.0,N,,*6D
$IIVWR,055,L,01.7,N,,,,*79
$IIDPT,034.2,-1.0,*45
$IIGLL,4629.856,N,00640.659,E,165036,A,A*5D
$IIHDG,009,,,,*5E
$IIMTW,+11.5,C*3D
$IIMWV,305,R,01.7,N,A*13
$IIMWV,305,T,01.7,N,A*15
$IIRMB,A,0.27,R,,VIDY,,,,,002.96,286,-00.1,V,A*5D
$IIRMC,165036,A,4629.856,N,00640.659,E,00.8,018,280508,,,A*42
$IIVHW,,,009,M,00.0,N,,*6D
$IIVWR,059,L,01.4,N,,,,*76
$IIDPT,058.2,-1.0,*4F
$IIGLL,4629.856,N,00640.659,E,165036,A,A*5D
$IIHDG,009,,,,*5E
$IIMTW,+11.5,C*3D
$IIMWV,297,R,01.6,N,A*18
$IIMWV,301,T,01.4,N,A*12
$IIRMC,165038,A,4629.857,N,00640.659,E,01.1,012,280508,,,A*4F
$IIVHW,,,009,M,00.0,N,,*6D
$IIVWR,063,L,01.6,N,,,,*7D
$IIDPT,058.2,-1.0,*4F
$IIGLL,4629.857,N,00640.659,E,165038,A,A*52
$IIHDG,009,,,,*5E
$IIMTW,+11.5,C*3D
$IIMWV,296,R,01.5,N,A*1A
$IIMWV,297,T,01.6,N,A*1E
$IIRMB,A,0.27,R,,VIDY,,,,,002.96,286,00.0,V,A*71
$IIRMC,165038,A,4629.857,N,00640.659,E,01.1,012,280508,,,A*4F
$IIVHW,,,009,M,00.0,N,,*6D
$IIVWR,070,L,01.5,N,,,,*7C
$IIDPT,058.4,-1.0,*49
$IIGLL,4629.857,N,00640.660,E,165040,A,A*57
$IIHDG,009,,,,*5E
$IIMTW,+11.5,C*3D
$IIMWV,290,R,01.5,N,A*1C
$IIMWV,296,T,01.5,N,A*1C
$IIRMC,165040,A,4629.857,N,00640.660,E,00.8,020,280508,,,A*43
$IIVHW,,,010,M,00.0,N,,*65
$IIVWR,068,L,01.3,N,,,,*73
$IIDPT,058.4,-1.0,*49
$IIGLL,4629.857,N,00640.660,E,165040,A,A*57
$IIHDG,010,,,,*56
$IIMTW,+11.5,C*3D
$IIMWV,292,R,01.3,N,A*18
$IIMWV,290,T,01.5,N,A*1A
$IIRMB,A,0.27,R,,VIDY,,,,,002.96,286,-00.1,V,A*5D
$IIRMC,165042,A,4629.858,N,00640.660,E,00.8,026,280508,,,A*48
$IIVHW,,,010,M,00.0,N,,*65
$IIVWR,070,L,01.4,N,,,,*7D
$IIDPT,037.7,-1.0,*43
$IIGLL,4629.858,N,00640.660,E,165042,A,A*5A
$IIHDG,010,,,,*56
$IIMTW,+11.5,C*3D
$IIMWV,290,R,01.4,N,A*1D
$IIMWV,290,T,01.4,N,A*1B
$IIRMB,A,0.27,R,,VIDY,,,,,002.96,286,-00.2,V,A*5E
$IIRMC,165042,A,4629.858,N,00640.660,E,00.8,026,280508,,,A*48
$IIVHW,,,011,M,00.0,N,,*64
$IIVWR,074,L,01.2,N,,,,*7F
$IIDPT,037.7,-1.0,*43
$IIGLL,4629.858,N,00640.660,E,165042,A,A*5A
$IIHDG,011,,,,*57
$IIMTW,+11.5,C*3D
$IIMWV,298,R,01.3,N,A*12
$IIMWV,286,T,01.2,N,A*1A
$IIRMC,165042,A,4629.858,N,00640.660,E,00.8,026,280508,,,A*48
$IIVHW,,,011,M,00.0,N,,*64
$IIVWR,062,L,01.3,N,,,,*79
$IIDPT,037.7,-1.0,*43
$IIGLL,4629.858,N,00640.660,E,165044,A,A*5C
$IIHDG,012,,,,*54
$IIMTW,+11.5,C*3D
$IIMWV,299,R,01.0,N,A*10
$IIMWV,298,T,01.3,N,A*14
$IIRMB,A,0.27,R,,VIDY,,,,,002.96,286,00.0,V,A*71
$IIRMC,165044,A,4629.858,N,00640.660,E,00.9,030,280508,,,A*48
$IIVHW,,,012,M,00.0,N,,*67
$IIVWR,068,L,01.3,N,,,,*73
$IIDPT,026.3,-1.0,*47
$IIGLL,4629.858,N,00640.661,E,165046,A,A*5F
$IIHDG,012,,,,*54
$IIMTW,+11.5,C*3D
$IIMWV,292,R,01.3,N,A*18
$IIMWV,299,T,01.0,N,A*16
$IIRMC,165046,A,4629.858,N,00640.661,E,00.7,029,280508,,,A*4D
$IIVHW,,,012,M,00.0,N,,*67
$IIVWR,066,L,01.3,N,,,,*7D
$IIDPT,026.3,-1.0,*47
$IIGLL,4629.858,N,00640.661,E,165046,A,A*5F
$IIHDG,012,,,,*54
$IIMTW,+11.5,C*3D
$IIMWV,294,R,01.3,N,A*1E
$IIMWV,292,T,01.3,N,A*1E
$IIRMB,A,0.27,R,,VIDY,,,,,002.96,286,-00.2,V,A*5E
$IIRMC,165046,A,4629.858,N,00640.661,E,00.7,029,280508,,,A*4D
$IIVHW,,,012,M,00.0,N,,*67
$IIVWR,072,L,01.2,N,,,,*79
$IIDPT,026.3,-1.0,*47
$IIGLL,4629.858,N,00640.661,E,165046,A,A*5F
$IIHDG,012,,,,*54
$IIMTW,+11.5,C*3D
$IIMWV,288,R,01.2,N,A*12
$IIMWV,288,T,01.2,N,A*14
$IIRMB,A,0.27,R,,VIDY,,,,,002.96,286,-00.1,V,A*5D
$IIRMC,165048,A,4629.859,N,00640.661,E,00.8,028,280508,,,A*4C
$IIVHW,,,012,M,00.0,N,,*67
$IIVWR,067,L,01.5,N,,,,*7A
$IIDPT,027.3,-1.0,*46
$IIGLL,4629.859,N,00640.661,E,165048,A,A*50
$IIHDG,012,,,,*54
$IIMTW,+11.5,C*3D
$IIMWV,289,R,01.2,N,A*13
$IIMWV,293,T,01.5,N,A*19
$IIRMC,165050,A,4629.859,N,00640.661,E,00.8,023,280508,,,A*4E
$IIVHW,,,012,M,00.0,N,,*67
$IIVWR,071,L,01.2,N,,,,*7A
$IIDPT,027.3,-1.0,*46
$IIGLL,4629.859,N,00640.661,E,165050,A,A*59
$IIHDG,011,,,,*57
$IIMTW,+11.5,C*3D
$IIMWV,288,R,01.4,N,A*14
$IIMWV,289,T,01.2,N,A*15
$IIRMB,A,0.27,R,,VIDY,,,,,002.96,286,-00.2,V,A*5E
$IIRMC,165050,A,4629.859,N,00640.661,E,00.8,023,280508,,,A*4E
$IIVHW,,,011,M,00.0,N,,*64
$IIVWR,072,L,01.1,N,,,,*7A
$IIDPT,027.7,-1.0,*42
$IIGLL,4629.859,N,00640.661,E,165052,A,A*5B
$IIHDG,011,,,,*57
$IIMTW,+11.5,C*3D
$IIMWV,288,R,01.1,N,A*11
$IIMWV,288,T,01.4,N,A*12
$IIRMC,165052,A,4629.859,N,00640.661,E,00.6,037,280508,,,A*47
$IIVHW,,,010,M,00.0,N,,*65
$IIVWR,076,L,01.3,N,,,,*7C
$IIDPT,023.5,-1.0,*44
$IIGLL,4629.859,N,00640.661,E,165052,A,A*5B
$IIHDG,010,,,,*56
$IIMTW,+11.5,C*3D
$IIMWV,284,R,01.3,N,A*1F
$IIMWV,288,T,01.1,N,A*17
$IIRMB,A,0.27,R,,VIDY,,,,,002.96,286,-00.2,V,A*5E
$IIRMC,165054,A,4629.860,N,00640.662,E,00.0,019,280508,,,A*42
$IIVHW,,,010,M,00.0,N,,*65
$IIVWR,071,L,01.1,N,,,,*79
$IIDPT,027.5,-1.0,*40
$IIGLL,4629.860,N,00640.662,E,165054,A,A*54
$IIHDG,010,,,,*56
$IIMTW,+11.5,C*3D
$IIMWV,289,R,01.1,N,A*10
$IIMWV,289,T,01.1,N,A*16
$IIRMB,A,0.27,R,,VIDY,,,,,002.96,286,-00.2,V,A*5E
$IIRMC,165054,A,4629.860,N,00640.662,E,00.0,019,280508,,,A*42
$IIVHW,,,009,M,00.0,N,,*6D
$IIVWR,072,L,00.9,N,,,,*73
$IIDPT,027.5,-1.0,*40
$IIGLL,4629.860,N,00640.662,E,165054,A,A*54
$IIHDG,009,,,,*5E
$IIMTW,+11.5,C*3D
$IIMWV,283,R,00.7,N,A*1D
$IIMWV,288,T,00.9,N,A*1E
$IIRMC,165056,A,4629.860,N,00640.662,E,00.9,019,280508,,,A*49
$IIVHW,,,009,M,00.0,N,,*6D
$IIVWR,077,L,00.7,N,,,,*78
$IIDPT,027.5,-1.0,*40
$IIGLL,4629.860,N,00640.662,E,165056,A,A*56
$IIHDG,009,,,,*5E
$IIMTW,+11.5,C*3D
$IIMWV,288,R,00.5,N,A*14
$IIMWV,283,T,00.7,N,A*1B
$IIRMB,A,0.27,R,,VIDY,,,,,002.96,286,00.0,V,A*71
$IIRMC,165056,A,4629.860,N,00640.662,E,00.9,019,280508,,,A*49
$IIVHW,,,009,M,00.0,N,,*6D
$IIVWR,081,L,00.8,N,,,,*7E
$IIDPT,027.5,-1.0,*40
$IIGLL,4629.861,N,00640.662,E,165058,A,A*59
$IIHDG,007,,,,*50
$IIMTW,+11.5,C*3D
$IIMWV,279,R,00.8,N,A*17
$IIMWV,288,T,00.5,N,A*12
$IIRMC,165058,A,4629.861,N,00640.662,E,00.8,026,280508,,,A*4B
$IIVHW,,,005,M,00.0,N,,*61
$IIVWR,082,L,00.6,N,,,,*73
$IIDPT,057.4,-1.0,*46
$IIGLL,4629.861,N,00640.662,E,165058,A,A*59
$IIHDG,005,,,,*52
$IIMTW,+11.5,C*3D
$IIMWV,278,R,00.6,N,A*18
$IIMWV,283,T,00.7,N,A*1B
$IIRMB,A,0.27,R,,VIDY,,,,,002.96,286,00.0,V,A*71
$IIRMC,165100,A,4629.861,N,00640.662,E,01.1,033,280508,,,A*4B
$IIVHW,,,007,M,00.0,N,,*63
$IIVWR,081,L,00.5,N,,,,*73
$IIDPT,057.4,-1.0,*46
$IIGLL,4629.861,N,00640.662,E,165100,A,A*55
$IIHDG,007,,,,*50
$IIMTW,+11.5,C*3D
$IIMWV,279,R,00.5,N,A*1A
$IIMWV,279,T,00.5,N,A*1C
$IIRMB,A,0.27,R,,VIDY,,,,,002.96,286,00.0,V,A*71
$IIRMC,165100,A,4629.861,N,00640.662,E,01.1,033,280508,,,A*4B
$IIVHW,,,005,M,00.0,N,,*61
$IIVWR,081,L,00.4,N,,,,*72
$IIDPT,057.4,-1.0,*46
$IIGLL,4629.861,N,00640.662,E,165100,A,A*55
$IIHDG,005,,,,*52
$IIMTW,+11.5,C*3D
$IIMWV,281,R,00.7,N,A*1F
$IIMWV,279,T,00.4,N,A*1D
$IIRMB,A,0.27,R,,VIDY,,,,,002.96,286,-00.2,V,A*5E
$IIRMC,165102,A,4629.861,N,00640.663,E,00.9,023,280508,,,A*40
$IIVHW,,,005,M,00.0,N,,*61
$IIVWR,079,L,00.7,N,,,,*76
$IIDPT,058.8,-1.0,*45
$IIGLL,4629.862,N,00640.663,E,165104,A,A*53
$IIHDG,005,,,,*52
$IIMTW,+11.5,C*3D
$IIMWV,284,R,00.6,N,A*1B
$IIMWV,281,T,00.7,N,A*19
$IIRMC,165104,A,4629.862,N,00640.663,E,00.8,020,280508,,,A*47
$IIVHW,,,005,M,00.0,N,,*61
$IIVWR,080,L,00.5,N,,,,*72
$IIDPT,058.8,-1.0,*45
$IIGLL,4629.862,N,00640.663,E,165104,A,A*53
$IIHDG,005,,,,*52
$IIMTW,+11.5,C*3D
$IIMWV,280,R,00.5,N,A*1C
$IIMWV,284,T,00.6,N,A*1D
$IIRMB,A,0.27,R,,VIDY,,,,,002.96,286,-00.3,V,A*5F
$IIRMC,165106,A,4629.862,N,00640.663,E,00.7,027,280508,,,A*4D
$IIVHW,,,005,M,00.0,N,,*61
$IIVWR,075,L,00.4,N,,,,*79
$IIDPT,058.8,-1.0,*45
$IIGLL,4629.862,N,00640.663,E,165106,A,A*51
$IIHDG,005,,,,*52
$IIMTW,+11.5,C*3D
$IIMWV,285,R,00.4,N,A*18
$IIMWV,285,T,00.4,N,A*1E
$IIRMB,A,0.26,R,,VIDY,,,,,002.96,286,00.0,V,A*70
$IIRMC,165106,A,4629.862,N,00640.663,E,00.7,027,280508,,,A*4D
$IIVHW,,,005,M,00.0,N,,*61
$IIVWR,074,L,00.3,N,,,,*7F
$IIDPT,058.8,-1.0,*45
$IIGLL,4629.862,N,00640.663,E,165106,A,A*51
$IIHDG,005,,,,*52
$IIMTW,+11.5,C*3D
$IIMWV,284,R,00.7,N,A*1A
$IIMWV,286,T,00.3,N,A*1A
$IIRMC,165108,A,4629.863,N,00640.663,E,00.7,025,280508,,,A*40
$IIVHW,,,005,M,00.0,N,,*61
$IIVWR,076,L,00.7,N,,,,*79
$IIDPT,061.6,-1.0,*41
$IIGLL,4629.863,N,00640.663,E,165108,A,A*5E
$IIHDG,005,,,,*52
$IIMTW,+11.5,C*3D
$IIMWV,290,R,00.6,N,A*1E
$IIMWV,284,T,00.7,N,A*1C
$IIRMB,A,0.26,R,,VIDY,,,,,002.96,286,00.0,V,A*70
$IIRMC,165108,A,4629.863,N,00640.663,E,00.7,025,280508,,,A*40
$IIVHW,,,005,M,00.0,N,,*61
$IIVWR,072,L,00.2,N,,,,*78
$IIDPT,009.7,-1.0,*4E
$IIGLL,4629.863,N,00640.664,E,165112,A,A*52
$IIHDG,004,,,,*53
$IIMTW,+11.5,C*3D
$IIMWV,288,R,00.2,N,A*13
$IIMWV,285,T,00.3,N,A*19
$IIRMB,A,0.26,R,,VIDY,,,,,002.96,286,-00.1,V,A*5C
$IIRMC,165112,A,4629.863,N,00640.664,E,00.6,022,280508,,,A*4A
$IIVHW,,,005,M,00.0,N,,*61
$IIVWR,073,L,00.4,N,,,,*7F
$IIDPT,009.6,-1.0,*4F
$IIGLL,4629.863,N,00640.664,E,165112,A,A*52
$IIHDG,005,,,,*52
$IIMTW,+11.5,C*3D
$IIMWV,287,R,00.4,N,A*1A
$IIMWV,287,T,00.4,N,A*1C
$IIRMB,A,0.26,R,,VIDY,,,,,002.96,286,-00.1,V,A*5C
$IIRMC,165114,A,4629.864,N,00640.664,E,00.6,023,280508,,,A*4A
$IIVHW,,,004,M,00.0,N,,*60
$IIVWR,070,L,00.6,N,,,,*7E
$IIDPT,009.6,-1.0,*4F
$IIGLL,4629.864,N,00640.664,E,165114,A,A*53
$IIHDG,004,,,,*53
$IIMTW,+11.5,C*3D
$IIMWV,288,R,00.4,N,A*15
$IIMWV,290,T,00.6,N,A*18
$IIRMC,165116,A,4629.864,N,00640.664,E,00.8,024,280508,,,A*41
$IIVHW,,,004,M,00.0,N,,*60
$IIVWR,072,L,00.4,N,,,,*7E
$IIDPT,009.4,-1.0,*4D
$IIGLL,4629.864,N,00640.664,E,165116,A,A*51
$IIHDG,005,,,,*52
$IIMTW,+11.5,C*3D
$IIMWV,293,R,00.4,N,A*1F
$IIMWV,288,T,00.4,N,A*13
$IIRMB,A,0.26,R,,VIDY,,,,,002.96,286,-00.1,V,A*5C
$IIRMC,165116,A,4629.864,N,00640.664,E,00.8,024,280508,,,A*41
$IIVHW,,,005,M,00.0,N,,*61
$IIVWR,070,L,00.4,N,,,,*7C
$IIDPT,009.4,-1.0,*4D
$IIGLL,4629.864,N,00640.664,E,165118,A,A*5F
$IIHDG,005,,,,*52
$IIMTW,+11.5,C*3D
$IIMWV,290,R,00.4,N,A*1C
$IIMWV,293,T,00.4,N,A*19
$IIRMC,165118,A,4629.864,N,00640.664,E,00.7,021,280508,,,A*45
$IIVHW,,,005,M,00.0,N,,*61
$IIVWR,067,L,00.7,N,,,,*79
$IIDPT,009.4,-1.0,*4D
$IIGLL,4629.864,N,00640.664,E,165118,A,A*5F
$IIHDG,005,,,,*52
$IIMTW,+11.5,C*3D
$IIMWV,293,R,00.7,N,A*1C
$IIMWV,290,T,00.4,N,A*1A
$IIRMB,A,0.26,R,,VIDY,,,,,002.96,286,-00.1,V,A*5C
$IIRMC,165120,A,4629.865,N,00640.664,E,00.7,022,280508,,,A*4C
$IIVHW,,,004,M,00.0,N,,*60
$IIVWR,071,L,00.5,N,,,,*7C
$IIDPT,009.4,-1.0,*4D
$IIGLL,4629.865,N,00640.664,E,165120,A,A*55
$IIHDG,004,,,,*53
$IIMTW,+11.5,C*3D
$IIMWV,289,R,00.5,N,A*15
$IIMWV,289,T,00.5,N,A*13
$IIRMB,A,0.26,R,,VIDY,,,,,002.96,286,-00.1,V,A*5C
$IIRMC,165120,A,4629.865,N,00640.664,E,00.7,022,280508,,,A*4C
$IIVHW,,,004,M,00.0,N,,*60
$IIVWR,067,L,00.4,N,,,,*7A
$IIDPT,009.5,-1.0,*4C
$IIGLL,4629.865,N,00640.664,E,165120,A,A*55
$IIHDG,004,,,,*53
$IIMTW,+11.5,C*3D
$IIMWV,291,R,00.8,N,A*11
$IIMWV,293,T,00.4,N,A*19
$IIRMC,165122,A,4629.865,N,00640.665,E,00.7,025,280508,,,A*48
$IIVHW,,,004,M,00.0,N,,*60
$IIVWR,069,L,00.8,N,,,,*78
$IIDPT,009.6,-1.0,*4F
$IIGLL,4629.865,N,00640.665,E,165122,A,A*56
$IIHDG,004,,,,*53
$IIMTW,+11.5,C*3D
$IIMWV,295,R,00.6,N,A*1B
$IIMWV,291,T,00.8,N,A*17
$IIRMB,A,0.26,R,,VIDY,,,,,002.96,286,-00.1,V,A*5C
$IIRMC,165122,A,4629.865,N,00640.665,E,00.7,025,280508,,,A*48
$IIVHW,,,004,M,00.0,N,,*60
$IIVWR,061,L,00.5,N,,,,*7D
$IIDPT,009.7,-1.0,*4E
$IIGLL,4629.866,N,00640.665,E,165124,A,A*53
$IIHDG,004,,,,*53
$IIMTW,+11.5,C*3D
$IIMWV,299,R,00.5,N,A*14
$IIMWV,295,T,00.6,N,A*1D
$IIRMC,165124,A,4629.866,N,00640.665,E,00.7,019,280508,,,A*42
$IIVHW,,,004,M,00.0,N,,*60
$IIVWR,063,L,00.8,N,,,,*72
$IIDPT,009.7,-1.0,*4E
$IIGLL,4629.866,N,00640.665,E,165124,A,A*53
$IIHDG,004,,,,*53
$IIMTW,+11.5,C*3D
$IIMWV,297,R,00.8,N,A*17
$IIMWV,299,T,00.5,N,A*12
$IIRMB,A,0.26,R,,VIDY,,,,,002.96,286,00.0,V,A*70
$IIRMC,165126,A,4629.866,N,00640.665,E,00.5,020,280508,,,A*48
$IIVHW,,,004,M,00.0,N,,*60
$IIVWR,065,L,00.7,N,,,,*7B
$IIDPT,009.7,-1.0,*4E
$IIGLL,4629.866,N,00640.665,E,165126,A,A*51
$IIHDG,004,,,,*53
$IIMTW,+11.5,C*3D
$IIMWV,295,R,00.7,N,A*1A
$IIMWV,295,T,00.7,N,A*1C
$IIRMB,A,0.26,R,,VIDY,,,,,002.96,286,-00.1,V,A*5C
$IIRMC,165126,A,4629.866,N,00640.665,E,00.5,020,280508,,,A*48
$IIVHW,,,005,M,00.0,N,,*61
$IIVWR,065,L,00.6,N,,,,*7A
$IIDPT,009.7,-1.0,*4E
$IIGLL,4629.866,N,00640.665,E,165126,A,A*51
$IIHDG,004,,,,*53
$IIMTW,+11.5,C*3D
$IIMWV,291,R,00.9,N,A*10
$IIMWV,295,T,00.6,N,A*1D
$IIRMC,165128,A,4629.866,N,00640.665,E,00.7,019,280508,,,A*4E
$IIVHW,,,004,M,00.0,N,,*60
$IIVWR,069,L,00.9,N,,,,*79
$IIDPT,048.0,-1.0,*4C
$IIGLL,4629.866,N,00640.665,E,165128,A,A*5F
$IIHDG,004,,,,*53
$IIMTW,+11.5,C*3D
$IIMWV,292,R,00.7,N,A*1D
$IIMWV,291,T,00.9,N,A*16
$IIRMB,A,0.26,R,,VIDY,,,,,002.96,286,-00.1,V,A*5C
$IIRMC,165128,A,4629.866,N,00640.665,E,00.7,019,280508,,,A*4E
$IIVHW,,,004,M,00.0,N,,*60
$IIVWR,073,L,00.6,N,,,,*7D
$IIDPT,043.4,-1.0,*43
$IIGLL,4629.866,N,00640.665,E,165128,A,A*5F
$IIHDG,004,,,,*53
$IIMTW,+11.5,C*3D
$IIMWV,287,R,00.6,N,A*18
$IIMWV,292,T,00.7,N,A*1B
$IIRMC,165128,A,4629.866,N,00640.665,E,00.7,019,280508,,,A*4E
$IIVHW,,,005,M,00.0,N,,*61
$IIVWR,072,L,00.9,N,,,,*73
$IIDPT,043.4,-1.0,*43
$IIGLL,4629.867,N,00640.665,E,165130,A,A*57
$IIHDG,005,,,,*52
$IIMTW,+11.5,C*3D
$IIMWV,288,R,00.9,N,A*18
$IIMWV,287,T,00.6,N,A*1E
$IIRMB,A,0.26,R,,VIDY,,,,,002.96,286,-00.2,V,A*5F
$IIRMC,165132,A,4629.867,N,00640.666,E,00.7,018,280508,,,A*46
$IIVHW,,,005,M,00.0,N,,*61
$IIVWR,070,L,00.8,N,,,,*70
$IIDPT,068.6,-1.0,*48
$IIGLL,4629.867,N,00640.666,E,165132,A,A*56
$IIHDG,005,,,,*52
$IIMTW,+11.5,C*3D
$IIMWV,290,R,00.8,N,A*10
$IIMWV,288,T,00.6,N,A*11
$IIRMB,A,0.26,R,,VIDY,,,,,002.96,286,-00.1,V,A*5C
$IIRMC,165134,A,4629.867,N,00640.666,E,00.7,024,280508,,,A*4F
$IIVHW,,,005,M,00.0,N,,*61
$IIVWR,074,L,00.5,N,,,,*79
$IIDPT,060.3,-1.0,*45
$IIGLL,4629.867,N,00640.666,E,165134,A,A*50
$IIHDG,005,,,,*52
$IIMTW,+11.5,C*3D
$IIMWV,290,R,00.8,N,A*10
$IIMWV,286,T,00.5,N,A*1C
$IIRMB,A,0.26,R,,VIDY,,,,,002.96,286,-00.1,V,A*5C
$IIRMC,165134,A,4629.867,N,00640.666,E,00.7,024,280508,,,A*4F
$IIVHW,,,005,M,00.0,N,,*61
$IIVWR,070,L,00.8,N,,,,*70
$IIDPT,060.3,-1.0,*45
$IIGLL,4629.867,N,00640.666,E,165134,A,A*50
$IIHDG,005,,,,*52
$IIMTW,+11.5,C*3D
$IIMWV,292,R,00.7,N,A*1D
$IIMWV,290,T,00.8,N,A*16
$IIRMC,165134,A,4629.867,N,00640.666,E,00.7,024,280508,,,A*4F
$IIVHW,,,005,M,00.0,N,,*61
$IIVWR,071,L,00.6,N,,,,*7F
$IIDPT,060.3,-1.0,*45
$IIGLL,4629.868,N,00640.666,E,165136,A,A*5D
$IIHDG,005,,,,*52
$IIMTW,+11.5,C*3D
$IIMWV,289,R,00.6,N,A*16
$IIMWV,292,T,00.7,N,A*1B
$IIRMB,A,0.26,R,,VIDY,,,,,002.96,286,00.0,V,A*70
$IIRMC,165138,A,4629.868,N,00640.666,E,00.7,025,280508,,,A*4D
$IIVHW,,,005,M,00.0,N,,*61
$IIVWR,068,L,00.5,N,,,,*74
$IIDPT,016.1,-1.0,*46
$IIGLL,4629.868,N,00640.666,E,165138,A,A*53
$IIHDG,005,,,,*52
$IIMTW,+11.5,C*3D
$IIMWV,292,R,00.5,N,A*1F
$IIMWV,292,T,00.5,N,A*19
$IIRMB,A,0.26,R,,VIDY,,,,,002.96,286,00.0,V,A*70
$IIRMC,165138,A,4629.868,N,00640.666,E,00.7,025,280508,,,A*4D
$IIVHW,,,005,M,00.0,N,,*61
$IIVWR,069,L,00.4,N,,,,*74
$IIDPT,016.1,-1.0,*46
$IIGLL,4629.868,N,00640.666,E,165138,A,A*53
$IIHDG,005,,,,*52
$IIMTW,+11.5,C*3D
$IIMWV,290,R,00.3,N,A*1B
$IIMWV,291,T,00.4,N,A*1B
$IIRMC,165140,A,4629.868,N,00640.666,E,00.0,017,280508,,,A*44
$IIVHW,,,005,M,00.0,N,,*61
$IIVWR,070,L,00.3,N,,,,*7B
$IIDPT,012.3,-1.0,*40
$IIGLL,4629.868,N,00640.666,E,165140,A,A*5C
$IIHDG,005,,,,*52
$IIMTW,+11.5,C*3D
$IIMWV,288,R,00.6,N,A*17
$IIMWV,290,T,00.3,N,A*1D
$IIRMB,A,0.26,R,,VIDY,,,,,002.96,286,00.0,V,A*70
$IIRMC,165140,A,4629.868,N,00640.666,E,00.0,017,280508,,,A*44
$IIVHW,,,005,M,00.0,N,,*61
$IIVWR,066,L,00.6,N,,,,*79
$IIDPT,012.3,-1.0,*40
$IIGLL,4629.869,N,00640.667,E,165142,A,A*5E
$IIHDG,005,,,,*52
$IIMTW,+11.5,C*3D
$IIMWV,294,R,00.6,N,A*1A
$IIMWV,288,T,00.6,N,A*11
$IIRMC,165142,A,4629.869,N,00640.667,E,00.7,024,280508,,,A*41
$IIVHW,,,006,M,00.0,N,,*62
$IIVWR,067,L,00.5,N,,,,*7B
$IIDPT,012.3,-1.0,*40
$IIGLL,4629.869,N,00640.667,E,165142,A,A*5E
$IIHDG,006,,,,*51
$IIMTW,+11.5,C*3D
$IIMWV,293,R,00.5,N,A*1E
$IIMWV,294,T,00.6,N,A*1C
$IIRMB,A,0.26,R,,VIDY,,,,,002.96,286,-00.2,V,A*5F
$IIRMC,165144,A,4629.869,N,00640.667,E,00.7,017,280508,,,A*47
$IIVHW,,,006,M,00.0,N,,*62
$IIVWR,066,L,00.4,N,,,,*7B
$IIDPT,052.5,-1.0,*42
$IIGLL,4629.869,N,00640.667,E,165144,A,A*58
$IIHDG,006,,,,*51
$IIMTW,+11.5,C*3D
$IIMWV,294,R,00.4,N,A*18
$IIMWV,294,T,00.4,N,A*1E
$IIRMB,A,0.26,R,,VIDY,,,,,002.96,286,-00.1,V,A*5C
$IIRMC,165144,A,4629.869,N,00640.667,E,00.7,017,280508,,,A*47
$IIVHW,,,006,M,00.0,N,,*62
$IIVWR,065,L,00.3,N,,,,*7F
$IIDPT,052.5,-1.0,*42
$IIGLL,4629.869,N,00640.667,E,165144,A,A*58
$IIHDG,006,,,,*51
$IIMTW,+11.5,C*3D
$IIMWV,293,R,00.2,N,A*19
$IIMWV,295,T,00.3,N,A*18
$IIRMC,165146,A,4629.869,N,00640.667,E,00.7,019,280508,,,A*4B
$IIVHW,,,006,M,00.0,N,,*62
$IIVWR,067,L,00.2,N,,,,*7C
$IIDPT,052.5,-1.0,*42
$IIGLL,4629.869,N,00640.667,E,165146,A,A*5A
$IIHDG,006,,,,*51
$IIMTW,+11.5,C*3D
$IIMWV,290,R,00.2,N,A*1A
$IIMWV,293,T,00.2,N,A*1F
$IIRMB,A,0.26,R,,VIDY,,,,,002.96,286,-00.2,V,A*5F
$IIRMC,165146,A,4629.869,N,00640.667,E,00.7,019,280508,,,A*4B
$IIVHW,,,006,M,00.0,N,,*62
$IIVWR,072,L,00.1,N,,,,*7B
$IIDPT,043.8,-1.0,*4F
$IIGLL,4629.869,N,00640.667,E,165146,A,A*5A
$IIHDG,006,,,,*51
$IIMTW,+11.5,C*3D
$IIMWV,288,R,00.1,N,A*10
$IIMWV,290,T,00.2,N,A*1C
$IIRMC,165146,A,4629.869,N,00640.667,E,00.7,019,280508,,,A*4B
$IIVHW,,,006,M,00.0,N,,*62
$IIVWR,072,L,00.3,N,,,,*79
$IIDPT,043.8,-1.0,*4F
$IIGLL,4629.870,N,00640.667,E,165148,A,A*5C
$IIHDG,006,,,,*51
$IIMTW,+11.5,C*3D
$IIMWV,288,R,00.3,N,A*12
$IIMWV,288,T,00.1,N,A*16
$IIRMB,A,0.26,R,,VIDY,,,,,002.96,286,-00.1,V,A*5C
$IIRMC,165150,A,4629.870,N,00640.668,E,00.7,027,280508,,,A*46
$IIVHW,,,006,M,00.0,N,,*62
$IIVWR,075,L,00.5,N,,,,*78
$IIDPT,038.4,-1.0,*4F
$IIGLL,4629.870,N,00640.668,E,165150,A,A*5A
$IIHDG,006,,,,*51
$IIMTW,+11.5,C*3D
$IIMWV,285,R,00.5,N,A*19
$IIMWV,285,T,00.5,N,A*1F
$IIRMB,A,0.26,R,,VIDY,,,,,002.96,286,-00.1,V,A*5C
$IIRMC,165150,A,4629.870,N,00640.668,E,00.7,027,280508,,,A*46
$IIVHW,,,007,M,00.0,N,,*63
$IIVWR,071,L,00.4,N,,,,*7D
$IIDPT,045.5,-1.0,*44
$IIGLL,4629.870,N,00640.668,E,165150,A,A*5A
$IIHDG,006,,,,*51
$IIMTW,+11.5,C*3D
$IIMWV,290,R,00.3,N,A*1B
$IIMWV,289,T,00.4,N,A*12
$IIRMC,165152,A,4629.871,N,00640.668,E,00.7,031,280508,,,A*42
$IIVHW,,,006,M,00.0,N,,*62
$IIVWR,070,L,00.3,N,,,,*7B
$IIDPT,043.3,-1.0,*44
$IIGLL,4629.871,N,00640.668,E,165152,A,A*59
$IIHDG,007,,,,*50
$IIMTW,+11.5,C*3D
$IIMWV,290,R,00.3,N,A*1B
$IIMWV,290,T,00.3,N,A*1D
$IIRMB,A,0.26,R,,VIDY,,,,,002.96,286,-00.1,V,A*5C
$IIRMC,165152,A,4629.871,N,00640.668,E,00.7,031,280508,,,A*42
$IIVHW,,,007,M,00.0,N,,*63
$IIVWR,070,L,00.2,N,,,,*7A
$IIDPT,043.3,-1.0,*44
$IIGLL,4629.871,N,00640.668,E,165154,A,A*5F
$IIHDG,007,,,,*50
$IIMTW,+11.5,C*3D
$IIMWV,290,R,00.2,N,A*1A
$IIMWV,290,T,00.3,N,A*1D
$IIRMC,165154,A,4629.871,N,00640.668,E,00.7,025,280508,,,A*41
$IIVHW,,,007,M,00.0,N,,*63
$IIVWR,072,L,00.2,N,,,,*78
$IIDPT,035.5,-1.0,*43
$IIGLL,4629.871,N,00640.668,E,165154,A,A*5F
$IIHDG,007,,,,*50
$IIMTW,+11.5,C*3D
$IIMWV,288,R,00.2,N,A*13
$IIMWV,290,T,00.2,N,A*1C
$IIRMB,A,0.26,R,,VIDY,,,,,002.96,286,-00.1,V,A*5C
$IIRMC,165156,A,4629.871,N,00640.668,E,00.7,023,280508,,,A*45
$IIVHW,,,007,M,00.0,N,,*63
$IIVWR,072,L,00.1,N,,,,*7B
$IIDPT,035.5,-1.0,*43
$IIGLL,4629.871,N,00640.668,E,165156,A,A*5D
$IIHDG,007,,,,*50
$IIMTW,+11.5,C*3D
$IIMWV,288,R,00.1,N,A*10
$IIMWV,288,T,00.1,N,A*16
$IIRMB,A,0.26,R,,VIDY,,,,,002.96,286,-00.1,V,A*5C
$IIRMC,165156,A,4629.871,N,00640.668,E,00.7,023,280508,,,A*45
$IIVHW,,,007,M,00.0,N,,*63
$IIVWR,075,L,00.1,N,,,,*7C
$IIDPT,033.2,-1.0,*42
$IIGLL,4629.871,N,00640.668,E,165156,A,A*5D
$IIHDG,007,,,,*50
$IIMTW,+11.5,C*3D
$IIMWV,286,R,00.1,N,A*1E
$IIMWV,285,T,00.1,N,A*1B
$IIRMC,165158,A,4629.872,N,00640.669,E,00.7,031,280508,,,A*4A
$IIVHW,,,007,M,00.0,N,,*63
$IIVWR,074,L,00.1,N,,,,*7D
$IIDPT,035.4,-1.0,*42
$IIGLL,4629.872,N,00640.669,E,165158,A,A*51
$IIHDG,008,,,,*5F
$IIMTW,+11.5,C*3D
$IIMWV,283,R,00.1,N,A*1B
$IIMWV,286,T,00.1,N,A*18
$IIRMB,A,0.25,R,,VIDY,,,,,002.96,286,-00.1,V,A*5F
$IIRMC,165158,A,4629.872,N,00640.669,E,00.7,031,280508,,,A*4A
$IIVHW,,,008,M,00.0,N,,*6C
$IIVWR,074,L,00.0,N,,,,*7C
$IIDPT,037.9,-1.0,*4D
$IIGLL,4629.872,N,00640.669,E,165200,A,A*5F
$IIHDG,007,,,,*50
$IIMTW,+11.5,C*3D
$IIMWV,286,R,00.0,N,A*1F
$IIMWV,283,T,00.1,N,A*1D
$IIRMC,165200,A,4629.872,N,00640.669,E,00.7,025,280508,,,A*41
$IIVHW,,,008,M,00.0,N,,*6C
$IIVWR,075,L,00.0,N,,,,*7D
$IIDPT,047.6,-1.0,*45
$IIGLL,4629.872,N,00640.669,E,165200,A,A*5F
$IIHDG,008,,,,*5F
$IIMTW,+11.5,C*3D
$IIMWV,285,R,00.0,N,A*1C
$IIMWV,286,T,00.0,N,A*19
$IIRMB,A,0.25,R,,VIDY,,,,,002.96,286,-00.1,V,A*5F
$IIRMC,165202,A,4629.872,N,00640.669,E,00.7,027,280508,,,A*41
$IIVHW,,,008,M,00.0,N,,*6C
$IIVWR,077,L,00.0,N,,,,*7F
$IIDPT,044.4,-1.0,*44
$IIGLL,4629.872,N,00640.669,E,165202,A,A*5D
$IIHDG,008,,,,*5F
$IIMTW,+11.5,C*3D
$IIMWV,283,R,00.0,N,A*1A
$IIMWV,283,T,00.0,N,A*1C
$IIRMB,A,0.25,R,,VIDY,,,,,002.96,286,-00.1,V,A*5F
$IIRMC,165202,A,4629.872,N,00640.669,E,00.7,027,280508,,,A*41
$IIVHW,,,008,M,00.0,N,,*6C
$IIVWR,081,L,00.0,N,,,,*76
$IIDPT,052.1,-1.0,*46
$IIGLL,4629.872,N,00640.669,E,165202,A,A*5D
$IIHDG,008,,,,*5F
$IIMTW,+11.5,C*3D
$IIMWV,278,R,00.2,N,A*1C
$IIMWV,280,T,00.0,N,A*1F
$IIRMB,A,0.25,R,,VIDY,,,,,002.96,286,-00.1,V,A*5F
$IIRMC,165204,A,4629.873,N,00640.669,E,00.7,021,280508,,,A*40
$IIVHW,,,008,M,00.0,N,,*6C
$IIVWR,082,L,00.2,N,,,,*77
$IIDPT,063.7,-1.0,*42
$IIGLL,4629.873,N,00640.670,E,165206,A,A*50
$IIHDG,008,,,,*5F
$IIMTW,+11.5,C*3D
$IIMWV,281,R,00.5,N,A*1D
$IIMWV,278,T,00.2,N,A*1A
$IIRMC,165206,A,4629.873,N,00640.670,E,00.7,021,280508,,,A*4A
$IIVHW,,,008,M,00.0,N,,*6C
$IIVWR,083,L,00.4,N,,,,*70
$IIDPT,055.7,-1.0,*47
$IIGLL,4629.873,N,00640.670,E,165206,A,A*50
$IIHDG,008,,,,*5F
$IIMTW,+11.5,C*3D
$IIMWV,277,R,00.4,N,A*15
$IIMWV,281,T,00.5,N,A*1B
$IIRMB,A,0.25,R,,VIDY,,,,,002.96,286,-00.2,V,A*5C
$IIRMC,165208,A,4629.873,N,00640.670,E,00.7,026,280508,,,A*43
$IIVHW,,,008,M,00.0,N,,*6C
$IIVWR,081,L,00.3,N,,,,*75
$IIDPT,065.1,-1.0,*42
$IIGLL,4629.873,N,00640.670,E,165208,A,A*5E
$IIHDG,008,,,,*5F
$IIMTW,+11.5,C*3D
$IIMWV,279,R,00.3,N,A*1C
$IIMWV,279,T,00.3,N,A*1A
$IIRMB,A,0.25,R,,VIDY,,,,,002.96,286,-00.2,V,A*5C
$IIRMC,165208,A,4629.873,N,00640.670,E,00.7,026,280508,,,A*43
$IIVHW,,,008,M,00.0,N,,*6C
$IIVWR,085,L,00.2,N,,,,*70
$IIDPT,062.8,-1.0,*4C
$IIGLL,4629.873,N,00640.670,E,165208,A,A*5E
$IIHDG,008,,,,*5F
$IIMTW,+11.5,C*3D
$IIMWV,276,R,00.2,N,A*12
$IIMWV,275,T,00.2,N,A*17
$IIRMC,165210,A,4629.874,N,00640.670,E,00.7,028,280508,,,A*43
$IIVHW,,,008,M,00.0,N,,*6C
$IIVWR,084,L,00.2,N,,,,*71
$IIDPT,062.8,-1.0,*4C
$IIGLL,4629.874,N,00640.670,E,165210,A,A*50
$IIHDG,009,,,,*5E
$IIMTW,+11.5,C*3D
$IIMWV,277,R,00.1,N,A*10
$IIMWV,276,T,00.2,N,A*14
$IIRMB,A,0.25,R,,VIDY,,,,,002.96,286,-00.1,V,A*5F
$IIRMC,165210,A,4629.874,N,00640.670,E,00.7,028,280508,,,A*43
$IIVHW,,,009,M,00.0,N,,*6D
$IIVWR,079,L,00.1,N,,,,*70
$IIDPT,062.8,-1.0,*4C
$IIGLL,4629.874,N,00640.670,E,165212,A,A*52
$IIHDG,009,,,,*5E
$IIMTW,+11.5,C*3D
$IIMWV,281,R,00.1,N,A*19
$IIMWV,277,T,00.1,N,A*16
$IIRMC,165212,A,4629.874,N,00640.670,E,00.7,026,280508,,,A*4F
$IIVHW,,,009,M,00.0,N,,*6D
$IIVWR,080,L,00.1,N,,,,*76
