$IIVHW,,,171,M,,,,*33
$IIHDG,171,,,,*50
$IIVHW,,,052,M,00.0,N,,*63
$IIVLW,53454,N,000.0,N*50
$IIHDG,052,,,,*50
$IIMTW,+00.0,C*38
$IIVHW,,,033,M,00.0,N,,*64
$IIVLW,53454,N,000.0,N*50
$IIHDG,033,,,,*57
$IIMTW,+17.0,C*3E
$IIVHW,,,030,M,00.0,N,,*67
$IIVLW,53454,N,000.0,N*50
$IIVWR,012,L,01.6,N,,,,*7B
$IIHDG,030,,,,*54
$IIMTW,+17.0,C*3E
$IIMWV,348,R,01.6,N,A*1B
$IIMWV,348,T,01.6,N,A*1D
$IIVHW,,,028,M,00.0,N,,*6E
$IIVLW,53454,N,000.0,N*50
$IIVWR,138,L,04.6,N,,,,*77
$IIDPT,002.6,+0.7,*44
$IIHDG,028,,,,*5D
$IIMTW,+17.0,C*3E
$IIMWV,222,R,04.6,N,A*13
$IIMWV,222,T,04.6,N,A*15
$IIVHW,,,027,M,00.0,N,,*61
$IIVLW,53454,N,000.0,N*50
$IIVWR,152,L,05.4,N,,,,*78
$IIDPT,002.6,+0.7,*44
$IIHDG,027,,,,*52
$IIMTW,+17.0,C*3E
$IIMWV,208,R,05.4,N,A*18
$IIMWV,208,T,04.5,N,A*1E
$IIVHW,,,027,M,00.0,N,,*61
$IIVLW,53454,N,000.0,N*50
$IIVWR,151,L,05.0,N,,,,*7F
$IIDPT,002.6,+0.7,*44
$IIHDG,027,,,,*52
$IIMTW,+17.0,C*3E
$IIMWV,209,R,05.0,N,A*1D
$IIMWV,208,T,05.4,N,A*1E
$IIVHW,,,027,M,00.0,N,,*61
$IIVLW,53454,N,000.0,N*50
$IIVWR,151,L,04.5,N,,,,*7B
$IIDPT,002.6,+0.7,*44
$IIHDG,027,,,,*52
$IIMTW,+17.0,C*3E
$IIMWV,209,R,04.5,N,A*19
$IIMWV,209,T,05.0,N,A*1B
$IIVHW,,,027,M,00.0,N,,*61
$IIVLW,53454,N,000.0,N*50
$IIVWR,146,L,05.3,N,,,,*7A
$IIDPT,002.6,+0.7,*44
$IIHDG,026,,,,*53
$IIMTW,+17.5,C*3B
$IIMWV,214,R,05.3,N,A*12
$IIMWV,209,T,04.5,N,A*1F
$IIVHW,,,026,M,00.0,N,,*60
$IIVLW,53454,N,000.0,N*50
$IIVWR,148,L,05.0,N,,,,*77
$IIDPT,002.6,+0.7,*44
$IIGLL,4612.833,N,00610.252,E,160209,A,A*57
$IIHDG,026,,,,*53
$IIMTW,+17.5,C*3B
$IIMWV,212,R,05.0,N,A*17
$IIMWV,214,T,05.3,N,A*14
$IIRMC,160209,A,4612.833,N,00610.252,E,00.0,000,190814,,,A*4B
$IIVHW,,,026,M,00.0,N,,*60
$IIVLW,53454,N,000.0,N*50
$IIVWR,148,L,04.5,N,,,,*73
$IIDPT,002.6,+0.7,*44
$IIGLL,4612.835,N,00610.256,E,160210,A,A*5D
$IIHDG,026,,,,*53
$IIMTW,+17.5,C*3B
$IIMWV,212,R,04.5,N,A*13
$IIMWV,212,T,05.0,N,A*11
$IIRMC,160210,A,4612.835,N,00610.256,E,00.0,000,190814,,,A*41
$IIVHW,,,026,M,00.0,N,,*60
$IIVLW,53454,N,000.0,N*50
$IIVWR,146,L,04.4,N,,,,*7C
$IIDPT,002.6,+0.7,*44
$IIGLL,4612.832,N,00610.254,E,160211,A,A*59
$IIHDG,026,,,,*53
$IIMTW,+17.5,C*3B
$IIMWV,214,R,04.4,N,A*14
$IIMWV,212,T,04.5,N,A*15
$IIRMC,160212,A,4612.830,N,00610.255,E,00.0,000,190814,,,A*45
$IIVHW,,,026,M,00.0,N,,*60
$IIVLW,53454,N,000.0,N*50
$IIVWR,147,L,05.0,N,,,,*78
$IIDPT,002.6,+0.7,*44
$IIGLL,4612.830,N,00610.255,E,160212,A,A*59
$IIHDG,026,,,,*53
$IIMTW,+17.5,C*3B
$IIMWV,213,R,05.0,N,A*16
$IIMWV,213,T,05.0,N,A*10
$IIRMC,160213,A,4612.831,N,00610.254,E,00.0,000,190814,,,A*44
$IIVHW,,,026,M,00.0,N,,*60
$IIVLW,53454,N,000.0,N*50
$IIVWR,147,L,04.9,N,,,,*70
$IIDPT,002.6,+0.7,*44
$IIGLL,4612.831,N,00610.254,E,160213,A,A*58
$IIHDG,026,,,,*53
$IIMTW,+17.5,C*3B
$IIMWV,215,R,04.9,N,A*18
$IIMWV,213,T,04.9,N,A*18
$IIRMC,160214,A,4612.832,N,00610.254,E,00.0,000,190814,,,A*40
$IIVHW,,,026,M,00.0,N,,*60
$IIVLW,53454,N,000.0,N*50
$IIVWR,145,L,04.9,N,,,,*72
$IIDPT,002.6,+0.7,*44
$IIGLL,4612.832,N,00610.254,E,160214,A,A*5C
$IIHDG,026,,,,*53
$IIMTW,+17.5,C*3B
$IIMWV,220,R,04.8,N,A*1F
$IIMWV,215,T,04.9,N,A*1E
$IIRMC,160214,A,4612.832,N,00610.254,E,00.0,000,190814,,,A*40
$IIVHW,,,026,M,00.0,N,,*60
$IIVLW,53454,N,000.0,N*50
$IIVWR,140,L,04.8,N,,,,*76
$IIDPT,002.6,+0.7,*44
$IIGLL,4612.832,N,00610.254,E,160214,A,A*5C
$IIHDG,026,,,,*53
$IIMTW,+17.5,C*3B
$IIMWV,221,R,04.0,N,A*16
$IIMWV,220,T,04.8,N,A*19
$IIRMC,160215,A,4612.832,N,00610.254,E,00.0,000,190814,,,A*41
$IIVHW,,,026,M,00.0,N,,*60
$IIVLW,53454,N,000.0,N*50
$IIVWR,139,L,04.0,N,,,,*70
$IIDPT,002.6,+0.7,*44
$IIGLL,4612.831,N,00610.253,E,160216,A,A*5A
$IIHDG,026,,,,*53
$IIMTW,+17.5,C*3B
$IIMWV,226,R,04.0,N,A*11
$IIMWV,221,T,04.0,N,A*10
$IIRMC,160216,A,4612.831,N,00610.253,E,00.0,000,190814,,,A*46
$IIVHW,,,026,M,00.0,N,,*60
$IIVLW,53454,N,000.0,N*50
$IIVWR,134,L,04.0,N,,,,*7D
$IIDPT,002.6,+0.7,*44
$IIGLL,4612.830,N,00610.253,E,160217,A,A*5A
$IIHDG,026,,,,*53
$IIMTW,+17.5,C*3B
$IIMWV,222,R,04.4,N,A*11
$IIMWV,226,T,04.0,N,A*17
$IIRMC,160217,A,4612.830,N,00610.253,E,00.0,000,190814,,,A*46
$IIVHW,,,026,M,00.0,N,,*60
$IIVLW,53454,N,000.0,N*50
$IIVWR,136,L,03.7,N,,,,*7F
$IIDPT,002.5,+0.7,*47
$IIGLL,4612.830,N,00610.254,E,160218,A,A*52
$IIHDG,026,,,,*53
$IIMTW,+17.5,C*3B
$IIMWV,224,R,03.7,N,A*13
$IIMWV,222,T,04.4,N,A*17
$IIRMC,160218,A,4612.830,N,00610.254,E,00.0,000,190814,,,A*4E
$IIVHW,,,026,M,00.0,N,,*60
$IIVLW,53454,N,000.0,N*50
$IIVWR,140,L,03.9,N,,,,*70
$IIDPT,002.5,+0.7,*47
$IIGLL,4612.830,N,00610.253,E,160219,A,A*54
$IIHDG,026,,,,*53
$IIMTW,+17.5,C*3B
$IIMWV,220,R,03.9,N,A*19
$IIMWV,224,T,03.7,N,A*15
$IIRMC,160219,A,4612.830,N,00610.253,E,00.0,000,190814,,,A*48
$IIVHW,,,026,M,00.0,N,,*60
$IIVLW,53454,N,000.0,N*50
$IIVWR,138,L,04.1,N,,,,*70
$IIDPT,002.5,+0.7,*47
$IIGLL,4612.830,N,00610.254,E,160220,A,A*59
$IIHDG,026,,,,*53
$IIMTW,+17.5,C*3B
$IIMWV,222,R,04.1,N,A*14
$IIMWV,220,T,03.9,N,A*1F
$IIRMC,160221,A,4612.830,N,00610.249,E,00.0,000,190814,,,A*48
$IIVHW,,,026,M,00.0,N,,*60
$IIVLW,53454,N,000.0,N*50
$IIVWR,138,L,03.7,N,,,,*71
$IIDPT,002.5,+0.7,*47
$IIGLL,4612.830,N,00610.249,E,160221,A,A*54
$IIHDG,026,,,,*53
$IIMTW,+17.5,C*3B
$IIMWV,222,R,03.7,N,A*15
$IIMWV,222,T,03.7,N,A*13
$IIRMC,160222,A,4612.830,N,00610.249,E,00.0,000,190814,,,A*4B
$IIVHW,,,026,M,00.0,N,,*60
$IIVLW,53454,N,000.0,N*50
$IIVWR,136,L,04.0,N,,,,*7F
$IIDPT,002.5,+0.7,*47
$IIGLL,4612.830,N,00610.249,E,160222,A,A*57
$IIHDG,026,,,,*53
$IIMTW,+17.5,C*3B
$IIMWV,225,R,03.6,N,A*13
$IIMWV,224,T,04.0,N,A*15
$IIRMC,160223,A,4612.830,N,00610.248,E,00.0,000,190814,,,A*4B
$IIVHW,,,026,M,00.0,N,,*60
$IIVLW,53454,N,000.0,N*50
$IIVWR,135,L,03.6,N,,,,*7D
$IIDPT,002.5,+0.7,*47
$IIGLL,4612.830,N,00610.248,E,160223,A,A*57
$IIHDG,026,,,,*53
$IIMTW,+17.5,C*3B
$IIMWV,224,R,04.5,N,A*16
$IIMWV,225,T,03.6,N,A*15
$IIRMC,160224,A,4612.828,N,00610.248,E,00.0,000,190814,,,A*45
$IIVHW,,,026,M,00.0,N,,*60
$IIVLW,53454,N,000.0,N*50
$IIVWR,136,L,04.5,N,,,,*7A
$IIDPT,002.5,+0.7,*47
$IIGLL,4612.828,N,00610.248,E,160224,A,A*59
$IIHDG,026,,,,*53
$IIMTW,+17.5,C*3B
$IIMWV,226,R,04.6,N,A*17
$IIMWV,224,T,04.5,N,A*10
$IIRMC,160225,A,4612.829,N,00610.248,E,00.0,000,190814,,,A*45
$IIVHW,,,026,M,00.0,N,,*60
$IIVLW,53454,N,000.0,N*50
$IIVWR,134,L,04.6,N,,,,*7B
$IIDPT,002.6,+0.7,*44
$IIGLL,4612.829,N,00610.248,E,160226,A,A*5A
$IIHDG,026,,,,*53
$IIMTW,+17.5,C*3B
$IIMWV,225,R,05.2,N,A*11
$IIMWV,226,T,04.6,N,A*11
$IIRMC,160226,A,4612.829,N,00610.248,E,00.0,000,190814,,,A*46
$IIVHW,,,026,M,00.0,N,,*60
$IIVLW,53454,N,000.0,N*50
$IIVWR,135,L,05.2,N,,,,*7F
$IIDPT,002.6,+0.7,*44
$IIGLL,4612.829,N,00610.248,E,160227,A,A*5B
$IIHDG,026,,,,*53
$IIMTW,+17.5,C*3B
$IIMWV,224,R,04.9,N,A*1A
$IIMWV,225,T,05.2,N,A*17
$IIRMC,160227,A,4612.829,N,00610.248,E,00.0,000,190814,,,A*47
$IIVHW,,,026,M,00.0,N,,*60
$IIVLW,53454,N,000.0,N*50
$IIVWR,135,L,05.3,N,,,,*7E
$IIDPT,002.6,+0.7,*44
$IIGLL,4612.830,N,00610.248,E,160228,A,A*5C
$IIHDG,026,,,,*53
$IIMTW,+17.5,C*3B
$IIMWV,225,R,05.3,N,A*10
$IIMWV,224,T,04.9,N,A*1C
$IIRMC,160228,A,4612.830,N,00610.248,E,00.0,000,190814,,,A*40
$IIVHW,,,026,M,00.0,N,,*60
$IIVLW,53454,N,000.0,N*50
$IIVWR,135,L,05.0,N,,,,*7D
$IIDPT,002.6,+0.7,*44
$IIGLL,4612.830,N,00610.248,E,160229,A,A*5D
$IIHDG,026,,,,*53
$IIMTW,+17.5,C*3B
$IIMWV,225,R,05.0,N,A*13
$IIMWV,225,T,05.3,N,A*16
$IIRMC,160229,A,4612.830,N,00610.248,E,00.0,000,190814,,,A*41
$IIVHW,,,026,M,00.0,N,,*60
$IIVLW,53454,N,000.0,N*50
$IIVWR,136,L,05.3,N,,,,*7D
$IIDPT,002.6,+0.7,*44
$IIGLL,4612.831,N,00610.247,E,160230,A,A*5B
$IIHDG,026,,,,*53
$IIMTW,+17.5,C*3B
$IIMWV,224,R,05.3,N,A*11
$IIMWV,225,T,05.0,N,A*15
$IIRMC,160231,A,4612.831,N,00610.247,E,00.0,000,190814,,,A*46
$IIVHW,,,026,M,00.0,N,,*60
$IIVLW,53454,N,000.0,N*50
$IIVWR,136,L,05.5,N,,,,*7B
$IIDPT,002.6,+0.7,*44
$IIGLL,4612.831,N,00610.247,E,160231,A,A*5A
$IIHDG,026,,,,*53
$IIMTW,+17.5,C*3B
$IIMWV,224,R,05.5,N,A*17
$IIMWV,224,T,05.5,N,A*11
$IIRMC,160232,A,4612.831,N,00610.247,E,00.0,000,190814,,,A*45
$IIVHW,,,026,M,00.0,N,,*60
$IIVLW,53454,N,000.0,N*50
$IIVWR,137,L,05.2,N,,,,*7D
$IIDPT,002.6,+0.7,*44
$IIGLL,4612.831,N,00610.247,E,160232,A,A*59
$IIHDG,026,,,,*53
$IIMTW,+17.5,C*3B
$IIMWV,222,R,05.4,N,A*10
$IIMWV,223,T,05.2,N,A*11
$IIRMC,160233,A,4612.831,N,00610.247,E,00.0,000,190814,,,A*44
$IIVHW,,,026,M,00.0,N,,*60
$IIVLW,53454,N,000.0,N*50
$IIVWR,138,L,05.4,N,,,,*74
$IIDPT,002.6,+0.7,*44
$IIGLL,4612.831,N,00610.247,E,160233,A,A*58
$IIHDG,026,,,,*53
$IIMTW,+17.5,C*3B
$IIMWV,223,R,05.5,N,A*10
$IIMWV,222,T,05.4,N,A*16
$IIRMC,160233,A,4612.831,N,00610.247,E,00.0,000,190814,,,A*44
$IIVHW,,,026,M,00.0,N,,*60
$IIVLW,53454,N,000.0,N*50
$IIVWR,137,L,05.5,N,,,,*7A
$IIDPT,002.6,+0.7,*44
$IIGLL,4612.831,N,00610.247,E,160233,A,A*58
$IIHDG,026,,,,*53
$IIMTW,+17.5,C*3B
$IIMWV,224,R,05.7,N,A*15
$IIMWV,223,T,05.5,N,A*16
$IIRMC,160235,A,4612.831,N,00610.246,E,00.0,000,190814,,,A*43
$IIVHW,,,026,M,00.0,N,,*60
$IIVLW,53454,N,000.0,N*50
$IIVWR,136,L,05.7,N,,,,*79
$IIDPT,002.6,+0.7,*44
$IIGLL,4612.831,N,00610.246,E,160236,A,A*5C
$IIHDG,026,,,,*53
$IIMTW,+17.5,C*3B
$IIMWV,224,R,05.8,N,A*1A
$IIMWV,224,T,05.7,N,A*13
$IIRMC,160236,A,4612.831,N,00610.246,E,00.0,000,190814,,,A*40
$IIVHW,,,026,M,00.0,N,,*60
$IIVLW,53454,N,000.0,N*50
$IIVWR,136,L,05.8,N,,,,*76
$IIDPT,002.6,+0.7,*44
$IIGLL,4612.830,N,00610.246,E,160237,A,A*5C
$IIHDG,026,,,,*53
$IIMTW,+17.5,C*3B
$IIMWV,228,R,05.4,N,A*1A
$IIMWV,224,T,05.8,N,A*1C
$IIRMC,160237,A,4612.830,N,00610.246,E,00.0,000,190814,,,A*40
$IIVHW,,,026,M,00.0,N,,*60
$IIVLW,53454,N,000.0,N*50
$IIVWR,132,L,05.5,N,,,,*7F
$IIDPT,002.6,+0.7,*44
$IIGLL,4612.830,N,00610.245,E,160238,A,A*50
$IIHDG,026,,,,*53
$IIMTW,+17.5,C*3B
$IIMWV,228,R,05.5,N,A*1B
$IIMWV,228,T,05.4,N,A*1C
$IIRMC,160238,A,4612.830,N,00610.245,E,00.0,000,190814,,,A*4C
$IIVHW,,,026,M,00.0,N,,*60
$IIVLW,53454,N,000.0,N*50
$IIVWR,132,L,05.7,N,,,,*7D
$IIDPT,002.6,+0.7,*44
$IIGLL,4612.830,N,00610.245,E,160239,A,A*51
$IIHDG,026,,,,*53
$IIMTW,+17.5,C*3B
$IIMWV,228,R,05.7,N,A*19
$IIMWV,228,T,05.5,N,A*1D
$IIRMC,160239,A,4612.830,N,00610.245,E,00.0,000,190814,,,A*4D
$IIVHW,,,027,M,00.0,N,,*61
$IIVLW,53454,N,000.0,N*50
$IIVWR,136,L,05.8,N,,,,*76
$IIDPT,002.6,+0.7,*44
$IIGLL,4612.831,N,00610.245,E,160240,A,A*5E
$IIHDG,027,,,,*52
$IIMTW,+17.5,C*3B
$IIMWV,224,R,05.8,N,A*1A
$IIMWV,228,T,05.7,N,A*1F
$IIRMC,160241,A,4612.831,N,00610.245,E,00.0,000,190814,,,A*43
$IIVHW,,,026,M,00.0,N,,*60
$IIVLW,53454,N,000.0,N*50
$IIVWR,136,L,05.8,N,,,,*76
$IIDPT,002.6,+0.7,*44
$IIGLL,4612.831,N,00610.245,E,160241,A,A*5F
$IIHDG,026,,,,*53
$IIMTW,+17.5,C*3B
$IIMWV,224,R,05.8,N,A*1A
$IIMWV,224,T,05.8,N,A*1C
$IIRMC,160242,A,4612.831,N,00610.245,E,00.0,000,190814,,,A*40
$IIVHW,,,026,M,00.0,N,,*60
$IIVLW,53454,N,000.0,N*50
$IIVWR,136,L,05.9,N,,,,*77
$IIDPT,002.6,+0.7,*44
$IIGLL,4612.831,N,00610.245,E,160242,A,A*5C
$IIHDG,026,,,,*53
$IIMTW,+17.5,C*3B
$IIMWV,222,R,05.4,N,A*10
$IIMWV,224,T,05.9,N,A*1D
$IIRMC,160243,A,4612.831,N,00610.245,E,00.0,000,190814,,,A*41
$IIVHW,,,026,M,00.0,N,,*60
$IIVLW,53454,N,000.0,N*50
$IIVWR,138,L,05.4,N,,,,*74
$IIDPT,002.6,+0.7,*44
$IIGLL,4612.831,N,00610.245,E,160243,A,A*5D
$IIHDG,026,,,,*53
$IIMTW,+17.5,C*3B
$IIMWV,223,R,05.4,N,A*11
$IIMWV,220,T,05.2,N,A*12
$IIRMC,160246,A,4612.831,N,00610.245,E,00.0,000,190814,,,A*44
$IIVHW,,,027,M,00.0,N,,*61
$IIVLW,53454,N,000.0,N*50
$IIVWR,137,L,05.4,N,,,,*7B
$IIDPT,002.6,+0.7,*44
$IIGLL,4612.831,N,00610.245,E,160246,A,A*58
$IIHDG,026,,,,*53
$IIMTW,+17.5,C*3B
$IIMWV,221,R,05.0,N,A*17
$IIMWV,223,T,05.4,N,A*17
$IIRMC,160247,A,4612.831,N,00610.245,E,00.0,000,190814,,,A*45
$IIVHW,,,026,M,00.0,N,,*60
$IIVLW,53454,N,000.0,N*50
$IIVWR,139,L,05.0,N,,,,*71
$IIDPT,002.6,+0.7,*44
$IIGLL,4612.831,N,00610.245,E,160248,A,A*56
$IIHDG,026,,,,*53
$IIMTW,+17.5,C*3B
$IIMWV,220,R,05.3,N,A*15
$IIMWV,221,T,05.0,N,A*11
$IIRMC,160248,A,4612.831,N,00610.245,E,00.0,000,190814,,,A*4A
$IIVHW,,,026,M,00.0,N,,*60
$IIVLW,53454,N,000.0,N*50
$IIVWR,140,L,05.3,N,,,,*7C
$IIDPT,002.6,+0.7,*44
$IIGLL,4612.831,N,00610.245,E,160249,A,A*57
$IIHDG,027,,,,*52
$IIMTW,+17.5,C*3B
$IIMWV,221,R,05.0,N,A*17
$IIMWV,220,T,05.3,N,A*13
$IIRMC,160249,A,4612.831,N,00610.245,E,00.0,000,190814,,,A*4B
$IIVHW,,,027,M,00.0,N,,*61
$IIVLW,53454,N,000.0,N*50
$IIVWR,141,L,05.3,N,,,,*7D
$IIDPT,002.6,+0.7,*44
$IIGLL,4612.831,N,00610.245,E,160249,A,A*57
$IIHDG,027,,,,*52
$IIMTW,+17.5,C*3B
$IIMWV,219,R,05.3,N,A*1F
$IIMWV,221,T,05.0,N,A*11
$IIRMC,160249,A,4612.831,N,00610.245,E,00.0,000,190814,,,A*4B
$IIVHW,,,027,M,00.0,N,,*61
$IIVLW,53454,N,000.0,N*50
$IIVWR,140,L,05.0,N,,,,*7F
$IIDPT,002.6,+0.7,*44
$IIGLL,4612.831,N,00610.245,E,160251,A,A*5E
$IIHDG,026,,,,*53
$IIMTW,+17.5,C*3B
$IIMWV,220,R,05.0,N,A*16
$IIMWV,219,T,05.3,N,A*19
$IIRMC,160251,A,4612.831,N,00610.245,E,00.0,000,190814,,,A*42
$IIVHW,,,027,M,00.0,N,,*61
$IIVLW,53454,N,000.0,N*50
$IIVWR,141,L,04.9,N,,,,*76
$IIDPT,002.6,+0.7,*44
$IIGLL,4612.831,N,00610.245,E,160251,A,A*5E
$IIHDG,027,,,,*52
$IIMTW,+17.5,C*3B
$IIMWV,219,R,04.9,N,A*14
$IIMWV,220,T,05.0,N,A*10
$IIRMC,160253,A,4612.831,N,00610.246,E,00.0,000,190814,,,A*43
$IIVHW,,,026,M,00.0,N,,*60
$IIVLW,53454,N,000.0,N*50
$IIVWR,138,L,04.8,N,,,,*79
$IIDPT,002.6,+0.7,*44
$IIGLL,4612.831,N,00610.246,E,160253,A,A*5F
$IIHDG,026,,,,*53
$IIMTW,+17.5,C*3B
$IIMWV,222,R,04.8,N,A*1D
$IIMWV,222,T,04.8,N,A*1B
$IIRMC,160254,A,4612.831,N,00610.246,E,00.0,000,190814,,,A*44
$IIVHW,,,026,M,00.0,N,,*60
$IIVLW,53454,N,000.0,N*50
$IIVWR,140,L,04.9,N,,,,*77
$IIDPT,002.6,+0.7,*44
$IIGLL,4612.831,N,00610.246,E,160254,A,A*58
$IIHDG,026,,,,*53
$IIMTW,+17.5,C*3B
$IIMWV,219,R,04.5,N,A*18
$IIMWV,220,T,04.9,N,A*18
$IIRMC,160255,A,4612.831,N,00610.245,E,00.0,000,190814,,,A*46
$IIVHW,,,026,M,00.0,N,,*60
$IIVLW,53454,N,000.0,N*50
$IIVWR,141,L,04.5,N,,,,*7A
$IIDPT,002.6,+0.7,*44
$IIGLL,4612.831,N,00610.245,E,160255,A,A*5A
$IIHDG,026,,,,*53
$IIMTW,+17.5,C*3B
$IIMWV,221,R,04.5,N,A*13
$IIMWV,219,T,04.5,N,A*1E
$IIRMC,160256,A,4612.831,N,00610.245,E,00.0,000,190814,,,A*45
$IIVHW,,,027,M,00.0,N,,*61
$IIVLW,53454,N,000.0,N*50
$IIVWR,139,L,04.5,N,,,,*75
$IIDPT,002.6,+0.7,*44
$IIGLL,4612.831,N,00610.245,E,160256,A,A*59
$IIHDG,027,,,,*52
$IIMTW,+17.5,C*3B
$IIMWV,221,R,04.5,N,A*13
$IIMWV,221,T,04.5,N,A*15
$IIRMC,160257,A,4612.831,N,00610.245,E,00.0,000,190814,,,A*44
$IIVHW,,,027,M,00.0,N,,*61
$IIVLW,53454,N,000.0,N*50
$IIVWR,139,L,04.5,N,,,,*75
$IIDPT,002.6,+0.7,*44
$IIGLL,4612.831,N,00610.245,E,160258,A,A*57
$IIHDG,027,,,,*52
$IIMTW,+17.5,C*3B
$IIMWV,221,R,04.4,N,A*12
$IIMWV,221,T,04.5,N,A*15
$IIRMC,160258,A,4612.831,N,00610.245,E,00.0,000,190814,,,A*4B
$IIVHW,,,027,M,00.0,N,,*61
$IIVLW,53454,N,000.0,N*50
$IIVWR,139,L,04.4,N,,,,*74
$IIDPT,002.6,+0.7,*44
$IIGLL,4612.831,N,00610.245,E,160259,A,A*56
$IIHDG,027,,,,*52
$IIMTW,+17.5,C*3B
$IIMWV,222,R,04.4,N,A*11
$IIMWV,221,T,04.4,N,A*14
$IIRMC,160259,A,4612.831,N,00610.245,E,00.0,000,190814,,,A*4A
$IIVHW,,,027,M,00.0,N,,*61
$IIVLW,53454,N,000.0,N*50
$IIVWR,137,L,04.4,N,,,,*7A
$IIDPT,002.6,+0.7,*44
$IIGLL,4612.831,N,00610.245,E,160300,A,A*5B
$IIHDG,026,,,,*53
$IIMTW,+17.5,C*3B
$IIMWV,223,R,04.4,N,A*10
$IIMWV,222,T,04.4,N,A*17
$IIRMC,160300,A,4612.831,N,00610.245,E,00.0,000,190814,,,A*47
$IIVHW,,,026,M,00.0,N,,*60
$IIVLW,53454,N,000.0,N*50
$IIVWR,135,L,04.4,N,,,,*78
$IIDPT,002.6,+0.7,*44
$IIGLL,4612.831,N,00610.245,E,160301,A,A*5A
$IIHDG,027,,,,*52
$IIMTW,+17.5,C*3B
$IIMWV,225,R,04.4,N,A*16
$IIMWV,223,T,04.4,N,A*16
$IIRMC,160301,A,4612.831,N,00610.245,E,00.0,000,190814,,,A*46
$IIVHW,,,027,M,00.0,N,,*61
$IIVLW,53454,N,000.0,N*50
$IIVWR,135,L,04.5,N,,,,*79
$IIDPT,002.6,+0.7,*44
$IIGLL,4612.831,N,00610.245,E,160302,A,A*59
$IIHDG,027,,,,*52
$IIMTW,+17.5,C*3B
$IIMWV,225,R,04.5,N,A*17
$IIMWV,225,T,04.4,N,A*10
$IIRMC,160303,A,4612.831,N,00610.245,E,00.0,000,190814,,,A*44
$IIVHW,,,027,M,00.0,N,,*61
$IIVLW,53454,N,000.0,N*50
$IIVWR,136,L,04.4,N,,,,*7B
$IIDPT,002.6,+0.7,*44
$IIGLL,4612.831,N,00610.245,E,160303,A,A*58
$IIHDG,027,,,,*52
$IIMTW,+17.5,C*3B
$IIMWV,224,R,04.4,N,A*17
$IIMWV,224,T,04.4,N,A*11
$IIRMC,160304,A,4612.831,N,00610.245,E,00.0,000,190814,,,A*43
$IIVHW,,,026,M,00.0,N,,*60
$IIVLW,53454,N,000.0,N*50
$IIVWR,135,L,04.8,N,,,,*74
$IIDPT,002.6,+0.7,*44
$IIGLL,4612.831,N,00610.245,E,160304,A,A*5F
$IIHDG,026,,,,*53
$IIMTW,+17.5,C*3B
$IIMWV,225,R,04.6,N,A*14
$IIMWV,225,T,04.8,N,A*1C
$IIRMC,160305,A,4612.831,N,00610.245,E,00.0,000,190814,,,A*42
$IIVHW,,,027,M,00.0,N,,*61
$IIVLW,53454,N,000.0,N*50
$IIVWR,135,L,04.6,N,,,,*7A
$IIDPT,002.6,+0.7,*44
$IIGLL,4612.831,N,00610.245,E,160305,A,A*5E
$IIHDG,027,,,,*52
$IIMTW,+17.5,C*3B
$IIMWV,224,R,04.6,N,A*15
$IIMWV,225,T,04.6,N,A*12
$IIRMC,160306,A,4612.831,N,00610.245,E,00.0,000,190814,,,A*41
$IIVHW,,,027,M,00.0,N,,*61
$IIVLW,53454,N,000.0,N*50
$IIVWR,136,L,04.6,N,,,,*79
$IIDPT,002.6,+0.7,*44
$IIGLL,4612.831,N,00610.245,E,160306,A,A*5D
$IIHDG,027,,,,*52
$IIMTW,+17.5,C*3B
$IIMWV,226,R,04.6,N,A*17
$IIMWV,224,T,04.6,N,A*13
$IIRMC,160307,A,4612.831,N,00610.245,E,00.0,000,190814,,,A*40
$IIVHW,,,027,M,00.0,N,,*61
$IIVLW,53454,N,000.0,N*50
$IIVWR,134,L,04.6,N,,,,*7B
$IIDPT,002.6,+0.7,*44
$IIGLL,4612.831,N,00610.245,E,160308,A,A*53
$IIHDG,026,,,,*53
$IIMTW,+17.5,C*3B
$IIMWV,227,R,04.6,N,A*16
$IIMWV,226,T,04.6,N,A*11
$IIRMC,160308,A,4612.831,N,00610.245,E,00.0,000,190814,,,A*4F
$IIVHW,,,026,M,00.0,N,,*60
$IIVLW,53454,N,000.0,N*50
$IIVWR,133,L,04.6,N,,,,*7C
$IIDPT,002.6,+0.7,*44
$IIGLL,4612.831,N,00610.245,E,160308,A,A*53
$IIHDG,026,,,,*53
$IIMTW,+17.5,C*3B
$IIMWV,227,R,04.9,N,A*19
$IIMWV,227,T,04.6,N,A*10
$IIRMC,160308,A,4612.831,N,00610.245,E,00.0,000,190814,,,A*4F
$IIVHW,,,026,M,00.0,N,,*60
$IIVLW,53454,N,000.0,N*50
$IIVWR,133,L,04.9,N,,,,*73
$IIDPT,002.6,+0.7,*44
$IIGLL,4612.831,N,00610.246,E,160310,A,A*59
$IIHDG,026,,,,*53
$IIMTW,+17.5,C*3B
$IIMWV,227,R,04.9,N,A*19
$IIMWV,227,T,04.9,N,A*1F
$IIRMC,160310,A,4612.831,N,00610.246,E,00.0,000,190814,,,A*45
$IIVHW,,,026,M,00.0,N,,*60
$IIVLW,53454,N,000.0,N*50
$IIVWR,132,L,05.0,N,,,,*7A
$IIDPT,002.6,+0.7,*44
$IIGLL,4612.831,N,00610.246,E,160311,A,A*58
$IIHDG,026,,,,*53
$IIMTW,+17.5,C*3B
$IIMWV,228,R,05.0,N,A*1E
$IIMWV,227,T,04.9,N,A*1F
$IIRMC,160311,A,4612.831,N,00610.246,E,00.0,000,190814,,,A*44
$IIVHW,,,026,M,00.0,N,,*60
$IIVLW,53454,N,000.0,N*50
$IIVWR,132,L,05.3,N,,,,*79
$IIDPT,002.6,+0.7,*44
$IIGLL,4612.831,N,00610.246,E,160311,A,A*58
$IIHDG,026,,,,*53
$IIMTW,+17.5,C*3B
$IIMWV,228,R,05.3,N,A*1D
$IIMWV,228,T,05.0,N,A*18
$IIRMC,160313,A,4612.831,N,00610.246,E,00.0,000,190814,,,A*46
$IIVHW,,,027,M,00.0,N,,*61
$IIVLW,53454,N,000.0,N*50
$IIVWR,132,L,05.7,N,,,,*7D
$IIDPT,002.6,+0.7,*44
$IIGLL,4612.831,N,00610.246,E,160313,A,A*5A
$IIHDG,027,,,,*52
$IIMTW,+17.5,C*3B
$IIMWV,228,R,05.7,N,A*19
$IIMWV,228,T,05.7,N,A*1F
$IIRMC,160314,A,4612.831,N,00610.246,E,00.0,000,190814,,,A*41
$IIVHW,,,026,M,00.0,N,,*60
$IIVLW,53454,N,000.0,N*50
$IIVWR,132,L,06.1,N,,,,*78
$IIDPT,002.6,+0.7,*44
$IIGLL,4612.831,N,00610.246,E,160314,A,A*5D
$IIHDG,026,,,,*53
$IIMTW,+17.5,C*3B
$IIMWV,229,R,06.1,N,A*1D
$IIMWV,228,T,06.1,N,A*1A
$IIRMC,160314,A,4612.831,N,00610.246,E,00.0,000,190814,,,A*41
$IIVHW,,,026,M,00.0,N,,*60
$IIVLW,53454,N,000.0,N*50
$IIVWR,131,L,06.1,N,,,,*7B
$IIDPT,002.6,+0.7,*44
$IIGLL,4612.831,N,00610.246,E,160314,A,A*5D
$IIHDG,026,,,,*53
$IIMTW,+17.5,C*3B
$IIMWV,228,R,06.5,N,A*18
$IIMWV,229,T,06.1,N,A*1B
$IIRMC,160316,A,4612.831,N,00610.246,E,00.0,000,190814,,,A*43
$IIVHW,,,026,M,00.0,N,,*60
$IIVLW,53454,N,000.0,N*50
$IIVWR,132,L,06.5,N,,,,*7C
$IIDPT,002.6,+0.7,*44
$IIGLL,4612.831,N,00610.246,E,160316,A,A*5F
$IIHDG,026,,,,*53
$IIMTW,+17.5,C*3B
$IIMWV,227,R,06.6,N,A*14
$IIMWV,228,T,06.5,N,A*1E
$IIRMC,160317,A,4612.831,N,00610.246,E,00.0,000,190814,,,A*42
$IIVHW,,,026,M,00.0,N,,*60
$IIVLW,53454,N,000.0,N*50
$IIVWR,133,L,06.6,N,,,,*7E
$IIDPT,002.6,+0.7,*44
$IIGLL,4612.831,N,00610.246,E,160317,A,A*5E
$IIHDG,026,,,,*53
$IIMTW,+17.5,C*3B
$IIMWV,227,R,06.5,N,A*17
$IIMWV,227,T,06.6,N,A*12
$IIRMC,160317,A,4612.831,N,00610.246,E,00.0,000,190814,,,A*42
$IIVHW,,,026,M,00.0,N,,*60
$IIVLW,53454,N,000.0,N*50
$IIVWR,133,L,06.5,N,,,,*7D
$IIDPT,002.6,+0.7,*44
$IIGLL,4612.831,N,00610.246,E,160319,A,A*50
$IIHDG,026,,,,*53
$IIMTW,+17.5,C*3B
$IIMWV,227,R,07.0,N,A*13
$IIMWV,227,T,06.5,N,A*11
$IIRMC,160319,A,4612.831,N,00610.246,E,00.0,000,190814,,,A*4C
$IIVHW,,,026,M,00.0,N,,*60
$IIVLW,53454,N,000.0,N*50
$IIVWR,132,L,07.2,N,,,,*7A
$IIDPT,002.6,+0.7,*44
$IIGLL,4612.831,N,00610.246,E,160320,A,A*5A
$IIHDG,026,,,,*53
$IIMTW,+17.5,C*3B
$IIMWV,228,R,07.2,N,A*1E
$IIMWV,227,T,07.0,N,A*15
$IIRMC,160320,A,4612.831,N,00610.246,E,00.0,000,190814,,,A*46
$IIVHW,,,026,M,00.0,N,,*60
$IIVLW,53454,N,000.0,N*50
$IIVWR,130,L,07.4,N,,,,*7E
$IIDPT,002.6,+0.7,*44
$IIGLL,4612.831,N,00610.246,E,160321,A,A*5B
$IIHDG,026,,,,*53
$IIMTW,+17.5,C*3B
$IIMWV,230,R,07.4,N,A*11
$IIMWV,228,T,07.2,N,A*18
$IIRMC,160321,A,4612.831,N,00610.246,E,00.0,000,190814,,,A*47
$IIVHW,,,026,M,00.0,N,,*60
$IIVLW,53454,N,000.0,N*50
$IIVWR,130,L,07.6,N,,,,*7C
$IIDPT,002.6,+0.7,*44
$IIGLL,4612.831,N,00610.246,E,160322,A,A*58
$IIHDG,026,,,,*53
$IIMTW,+17.5,C*3B
$IIMWV,230,R,07.6,N,A*13
$IIMWV,230,T,07.4,N,A*17
$IIRMC,160323,A,4612.831,N,00610.246,E,00.0,000,190814,,,A*45
$IIVHW,,,026,M,00.0,N,,*60
$IIVLW,53454,N,000.0,N*50
$IIVWR,130,L,07.6,N,,,,*7C
$IIDPT,002.6,+0.7,*44
$IIGLL,4612.831,N,00610.246,E,160323,A,A*59
$IIHDG,026,,,,*53
$IIMTW,+17.5,C*3B
$IIMWV,230,R,07.6,N,A*13
$IIMWV,230,T,07.6,N,A*15
$IIRMC,160324,A,4612.831,N,00610.246,E,00.0,000,190814,,,A*42
$IIVHW,,,026,M,00.0,N,,*60
$IIVLW,53454,N,000.0,N*50
$IIVWR,131,L,07.5,N,,,,*7E
$IIDPT,002.6,+0.7,*44
$IIGLL,4612.831,N,00610.246,E,160324,A,A*5E
$IIHDG,026,,,,*53
$IIMTW,+17.5,C*3B
$IIMWV,229,R,07.5,N,A*18
$IIMWV,229,T,07.5,N,A*1E
$IIRMC,160325,A,4612.831,N,00610.246,E,00.0,000,190814,,,A*43
$IIVHW,,,026,M,00.0,N,,*60
$IIVLW,53454,N,000.0,N*50
$IIVWR,131,L,07.5,N,,,,*7E
$IIDPT,002.6,+0.7,*44
$IIGLL,4612.831,N,00610.246,E,160325,A,A*5F
$IIHDG,026,,,,*53
$IIMTW,+17.5,C*3B
$IIMWV,229,R,07.4,N,A*19
$IIMWV,229,T,07.5,N,A*1E
$IIRMC,160326,A,4612.831,N,00610.246,E,00.0,000,190814,,,A*40
$IIVHW,,,026,M,00.0,N,,*60
$IIVLW,53454,N,000.0,N*50
$IIVWR,131,L,07.4,N,,,,*7F
$IIDPT,002.6,+0.7,*44
$IIGLL,4612.831,N,00610.246,E,160326,A,A*5C
$IIHDG,026,,,,*53
$IIMTW,+17.5,C*3B
$IIMWV,230,R,07.4,N,A*11
$IIMWV,229,T,07.4,N,A*1F
$IIRMC,160327,A,4612.831,N,00610.246,E,00.0,000,190814,,,A*41
$IIVHW,,,026,M,00.0,N,,*60
$IIVLW,53454,N,000.0,N*50
$IIVWR,130,L,07.4,N,,,,*7E
$IIDPT,002.6,+0.7,*44
$IIGLL,4612.831,N,00610.246,E,160328,A,A*52
$IIHDG,026,,,,*53
$IIMTW,+17.5,C*3B
$IIMWV,229,R,07.4,N,A*19
$IIMWV,230,T,07.4,N,A*17
$IIRMC,160328,A,4612.831,N,00610.246,E,00.0,000,190814,,,A*4E
$IIVHW,,,026,M,00.0,N,,*60
$IIVLW,53454,N,000.0,N*50
$IIVWR,131,L,07.4,N,,,,*7F
$IIDPT,002.6,+0.7,*44
$IIGLL,4612.831,N,00610.246,E,160329,A,A*53
$IIHDG,026,,,,*53
$IIMTW,+17.5,C*3B
$IIMWV,229,R,07.4,N,A*19
$IIMWV,229,T,07.4,N,A*1F
$IIRMC,160329,A,4612.831,N,00610.246,E,00.0,000,190814,,,A*4F
$IIVHW,,,026,M,00.0,N,,*60
$IIVLW,53454,N,000.0,N*50
$IIVWR,132,L,07.2,N,,,,*7A
$IIDPT,002.6,+0.7,*44
$IIGLL,4612.831,N,00610.246,E,160330,A,A*5B
$IIHDG,026,,,,*53
$IIMTW,+17.5,C*3B
$IIMWV,228,R,07.2,N,A*1E
$IIMWV,229,T,07.4,N,A*1F
$IIRMC,160330,A,4612.831,N,00610.246,E,00.0,000,190814,,,A*47
$IIVHW,,,026,M,00.0,N,,*60
$IIVLW,53454,N,000.0,N*50
$IIVWR,132,L,07.2,N,,,,*7A
$IIDPT,002.6,+0.7,*44
$IIGLL,4612.831,N,00610.246,E,160331,A,A*5A
$IIHDG,026,,,,*53
$IIMTW,+17.5,C*3B
$IIMWV,228,R,07.2,N,A*1E
$IIMWV,228,T,07.2,N,A*18
$IIRMC,160331,A,4612.831,N,00610.246,E,00.0,000,190814,,,A*46
$IIVHW,,,026,M,00.0,N,,*60
$IIVLW,53454,N,000.0,N*50
$IIVWR,134,L,07.2,N,,,,*7C
$IIDPT,002.6,+0.7,*44
$IIGLL,4612.831,N,00610.246,E,160332,A,A*59
$IIHDG,026,,,,*53
$IIMTW,+17.5,C*3B
$IIMWV,226,R,07.2,N,A*10
$IIMWV,228,T,07.2,N,A*18
$IIRMC,160333,A,4612.831,N,00610.246,E,00.0,000,190814,,,A*44
$IIVHW,,,026,M,00.0,N,,*60
$IIVLW,53454,N,000.0,N*50
$IIVWR,134,L,07.2,N,,,,*7C
$IIDPT,002.6,+0.7,*44
$IIGLL,4612.831,N,00610.246,E,160333,A,A*58
$IIHDG,026,,,,*53
$IIMTW,+17.5,C*3B
$IIMWV,226,R,07.2,N,A*10
$IIMWV,226,T,07.2,N,A*16
$IIRMC,160334,A,4612.831,N,00610.246,E,00.0,000,190814,,,A*43
$IIVHW,,,026,M,00.0,N,,*60
$IIVLW,53454,N,000.0,N*50
$IIVWR,134,L,07.2,N,,,,*7C
$IIDPT,002.6,+0.7,*44
$IIGLL,4612.831,N,00610.246,E,160334,A,A*5F
$IIHDG,026,,,,*53
$IIMTW,+17.5,C*3B
$IIMWV,227,R,07.2,N,A*11
$IIMWV,226,T,07.2,N,A*16
$IIRMC,160335,A,4612.831,N,00610.246,E,00.0,000,190814,,,A*42
$IIVHW,,,026,M,00.0,N,,*60
$IIVLW,53454,N,000.0,N*50
$IIVWR,133,L,07.2,N,,,,*7B
$IIDPT,002.6,+0.7,*44
$IIGLL,4612.831,N,00610.246,E,160335,A,A*5E
$IIHDG,026,,,,*53
$IIMTW,+17.5,C*3B
$IIMWV,226,R,07.5,N,A*17
$IIMWV,227,T,07.2,N,A*17
$IIRMC,160336,A,4612.831,N,00610.246,E,00.0,000,190814,,,A*41
$IIVHW,,,026,M,00.0,N,,*60
$IIVLW,53454,N,000.0,N*50
$IIVWR,134,L,07.5,N,,,,*7B
$IIDPT,002.6,+0.7,*44
$IIGLL,4612.831,N,00610.246,E,160336,A,A*5D
$IIHDG,026,,,,*53
$IIMTW,+17.5,C*3B
$IIMWV,226,R,07.5,N,A*17
$IIMWV,226,T,07.5,N,A*11
$IIRMC,160337,A,4612.831,N,00610.246,E,00.0,000,190814,,,A*40
$IIVHW,,,026,M,00.0,N,,*60
$IIVLW,53454,N,000.0,N*50
$IIVWR,134,L,07.5,N,,,,*7B
$IIDPT,002.6,+0.7,*44
$IIGLL,4612.831,N,00610.246,E,160338,A,A*53
$IIHDG,026,,,,*53
$IIMTW,+17.5,C*3B
$IIMWV,225,R,07.8,N,A*19
$IIMWV,226,T,07.5,N,A*11
$IIRMC,160338,A,4612.831,N,00610.246,E,00.0,000,190814,,,A*4F
$IIVHW,,,026,M,00.0,N,,*60
$IIVLW,53454,N,000.0,N*50
$IIVWR,135,L,07.8,N,,,,*77
$IIDPT,002.6,+0.7,*44
$IIGLL,4612.831,N,00610.246,E,160339,A,A*52
$IIHDG,026,,,,*53
$IIMTW,+17.5,C*3B
$IIMWV,224,R,07.6,N,A*16
$IIMWV,225,T,07.8,N,A*1F
$IIRMC,160339,A,4612.831,N,00610.246,E,00.0,000,190814,,,A*4E
$IIVHW,,,026,M,00.0,N,,*60
$IIVLW,53454,N,000.0,N*50
$IIVWR,136,L,07.5,N,,,,*79
$IIDPT,002.6,+0.7,*44
$IIGLL,4612.831,N,00610.246,E,160340,A,A*5C
$IIHDG,026,,,,*53
$IIMTW,+17.5,C*3B
$IIMWV,224,R,07.5,N,A*15
$IIMWV,224,T,07.6,N,A*10
$IIRMC,160340,A,4612.831,N,00610.246,E,00.0,000,190814,,,A*40
$IIVHW,,,026,M,00.0,N,,*60
$IIVLW,53454,N,000.0,N*50
$IIVWR,136,L,07.5,N,,,,*79
$IIDPT,002.6,+0.7,*44
$IIGLL,4612.831,N,00610.246,E,160341,A,A*5D
$IIHDG,026,,,,*53
$IIMTW,+17.5,C*3B
$IIMWV,224,R,07.5,N,A*15
$IIMWV,224,T,07.5,N,A*13
$IIRMC,160341,A,4612.831,N,00610.246,E,00.0,000,190814,,,A*41
$IIVHW,,,026,M,00.0,N,,*60
$IIVLW,53454,N,000.0,N*50
$IIVWR,136,L,07.4,N,,,,*78
$IIDPT,002.6,+0.7,*44
$IIGLL,4612.831,N,00610.246,E,160342,A,A*5E
$IIHDG,026,,,,*53
$IIMTW,+17.5,C*3B
$IIMWV,224,R,07.4,N,A*14
$IIMWV,224,T,07.5,N,A*13
$IIRMC,160343,A,4612.831,N,00610.246,E,00.0,000,190814,,,A*43
$IIVHW,,,026,M,00.0,N,,*60
$IIVLW,53454,N,000.0,N*50
$IIVWR,136,L,07.1,N,,,,*7D
$IIDPT,002.6,+0.7,*44
$IIGLL,4612.831,N,00610.246,E,160343,A,A*5F
$IIHDG,026,,,,*53
$IIMTW,+17.5,C*3B
$IIMWV,224,R,07.1,N,A*11
$IIMWV,224,T,07.1,N,A*17
$IIRMC,160344,A,4612.831,N,00610.246,E,00.0,000,190814,,,A*44
$IIVHW,,,026,M,00.0,N,,*60
$IIVLW,53454,N,000.0,N*50
$IIVWR,135,L,07.1,N,,,,*7E
$IIDPT,002.6,+0.7,*44
$IIGLL,4612.831,N,00610.246,E,160344,A,A*58
$IIHDG,026,,,,*53
$IIMTW,+17.5,C*3B
$IIMWV,226,R,07.1,N,A*13
$IIMWV,225,T,07.1,N,A*16
$IIRMC,160345,A,4612.831,N,00610.246,E,00.0,000,190814,,,A*45
$IIVHW,,,026,M,00.0,N,,*60
$IIVLW,53454,N,000.0,N*50
$IIVWR,134,L,07.1,N,,,,*7F
$IIDPT,002.6,+0.7,*44
$IIGLL,4612.831,N,00610.246,E,160345,A,A*59
$IIHDG,026,,,,*53
$IIMTW,+17.5,C*3B
$IIMWV,227,R,07.2,N,A*11
$IIMWV,226,T,07.1,N,A*15
$IIRMC,160346,A,4612.831,N,00610.246,E,00.0,000,190814,,,A*46
$IIVHW,,,026,M,00.0,N,,*60
$IIVLW,53454,N,000.0,N*50
$IIVWR,133,L,07.2,N,,,,*7B
$IIDPT,002.6,+0.7,*44
$IIGLL,4612.831,N,00610.246,E,160346,A,A*5A
$IIHDG,026,,,,*53
$IIMTW,+17.5,C*3B
$IIMWV,226,R,07.2,N,A*10
$IIMWV,227,T,07.2,N,A*17
$IIRMC,160347,A,4612.831,N,00610.246,E,00.0,000,190814,,,A*47
$IIVHW,,,026,M,00.0,N,,*60
$IIVLW,53454,N,000.0,N*50
$IIVWR,134,L,07.2,N,,,,*7C
$IIDPT,002.6,+0.7,*44
$IIGLL,4612.831,N,00610.246,E,160348,A,A*54
$IIHDG,026,,,,*53
$IIMTW,+17.5,C*3B
$IIMWV,228,R,07.2,N,A*1E
$IIMWV,226,T,07.2,N,A*16
$IIRMC,160348,A,4612.831,N,00610.246,E,00.0,000,190814,,,A*48
$IIVHW,,,026,M,00.0,N,,*60
$IIVLW,53454,N,000.0,N*50
$IIVWR,132,L,07.2,N,,,,*7A
$IIDPT,002.6,+0.7,*44
$IIGLL,4612.831,N,00610.246,E,160349,A,A*55
$IIHDG,026,,,,*53
$IIMTW,+17.5,C*3B
$IIMWV,227,R,07.5,N,A*16
$IIMWV,228,T,07.2,N,A*18
$IIRMC,160349,A,4612.831,N,00610.246,E,00.0,000,190814,,,A*49
$IIVHW,,,026,M,00.0,N,,*60
$IIVLW,53454,N,000.0,N*50
$IIVWR,135,L,07.8,N,,,,*77
$IIDPT,002.6,+0.7,*44
$IIGLL,4612.831,N,00610.246,E,160350,A,A*5D
$IIHDG,026,,,,*53
$IIMTW,+17.5,C*3B
$IIMWV,225,R,07.8,N,A*19
$IIMWV,227,T,07.5,N,A*10
$IIRMC,160350,A,4612.831,N,00610.246,E,00.0,000,190814,,,A*41
$IIVHW,,,026,M,00.0,N,,*60
$IIVLW,53454,N,000.0,N*50
$IIVWR,139,L,08.3,N,,,,*7F
$IIDPT,002.6,+0.7,*44
$IIGLL,4612.831,N,00610.246,E,160351,A,A*5C
$IIHDG,026,,,,*53
$IIMTW,+17.5,C*3B
$IIMWV,221,R,08.3,N,A*19
$IIMWV,225,T,07.8,N,A*1F
$IIRMC,160351,A,4612.831,N,00610.246,E,00.0,000,190814,,,A*40
$IIVHW,,,026,M,00.0,N,,*60
$IIVLW,53454,N,000.0,N*50
$IIVWR,139,L,08.0,N,,,,*7C
$IIDPT,002.6,+0.7,*44
$IIGLL,4612.831,N,00610.246,E,160352,A,A*5F
$IIHDG,026,,,,*53
$IIMTW,+17.5,C*3B
$IIMWV,221,R,08.0,N,A*1A
$IIMWV,221,T,08.3,N,A*1F
$IIRMC,160353,A,4612.831,N,00610.246,E,00.0,000,190814,,,A*42
$IIVHW,,,026,M,00.0,N,,*60
$IIVLW,53454,N,000.0,N*50
$IIVWR,141,L,08.1,N,,,,*72
$IIDPT,002.6,+0.7,*44
$IIGLL,4612.831,N,00610.246,E,160353,A,A*5E
$IIHDG,026,,,,*53
$IIMTW,+17.5,C*3B
$IIMWV,219,R,08.1,N,A*10
$IIMWV,219,T,08.1,N,A*16
$IIRMC,160354,A,4612.831,N,00610.246,E,00.0,000,190814,,,A*45
$IIVHW,,,027,M,00.0,N,,*61
$IIVLW,53454,N,000.0,N*50
$IIVWR,142,L,08.5,N,,,,*75
$IIDPT,002.6,+0.7,*44
$IIGLL,4612.831,N,00610.246,E,160354,A,A*59
$IIHDG,027,,,,*52
$IIMTW,+17.5,C*3B
$IIMWV,218,R,08.5,N,A*15
$IIMWV,218,T,08.5,N,A*13
$IIRMC,160355,A,4612.831,N,00610.246,E,00.0,000,190814,,,A*44
$IIVHW,,,026,M,00.0,N,,*60
$IIVLW,53454,N,000.0,N*50
$IIVWR,142,L,08.5,N,,,,*75
$IIDPT,002.6,+0.7,*44
$IIGLL,4612.831,N,00610.246,E,160355,A,A*58
$IIHDG,026,,,,*53
$IIMTW,+17.5,C*3B
$IIMWV,217,R,08.9,N,A*16
$IIMWV,218,T,08.5,N,A*13
$IIRMC,160356,A,4612.831,N,00610.246,E,00.0,000,190814,,,A*47
$IIVHW,,,026,M,00.0,N,,*60
$IIVLW,53454,N,000.0,N*50
$IIVWR,143,L,08.9,N,,,,*78
$IIDPT,002.6,+0.7,*44
$IIGLL,4612.831,N,00610.246,E,160356,A,A*5B
$IIHDG,027,,,,*52
$IIMTW,+17.5,C*3B
$IIMWV,218,R,08.8,N,A*18
$IIMWV,217,T,08.9,N,A*10
$IIRMC,160357,A,4612.831,N,00610.246,E,00.0,000,190814,,,A*46
$IIVHW,,,027,M,00.0,N,,*61
$IIVLW,53454,N,000.0,N*50
$IIVWR,142,L,08.8,N,,,,*78
$IIDPT,002.6,+0.7,*44
$IIGLL,4612.831,N,00610.246,E,160358,A,A*55
$IIHDG,026,,,,*53
$IIMTW,+17.5,C*3B
$IIMWV,219,R,08.5,N,A*14
$IIMWV,218,T,08.8,N,A*1E
$IIRMC,160358,A,4612.831,N,00610.246,E,00.0,000,190814,,,A*49
$IIVHW,,,026,M,00.0,N,,*60
$IIVLW,53454,N,000.0,N*50
$IIVWR,141,L,08.5,N,,,,*76
$IIDPT,002.6,+0.7,*44
$IIGLL,4612.831,N,00610.246,E,160359,A,A*54
$IIHDG,027,,,,*52
$IIMTW,+17.5,C*3B
$IIMWV,221,R,08.4,N,A*1E
$IIMWV,219,T,08.5,N,A*12
$IIRMC,160359,A,4612.831,N,00610.246,E,00.0,000,190814,,,A*48
$IIVHW,,,027,M,00.0,N,,*61
$IIVLW,53454,N,000.0,N*50
$IIVWR,140,L,08.1,N,,,,*73
$IIDPT,002.6,+0.7,*44
$IIGLL,4612.831,N,00610.246,E,160400,A,A*5F
$IIHDG,026,,,,*53
$IIMTW,+17.5,C*3B
$IIMWV,220,R,08.1,N,A*1A
$IIMWV,221,T,08.4,N,A*18
$IIRMC,160400,A,4612.831,N,00610.246,E,00.0,000,190814,,,A*43
$IIVHW,,,026,M,00.0,N,,*60
$IIVLW,53454,N,000.0,N*50
$IIVWR,140,L,08.3,N,,,,*71
$IIDPT,002.6,+0.7,*44
$IIGLL,4612.831,N,00610.246,E,160401,A,A*5E
$IIHDG,026,,,,*53
$IIMTW,+17.5,C*3B
$IIMWV,220,R,08.3,N,A*18
$IIMWV,220,T,08.1,N,A*1C
$IIRMC,160401,A,4612.831,N,00610.246,E,00.0,000,190814,,,A*42
$IIVHW,,,026,M,00.0,N,,*60
$IIVLW,53454,N,000.0,N*50
$IIVWR,140,L,08.3,N,,,,*71
$IIDPT,002.6,+0.7,*44
$IIGLL,4612.831,N,00610.246,E,160402,A,A*5D
$IIHDG,026,,,,*53
$IIMTW,+17.5,C*3B
$IIMWV,220,R,08.3,N,A*18
$IIMWV,220,T,08.3,N,A*1E
$IIRMC,160403,A,4612.831,N,00610.246,E,00.0,000,190814,,,A*40
$IIVHW,,,026,M,00.0,N,,*60
$IIVLW,53454,N,000.0,N*50
$IIVWR,142,L,08.0,N,,,,*70
$IIDPT,002.6,+0.7,*44
$IIGLL,4612.831,N,00610.246,E,160403,A,A*5C
$IIHDG,026,,,,*53
$IIMTW,+17.5,C*3B
$IIMWV,218,R,08.0,N,A*10
$IIMWV,218,T,08.0,N,A*16
$IIRMC,160404,A,4612.831,N,00610.246,E,00.0,000,190814,,,A*47
$IIVHW,,,026,M,00.0,N,,*60
$IIVLW,53454,N,000.0,N*50
$IIVWR,141,L,08.1,N,,,,*72
$IIDPT,002.6,+0.7,*44
$IIGLL,4612.831,N,00610.246,E,160404,A,A*5B
$IIHDG,026,,,,*53
$IIMTW,+17.5,C*3B
$IIMWV,218,R,08.0,N,A*10
$IIMWV,219,T,08.1,N,A*16
$IIRMC,160405,A,4612.831,N,00610.246,E,00.0,000,190814,,,A*46
$IIVHW,,,026,M,00.0,N,,*60
$IIVLW,53454,N,000.0,N*50
$IIVWR,142,L,08.0,N,,,,*70
$IIDPT,002.6,+0.7,*44
$IIGLL,4612.831,N,00610.246,E,160405,A,A*5A
$IIHDG,026,,,,*53
$IIMTW,+17.5,C*3B
$IIMWV,217,R,08.1,N,A*1E
$IIMWV,218,T,08.0,N,A*16
$IIRMC,160405,A,4612.831,N,00610.246,E,00.0,000,190814,,,A*46
$IIVHW,,,026,M,00.0,N,,*60
$IIVLW,53454,N,000.0,N*50
$IIVWR,143,L,08.1,N,,,,*70
$IIDPT,002.6,+0.7,*44
$IIGLL,4612.831,N,00610.246,E,160405,A,A*5A
$IIHDG,026,,,,*53
$IIMTW,+17.5,C*3B
$IIMWV,215,R,08.1,N,A*1C
$IIMWV,217,T,08.1,N,A*18
$IIRMC,160407,A,4612.831,N,00610.246,E,00.0,000,190814,,,A*44
$IIVHW,,,026,M,00.0,N,,*60
$IIVLW,53454,N,000.0,N*50
$IIVWR,145,L,08.1,N,,,,*76
$IIDPT,002.6,+0.7,*44
$IIGLL,4612.831,N,00610.246,E,160408,A,A*57
$IIHDG,026,,,,*53
$IIMTW,+17.5,C*3B
$IIMWV,211,R,08.0,N,A*19
$IIMWV,215,T,08.1,N,A*1A
$IIRMC,160408,A,4612.831,N,00610.246,E,00.0,000,190814,,,A*4B
$IIVHW,,,026,M,00.0,N,,*60
$IIVLW,53454,N,000.0,N*50
$IIVWR,149,L,08.0,N,,,,*7B
$IIDPT,002.6,+0.7,*44
$IIGLL,4612.831,N,00610.246,E,160409,A,A*56
$IIHDG,026,,,,*53
$IIMTW,+17.5,C*3B
$IIMWV,213,R,07.8,N,A*1C
$IIMWV,211,T,08.0,N,A*1F
$IIRMC,160409,A,4612.831,N,00610.246,E,00.0,000,190814,,,A*4A
$IIVHW,,,026,M,00.0,N,,*60
$IIVLW,53454,N,000.0,N*50
$IIVWR,150,L,07.6,N,,,,*7A
$IIDPT,002.6,+0.7,*44
$IIGLL,4612.831,N,00610.246,E,160410,A,A*5E
$IIHDG,026,,,,*53
$IIMTW,+17.5,C*3B
$IIMWV,210,R,07.6,N,A*11
$IIMWV,213,T,07.8,N,A*1A
$IIRMC,160410,A,4612.831,N,00610.246,E,00.0,000,190814,,,A*42
$IIVHW,,,026,M,00.0,N,,*60
$IIVLW,53454,N,000.0,N*50
$IIVWR,151,L,07.9,N,,,,*74
$IIDPT,002.6,+0.7,*44
$IIGLL,4612.831,N,00610.246,E,160411,A,A*5F
$IIHDG,026,,,,*53
$IIMTW,+17.5,C*3B
$IIMWV,209,R,07.9,N,A*16
$IIMWV,210,T,07.6,N,A*17
$IIRMC,160411,A,4612.831,N,00610.246,E,00.0,000,190814,,,A*43
$IIVHW,,,026,M,00.0,N,,*60
$IIVLW,53454,N,000.0,N*50
$IIVWR,152,L,07.6,N,,,,*78
$IIDPT,002.6,+0.7,*44
$IIGLL,4612.831,N,00610.246,E,160412,A,A*5C
$IIHDG,026,,,,*53
$IIMTW,+17.5,C*3B
$IIMWV,208,R,07.6,N,A*18
$IIMWV,209,T,07.9,N,A*10
$IIRMC,160413,A,4612.831,N,00610.246,E,00.0,000,190814,,,A*41
$IIVHW,,,026,M,00.0,N,,*60
$IIVLW,53454,N,000.0,N*50
$IIVWR,153,L,07.5,N,,,,*7A
$IIDPT,002.6,+0.7,*44
$IIGLL,4612.831,N,00610.246,E,160413,A,A*5D
$IIHDG,026,,,,*53
$IIMTW,+17.5,C*3B
$IIMWV,207,R,07.5,N,A*14
$IIMWV,207,T,07.5,N,A*12
$IIRMC,160414,A,4612.831,N,00610.246,E,00.0,000,190814,,,A*46
$IIVHW,,,026,M,00.0,N,,*60
$IIVLW,53454,N,000.0,N*50
$IIVWR,153,L,07.4,N,,,,*7B
$IIDPT,002.6,+0.7,*44
$IIGLL,4612.831,N,00610.246,E,160414,A,A*5A
$IIHDG,026,,,,*53
$IIMTW,+17.5,C*3B
$IIMWV,207,R,07.2,N,A*13
$IIMWV,207,T,07.4,N,A*13
$IIRMC,160415,A,4612.831,N,00610.246,E,00.0,000,190814,,,A*47
$IIVHW,,,026,M,00.0,N,,*60
$IIVLW,53454,N,000.0,N*50
$IIVWR,153,L,07.2,N,,,,*7D
$IIDPT,002.6,+0.7,*44
$IIGLL,4612.831,N,00610.246,E,160415,A,A*5B
$IIHDG,026,,,,*53
$IIMTW,+17.5,C*3B
$IIMWV,207,R,07.2,N,A*13
$IIMWV,207,T,07.2,N,A*15
$IIRMC,160416,A,4612.831,N,00610.246,E,00.0,000,190814,,,A*44
$IIVHW,,,026,M,00.0,N,,*60
$IIVLW,53454,N,000.0,N*50
$IIVWR,153,L,07.2,N,,,,*7D
$IIDPT,002.6,+0.7,*44
$IIGLL,4612.831,N,00610.246,E,160416,A,A*58
$IIHDG,026,,,,*53
$IIMTW,+17.5,C*3B
$IIMWV,208,R,07.2,N,A*1C
$IIMWV,207,T,07.2,N,A*15
$IIRMC,160417,A,4612.831,N,00610.246,E,00.0,000,190814,,,A*45
$IIVHW,,,026,M,00.0,N,,*60
$IIVLW,53454,N,000.0,N*50
$IIVWR,152,L,07.2,N,,,,*7C
$IIDPT,002.6,+0.7,*44
$IIGLL,4612.831,N,00610.246,E,160418,A,A*56
$IIHDG,026,,,,*53
$IIMTW,+17.5,C*3B
$IIMWV,207,R,06.8,N,A*18
$IIMWV,208,T,07.2,N,A*1A
$IIRMC,160418,A,4612.831,N,00610.246,E,00.0,000,190814,,,A*4A
$IIVHW,,,026,M,00.0,N,,*60
$IIVLW,53454,N,000.0,N*50
$IIVWR,153,L,06.8,N,,,,*76
$IIDPT,002.6,+0.7,*44
$IIGLL,4612.831,N,00610.246,E,160418,A,A*56
$IIHDG,026,,,,*53
$IIMTW,+17.5,C*3B
$IIMWV,206,R,06.1,N,A*10
$IIMWV,207,T,06.8,N,A*1E
$IIRMC,160418,A,4612.831,N,00610.246,E,00.0,000,190814,,,A*4A
$IIVHW,,,026,M,00.0,N,,*60
$IIVLW,53454,N,000.0,N*50
$IIVWR,152,L,05.9,N,,,,*75
$IIDPT,002.6,+0.7,*44
$IIGLL,4612.831,N,00610.246,E,160418,A,A*56
$IIHDG,026,,,,*53
$IIMTW,+17.5,C*3B
$IIMWV,208,R,05.9,N,A*15
$IIMWV,206,T,06.1,N,A*16
$IIRMC,160418,A,4612.831,N,00610.246,E,00.0,000,190814,,,A*4A
$IIVHW,,,026,M,00.0,N,,*60
$IIVLW,53454,N,000.0,N*50
$IIVWR,150,L,05.9,N,,,,*77
$IIDPT,002.6,+0.7,*44
$IIGLL,4612.831,N,00610.246,E,160421,A,A*5C
$IIHDG,026,,,,*53
$IIMTW,+17.5,C*3B
$IIMWV,210,R,05.9,N,A*1C
$IIMWV,208,T,05.9,N,A*13
$IIRMC,160421,A,4612.831,N,00610.246,E,00.0,000,190814,,,A*40
$IIVHW,,,026,M,00.0,N,,*60
$IIVLW,53454,N,000.0,N*50
$IIVWR,145,L,06.5,N,,,,*7C
$IIDPT,002.6,+0.7,*44
$IIGLL,4612.831,N,00610.246,E,160422,A,A*5F
$IIHDG,026,,,,*53
$IIMTW,+17.5,C*3B
$IIMWV,215,R,06.5,N,A*16
$IIMWV,210,T,05.9,N,A*1A
$IIRMC,160423,A,4612.831,N,00610.246,E,00.0,000,190814,,,A*42
$IIVHW,,,026,M,00.0,N,,*60
$IIVLW,53454,N,000.0,N*50
$IIVWR,142,L,06.3,N,,,,*7D
$IIDPT,002.6,+0.7,*44
$IIGLL,4612.831,N,00610.246,E,160423,A,A*5E
$IIHDG,026,,,,*53
$IIMTW,+17.5,C*3B
$IIMWV,218,R,06.3,N,A*1D
$IIMWV,218,T,06.3,N,A*1B
$IIRMC,160424,A,4612.831,N,00610.246,E,00.0,000,190814,,,A*45
$IIVHW,,,026,M,00.0,N,,*60
$IIVLW,53454,N,000.0,N*50
$IIVWR,138,L,07.1,N,,,,*73
$IIDPT,002.6,+0.7,*44
$IIGLL,4612.831,N,00610.246,E,160424,A,A*59
$IIHDG,026,,,,*53
$IIMTW,+17.5,C*3B
$IIMWV,223,R,07.1,N,A*16
$IIMWV,222,T,07.1,N,A*11
$IIRMC,160425,A,4612.831,N,00610.246,E,00.0,000,190814,,,A*44
$IIVHW,,,026,M,00.0,N,,*60
$IIVLW,53454,N,000.0,N*50
$IIVWR,137,L,07.1,N,,,,*7C
$IIDPT,002.6,+0.7,*44
$IIGLL,4612.831,N,00610.246,E,160425,A,A*58
$IIHDG,026,,,,*53
$IIMTW,+17.5,C*3B
$IIMWV,220,R,07.2,N,A*16
$IIMWV,222,T,07.4,N,A*14
$IIRMC,160427,A,4612.831,N,00610.246,E,00.0,000,190814,,,A*46
$IIVHW,,,026,M,00.0,N,,*60
$IIVLW,53454,N,000.0,N*50
$IIVWR,140,L,07.2,N,,,,*7F
$IIDPT,002.6,+0.7,*44
$IIGLL,4612.831,N,00610.246,E,160427,A,A*5A
$IIHDG,026,,,,*53
$IIMTW,+17.5,C*3B
$IIMWV,220,R,08.1,N,A*1A
$IIMWV,220,T,07.2,N,A*10
$IIRMC,160428,A,4612.831,N,00610.246,E,00.0,000,190814,,,A*49
$IIVHW,,,026,M,00.0,N,,*60
$IIVLW,53454,N,000.0,N*50
$IIVWR,140,L,08.1,N,,,,*73
$IIDPT,002.6,+0.7,*44
$IIGLL,4612.831,N,00610.246,E,160429,A,A*54
$IIHDG,026,,,,*53
$IIMTW,+17.5,C*3B
$IIMWV,218,R,08.8,N,A*18
$IIMWV,220,T,08.1,N,A*1C
$IIRMC,160429,A,4612.831,N,00610.246,E,00.0,000,190814,,,A*48
$IIVHW,,,026,M,00.0,N,,*60
$IIVLW,53454,N,000.0,N*50
$IIVWR,142,L,08.8,N,,,,*78
$IIDPT,002.6,+0.7,*44
$IIGLL,4612.831,N,00610.246,E,160429,A,A*54
$IIHDG,026,,,,*53
$IIMTW,+17.5,C*3B
$IIMWV,215,R,08.8,N,A*15
$IIMWV,218,T,08.8,N,A*1E
$IIRMC,160429,A,4612.831,N,00610.246,E,00.0,000,190814,,,A*48
$IIVHW,,,026,M,00.0,N,,*60
$IIVLW,53454,N,000.0,N*50
$IIVWR,142,L,09.1,N,,,,*70
$IIDPT,002.6,+0.7,*44
$IIGLL,4612.831,N,00610.246,E,160431,A,A*5D
$IIHDG,026,,,,*53
$IIMTW,+17.5,C*3B
$IIMWV,218,R,09.1,N,A*10
$IIMWV,215,T,08.8,N,A*13
$IIRMC,160431,A,4612.831,N,00610.246,E,00.0,000,190814,,,A*41
$IIVHW,,,026,M,00.0,N,,*60
$IIVLW,53454,N,000.0,N*50
$IIVWR,143,L,09.7,N,,,,*77
$IIDPT,002.6,+0.7,*44
$IIGLL,4612.830,N,00610.245,E,160432,A,A*5C
$IIHDG,026,,,,*53
$IIMTW,+17.5,C*3B
$IIMWV,217,R,09.7,N,A*19
$IIMWV,218,T,09.1,N,A*16
$IIRMC,160432,A,4612.830,N,00610.245,E,00.0,000,190814,,,A*40
$IIVHW,,,025,M,00.0,N,,*63
$IIVLW,53454,N,000.0,N*50
$IIVWR,144,L,10.6,N,,,,*79
$IIDPT,002.6,+0.7,*44
$IIGLL,4612.831,N,00610.246,E,160433,A,A*5F
$IIHDG,025,,,,*50
$IIMTW,+17.5,C*3B
$IIMWV,216,R,10.6,N,A*11
$IIMWV,217,T,09.7,N,A*1F
$IIRMC,160434,A,4612.831,N,00610.245,E,00.0,000,190814,,,A*47
$IIVHW,,,025,M,00.0,N,,*63
$IIVLW,53454,N,000.0,N*50
$IIVWR,146,L,11.1,N,,,,*7D
$IIDPT,002.6,+0.7,*44
$IIGLL,4612.831,N,00610.245,E,160434,A,A*5B
$IIHDG,025,,,,*50
$IIMTW,+17.5,C*3B
$IIMWV,214,R,11.1,N,A*15
$IIMWV,214,T,11.1,N,A*13
$IIRMC,160435,A,4612.831,N,00610.245,E,00.0,000,190814,,,A*46
$IIVHW,,,026,M,00.0,N,,*60
$IIVLW,53454,N,000.0,N*50
$IIVWR,149,L,11.5,N,,,,*76
$IIDPT,002.6,+0.7,*44
$IIGLL,4612.831,N,00610.245,E,160435,A,A*5A
$IIHDG,026,,,,*53
$IIMTW,+17.5,C*3B
$IIMWV,207,R,11.5,N,A*13
$IIMWV,211,T,11.5,N,A*12
$IIRMC,160435,A,4612.831,N,00610.245,E,00.0,000,190814,,,A*46
$IIVHW,,,026,M,00.0,N,,*60
$IIVLW,53454,N,000.0,N*50
$IIVWR,153,L,11.5,N,,,,*7D
$IIDPT,002.6,+0.7,*44
$IIGLL,4612.831,N,00610.245,E,160435,A,A*5A
$IIHDG,026,,,,*53
$IIMTW,+17.5,C*3B
$IIMWV,202,R,10.6,N,A*14
$IIMWV,207,T,11.5,N,A*15
$IIRMC,160437,A,4612.831,N,00610.245,E,00.0,000,190814,,,A*44
$IIVHW,,,027,M,00.0,N,,*61
$IIVLW,53454,N,000.0,N*50
$IIVWR,158,L,10.6,N,,,,*74
$IIDPT,002.6,+0.7,*44
$IIGLL,4612.831,N,00610.245,E,160437,A,A*58
$IIHDG,027,,,,*52
$IIMTW,+17.5,C*3B
$IIMWV,201,R,10.0,N,A*11
$IIMWV,202,T,10.6,N,A*12
$IIRMC,160438,A,4612.831,N,00610.245,E,00.0,000,190814,,,A*4B
$IIVHW,,,027,M,00.0,N,,*61
$IIVLW,53454,N,000.0,N*50
$IIVWR,159,L,10.0,N,,,,*73
$IIDPT,002.6,+0.7,*44
$IIGLL,4612.830,N,00610.245,E,160439,A,A*57
$IIHDG,027,,,,*52
$IIMTW,+17.5,C*3B
$IIMWV,204,R,09.4,N,A*18
$IIMWV,201,T,10.0,N,A*17
$IIRMC,160439,A,4612.830,N,00610.245,E,00.0,000,190814,,,A*4B
$IIVHW,,,027,M,00.0,N,,*61
$IIVLW,53454,N,000.0,N*50
$IIVWR,156,L,09.4,N,,,,*70
$IIDPT,002.6,+0.7,*44
$IIGLL,4612.830,N,00610.244,E,160440,A,A*58
$IIHDG,026,,,,*53
$IIMTW,+17.5,C*3B
$IIMWV,207,R,09.6,N,A*19
$IIMWV,204,T,09.4,N,A*1E
$IIRMC,160440,A,4612.830,N,00610.244,E,00.0,000,190814,,,A*44
$IIVHW,,,026,M,00.0,N,,*60
$IIVLW,53454,N,000.0,N*50
$IIVWR,154,L,10.4,N,,,,*7A
$IIDPT,002.6,+0.7,*44
$IIGLL,4612.830,N,00610.245,E,160441,A,A*58
$IIHDG,026,,,,*53
$IIMTW,+17.5,C*3B
$IIMWV,206,R,10.4,N,A*12
$IIMWV,207,T,09.6,N,A*1F
$IIRMC,160441,A,4612.830,N,00610.245,E,00.0,000,190814,,,A*44
$IIVHW,,,026,M,00.0,N,,*60
$IIVLW,53454,N,000.0,N*50
$IIVWR,152,L,11.0,N,,,,*79
$IIDPT,002.6,+0.7,*44
$IIGLL,4612.830,N,00610.245,E,160442,A,A*5B
$IIHDG,026,,,,*53
$IIMTW,+17.5,C*3B
$IIMWV,208,R,11.0,N,A*19
$IIMWV,206,T,10.4,N,A*14
$IIRMC,160442,A,4612.830,N,00610.245,E,00.0,000,190814,,,A*47
$IIVHW,,,026,M,00.0,N,,*60
$IIVLW,53454,N,000.0,N*50
$IIVWR,153,L,11.8,N,,,,*70
$IIDPT,002.6,+0.7,*44
$IIGLL,4612.831,N,00610.245,E,160443,A,A*5B
$IIHDG,026,,,,*53
$IIMTW,+17.5,C*3B
$IIMWV,207,R,11.8,N,A*1E
$IIMWV,208,T,11.0,N,A*1F
$IIRMC,160444,A,4612.830,N,00610.245,E,00.0,000,190814,,,A*41
$IIVHW,,,026,M,00.0,N,,*60
$IIVLW,53454,N,000.0,N*50
$IIVWR,150,L,11.9,N,,,,*72
$IIDPT,002.6,+0.7,*44
$IIGLL,4612.830,N,00610.245,E,160444,A,A*5D
$IIHDG,026,,,,*53
$IIMTW,+17.5,C*3B
$IIMWV,210,R,11.9,N,A*19
$IIMWV,210,T,11.9,N,A*1F
$IIRMC,160445,A,4612.831,N,00610.245,E,00.0,000,190814,,,A*41
$IIVHW,,,027,M,00.0,N,,*61
$IIVLW,53454,N,000.0,N*50
$IIVWR,146,L,12.8,N,,,,*77
$IIDPT,002.6,+0.7,*44
$IIGLL,4612.831,N,00610.245,E,160445,A,A*5D
$IIHDG,027,,,,*52
$IIMTW,+17.5,C*3B
$IIMWV,218,R,14.3,N,A*1E
$IIMWV,214,T,12.8,N,A*19
$IIRMC,160445,A,4612.831,N,00610.245,E,00.0,000,190814,,,A*41
$IIVHW,,,027,M,00.0,N,,*61
$IIVLW,53454,N,000.0,N*50
$IIVWR,142,L,14.3,N,,,,*7E
$IIDPT,002.6,+0.7,*44
$IIGLL,4612.831,N,00610.245,E,160445,A,A*5D
$IIHDG,027,,,,*52
$IIMTW,+17.5,C*3B
$IIMWV,220,R,15.4,N,A*13
$IIMWV,218,T,14.3,N,A*18
$IIRMC,160447,A,4612.831,N,00610.245,E,00.0,000,190814,,,A*43
$IIVHW,,,026,M,00.0,N,,*60
$IIVLW,53454,N,000.0,N*50
$IIVWR,140,L,15.4,N,,,,*7A
$IIDPT,002.6,+0.7,*44
$IIGLL,4612.831,N,00610.245,E,160447,A,A*5F
$IIHDG,026,,,,*53
$IIMTW,+17.5,C*3B
$IIMWV,221,R,16.5,N,A*10
$IIMWV,220,T,15.4,N,A*15
$IIRMC,160448,A,4612.831,N,00610.244,E,00.0,000,190814,,,A*4D
$IIVHW,,,026,M,00.0,N,,*60
$IIVLW,53454,N,000.0,N*50
$IIVWR,139,L,16.5,N,,,,*76
$IIDPT,002.6,+0.7,*44
$IIGLL,4612.830,N,00610.244,E,160449,A,A*51
$IIHDG,026,,,,*53
$IIMTW,+17.5,C*3B
$IIMWV,223,R,17.1,N,A*17
$IIMWV,221,T,16.5,N,A*16
$IIRMC,160449,A,4612.830,N,00610.244,E,00.0,000,190814,,,A*4D
$IIVHW,,,026,M,00.0,N,,*60
$IIVLW,53454,N,000.0,N*50
$IIVWR,137,L,17.1,N,,,,*7D
$IIDPT,002.6,+0.7,*44
$IIGLL,4612.831,N,00610.244,E,160450,A,A*58
$IIHDG,025,,,,*50
$IIMTW,+17.5,C*3B
$IIMWV,225,R,17.8,N,A*18
$IIMWV,223,T,17.1,N,A*11
$IIRMC,160450,A,4612.831,N,00610.244,E,00.0,000,190814,,,A*44
$IIVHW,,,025,M,00.0,N,,*63
$IIVLW,53454,N,000.0,N*50
$IIVWR,134,L,18.4,N,,,,*74
$IIDPT,002.6,+0.7,*44
$IIGLL,4612.831,N,00610.244,E,160451,A,A*59
$IIHDG,025,,,,*50
$IIMTW,+17.5,C*3B
$IIMWV,226,R,18.4,N,A*18
$IIMWV,225,T,17.8,N,A*1E
$IIRMC,160451,A,4612.831,N,00610.244,E,00.0,000,190814,,,A*45
$IIVHW,,,025,M,00.0,N,,*63
$IIVLW,53454,N,000.0,N*50
$IIVWR,133,L,18.7,N,,,,*70
$IIDPT,002.6,+0.7,*44
$IIGLL,4612.831,N,00610.244,E,160452,A,A*5A
$IIHDG,025,,,,*50
$IIMTW,+17.5,C*3B
$IIMWV,227,R,18.7,N,A*1A
$IIMWV,226,T,18.4,N,A*1E
$IIRMC,160452,A,4612.831,N,00610.244,E,00.0,000,190814,,,A*46
$IIVHW,,,026,M,00.0,N,,*60
$IIVLW,53454,N,000.0,N*50
$IIVWR,132,L,18.5,N,,,,*73
$IIDPT,002.6,+0.7,*44
$IIGLL,4612.831,N,00610.244,E,160453,A,A*5B
$IIHDG,026,,,,*53
$IIMTW,+17.5,C*3B
$IIMWV,228,R,18.5,N,A*17
$IIMWV,227,T,18.7,N,A*1C
$IIRMC,160454,A,4612.831,N,00610.244,E,00.0,000,190814,,,A*40
$IIVHW,,,027,M,00.0,N,,*61
$IIVLW,53454,N,000.0,N*50
$IIVWR,129,L,18.3,N,,,,*7F
$IIDPT,002.6,+0.7,*44
$IIGLL,4612.831,N,00610.244,E,160454,A,A*5C
$IIHDG,027,,,,*52
$IIMTW,+17.5,C*3B
$IIMWV,231,R,18.3,N,A*19
$IIMWV,231,T,18.3,N,A*1F
$IIRMC,160455,A,4612.831,N,00610.244,E,00.0,000,190814,,,A*41
$IIVHW,,,027,M,00.0,N,,*61
$IIVLW,53454,N,000.0,N*50
$IIVWR,127,L,18.0,N,,,,*72
$IIDPT,002.6,+0.7,*44
$IIGLL,4612.831,N,00610.244,E,160455,A,A*5D
$IIHDG,027,,,,*52
$IIMTW,+17.5,C*3B
$IIMWV,230,R,17.5,N,A*11
$IIMWV,233,T,18.0,N,A*1E
$IIRMC,160456,A,4612.831,N,00610.244,E,00.0,000,190814,,,A*42
$IIVHW,,,028,M,00.0,N,,*6E
$IIVLW,53454,N,000.0,N*50
$IIVWR,130,L,17.5,N,,,,*7E
$IIDPT,002.6,+0.7,*44
$IIGLL,4612.831,N,00610.244,E,160456,A,A*5E
$IIHDG,028,,,,*5D
$IIMTW,+17.5,C*3B
$IIMWV,227,R,16.5,N,A*16
$IIMWV,230,T,17.5,N,A*17
$IIRMC,160457,A,4612.831,N,00610.244,E,00.0,000,190814,,,A*43
$IIVHW,,,029,M,00.0,N,,*6F
$IIVLW,53454,N,000.0,N*50
$IIVWR,133,L,16.5,N,,,,*7C
$IIDPT,002.6,+0.7,*44
$IIGLL,4612.831,N,00610.244,E,160457,A,A*5F
$IIHDG,028,,,,*5D
$IIMTW,+17.5,C*3B
$IIMWV,228,R,16.7,N,A*1B
$IIMWV,227,T,16.5,N,A*10
$IIRMC,160458,A,4612.831,N,00610.244,E,00.0,000,190814,,,A*4C
$IIVHW,,,028,M,00.0,N,,*6E
$IIVLW,53454,N,000.0,N*50
$IIVWR,132,L,16.7,N,,,,*7F
$IIDPT,002.6,+0.7,*44
$IIGLL,4612.831,N,00610.243,E,160459,A,A*56
$IIHDG,027,,,,*52
$IIMTW,+17.5,C*3B
$IIMWV,228,R,17.2,N,A*1F
$IIMWV,228,T,16.7,N,A*1D
$IIRMC,160459,A,4612.831,N,00610.243,E,00.0,000,190814,,,A*4A
$IIVHW,,,027,M,00.0,N,,*61
$IIVLW,53454,N,000.0,N*50
$IIVWR,132,L,17.2,N,,,,*7B
$IIDPT,002.6,+0.7,*44
$IIGLL,4612.831,N,00610.243,E,160500,A,A*5B
$IIHDG,026,,,,*53
$IIMTW,+17.5,C*3B
$IIMWV,228,R,16.7,N,A*1B
$IIMWV,228,T,17.2,N,A*19
$IIRMC,160500,A,4612.831,N,00610.243,E,00.0,000,190814,,,A*47
$IIVHW,,,026,M,00.0,N,,*60
$IIVLW,53454,N,000.0,N*50
$IIVWR,131,L,16.9,N,,,,*72
$IIDPT,002.6,+0.7,*44
$IIGLL,4612.831,N,00610.243,E,160501,A,A*5A
$IIHDG,025,,,,*50
$IIMTW,+17.5,C*3B
$IIMWV,229,R,16.9,N,A*14
$IIMWV,228,T,16.7,N,A*1D
$IIRMC,160501,A,4612.831,N,00610.243,E,00.0,000,190814,,,A*46
$IIVHW,,,025,M,00.0,N,,*63
$IIVLW,53454,N,000.0,N*50
$IIVWR,131,L,16.9,N,,,,*72
$IIDPT,002.6,+0.7,*44
$IIGLL,4612.831,N,00610.243,E,160501,A,A*5A
$IIHDG,025,,,,*50
$IIMTW,+17.5,C*3B
$IIMWV,229,R,16.9,N,A*14
$IIMWV,229,T,16.9,N,A*12
$IIRMC,160501,A,4612.831,N,00610.243,E,00.0,000,190814,,,A*46
$IIVHW,,,024,M,00.0,N,,*62
$IIVLW,53454,N,000.0,N*50
$IIVWR,128,L,17.1,N,,,,*73
$IIDPT,002.6,+0.7,*44
$IIGLL,4612.830,N,00610.244,E,160503,A,A*5E
$IIHDG,024,,,,*51
$IIMTW,+17.5,C*3B
$IIMWV,232,R,17.1,N,A*17
$IIMWV,229,T,16.9,N,A*12
$IIRMC,160504,A,4612.830,N,00610.244,E,00.0,000,190814,,,A*45
$IIVHW,,,023,M,00.0,N,,*65
$IIVLW,53454,N,000.0,N*50
$IIVWR,127,L,15.6,N,,,,*79
$IIDPT,002.6,+0.7,*44
$IIGLL,4612.830,N,00610.244,E,160504,A,A*59
$IIHDG,023,,,,*56
$IIMTW,+17.5,C*3B
$IIMWV,233,R,15.6,N,A*13
$IIMWV,233,T,15.6,N,A*15
$IIRMC,160505,A,4612.830,N,00610.244,E,00.0,000,190814,,,A*44
$IIVHW,,,024,M,00.0,N,,*62
$IIVLW,53454,N,000.0,N*50
$IIVWR,126,L,15.2,N,,,,*7C
$IIDPT,002.6,+0.7,*44
$IIGLL,4612.830,N,00610.244,E,160505,A,A*58
$IIHDG,024,,,,*51
$IIMTW,+17.5,C*3B
$IIMWV,234,R,14.5,N,A*16
$IIMWV,234,T,15.2,N,A*16
$IIRMC,160506,A,4612.830,N,00610.244,E,00.0,000,190814,,,A*47
$IIVHW,,,024,M,00.0,N,,*62
$IIVLW,53454,N,000.0,N*50
$IIVWR,126,L,14.5,N,,,,*7A
$IIDPT,002.6,+0.7,*44
$IIGLL,4612.830,N,00610.244,E,160506,A,A*5B
$IIHDG,024,,,,*51
$IIMTW,+17.5,C*3B
$IIMWV,236,R,14.4,N,A*15
$IIMWV,234,T,14.5,N,A*10
$IIRMC,160507,A,4612.830,N,00610.244,E,00.0,000,190814,,,A*46
$IIVHW,,,025,M,00.0,N,,*63
$IIVLW,53454,N,000.0,N*50
$IIVWR,124,L,14.4,N,,,,*79
$IIDPT,002.6,+0.7,*44
$IIGLL,4612.830,N,00610.244,E,160507,A,A*5A
$IIHDG,025,,,,*50
$IIMTW,+17.5,C*3B
$IIMWV,236,R,14.1,N,A*10
$IIMWV,236,T,14.4,N,A*13
$IIRMC,160508,A,4612.830,N,00610.244,E,00.0,000,190814,,,A*49
$IIVHW,,,025,M,00.0,N,,*63
$IIVLW,53454,N,000.0,N*50
$IIVWR,124,L,14.1,N,,,,*7C
$IIDPT,002.6,+0.7,*44
$IIGLL,4612.830,N,00610.244,E,160509,A,A*54
$IIHDG,026,,,,*53
$IIMTW,+17.5,C*3B
$IIMWV,234,R,14.8,N,A*1B
$IIMWV,236,T,14.1,N,A*16
$IIRMC,160509,A,4612.830,N,00610.244,E,00.0,000,190814,,,A*48
$IIVHW,,,026,M,00.0,N,,*60
$IIVLW,53454,N,000.0,N*50
$IIVWR,126,L,14.8,N,,,,*77
$IIDPT,002.6,+0.7,*44
$IIGLL,4612.830,N,00610.244,E,160510,A,A*5C
$IIHDG,025,,,,*50
$IIMTW,+17.5,C*3B
$IIMWV,232,R,15.2,N,A*16
$IIMWV,234,T,14.8,N,A*1D
$IIRMC,160510,A,4612.830,N,00610.244,E,00.0,000,190814,,,A*40
$IIVHW,,,025,M,00.0,N,,*63
$IIVLW,53454,N,000.0,N*50
$IIVWR,132,L,14.9,N,,,,*73
$IIDPT,002.6,+0.7,*44
$IIGLL,4612.830,N,00610.244,E,160511,A,A*5D
$IIHDG,025,,,,*50
$IIMTW,+17.5,C*3B
$IIMWV,228,R,14.9,N,A*17
$IIMWV,232,T,15.2,N,A*10
$IIRMC,160511,A,4612.830,N,00610.244,E,00.0,000,190814,,,A*41
$IIVHW,,,025,M,00.0,N,,*63
$IIVLW,53454,N,000.0,N*50
$IIVWR,131,L,14.6,N,,,,*7F
$IIDPT,002.6,+0.7,*44
$IIGLL,4612.830,N,00610.244,E,160512,A,A*5E
$IIHDG,025,,,,*50
$IIMTW,+17.5,C*3B
$IIMWV,229,R,14.6,N,A*19
$IIMWV,228,T,14.9,N,A*11
$IIRMC,160512,A,4612.830,N,00610.244,E,00.0,000,190814,,,A*42
$IIVHW,,,025,M,00.0,N,,*63
$IIVLW,53454,N,000.0,N*50
$IIVWR,133,L,15.2,N,,,,*78
$IIDPT,002.6,+0.7,*44
$IIGLL,4612.830,N,00610.243,E,160513,A,A*58
$IIHDG,025,,,,*50
$IIMTW,+17.5,C*3B
$IIMWV,227,R,15.2,N,A*12
$IIMWV,229,T,14.6,N,A*1F
$IIRMC,160514,A,4612.830,N,00610.243,E,00.0,000,190814,,,A*43
$IIVHW,,,025,M,00.0,N,,*63
$IIVLW,53454,N,000.0,N*50
$IIVWR,134,L,15.0,N,,,,*7D
$IIDPT,002.6,+0.7,*44
$IIGLL,4612.830,N,00610.243,E,160514,A,A*5F
$IIHDG,025,,,,*50
$IIMTW,+17.5,C*3B
$IIMWV,226,R,15.0,N,A*11
$IIMWV,226,T,15.0,N,A*17
$IIRMC,160515,A,4612.830,N,00610.243,E,00.0,000,190814,,,A*42
$IIVHW,,,025,M,00.0,N,,*63
$IIVLW,53454,N,000.0,N*50
$IIVWR,133,L,16.1,N,,,,*78
$IIDPT,002.6,+0.7,*44
$IIGLL,4612.830,N,00610.243,E,160515,A,A*5E
$IIHDG,025,,,,*50
$IIMTW,+17.5,C*3B
$IIMWV,228,R,16.6,N,A*1A
$IIMWV,227,T,16.1,N,A*14
$IIRMC,160516,A,4612.830,N,00610.243,E,00.0,000,190814,,,A*41
$IIVHW,,,024,M,00.0,N,,*62
$IIVLW,53454,N,000.0,N*50
$IIVWR,132,L,16.6,N,,,,*7E
$IIDPT,002.6,+0.7,*44
$IIGLL,4612.830,N,00610.243,E,160516,A,A*5D
$IIHDG,024,,,,*51
$IIMTW,+17.5,C*3B
$IIMWV,227,R,17.2,N,A*10
$IIMWV,228,T,16.6,N,A*1C
$IIRMC,160517,A,4612.830,N,00610.243,E,00.0,000,190814,,,A*40
$IIVHW,,,025,M,00.0,N,,*63
$IIVLW,53454,N,000.0,N*50
$IIVWR,133,L,17.2,N,,,,*7A
$IIDPT,002.6,+0.7,*44
$IIGLL,4612.830,N,00610.243,E,160517,A,A*5C
$IIHDG,026,,,,*53
$IIMTW,+17.5,C*3B
$IIMWV,226,R,16.7,N,A*15
$IIMWV,227,T,17.2,N,A*16
$IIRMC,160518,A,4612.830,N,00610.243,E,00.0,000,190814,,,A*4F
$IIVHW,,,026,M,00.0,N,,*60
$IIVLW,53454,N,000.0,N*50
$IIVWR,134,L,16.7,N,,,,*79
$IIDPT,002.6,+0.7,*44
$IIGLL,4612.830,N,00610.243,E,160519,A,A*52
$IIHDG,026,,,,*53
$IIMTW,+17.5,C*3B
$IIMWV,225,R,16.9,N,A*18
$IIMWV,226,T,16.7,N,A*13
$IIRMC,160519,A,4612.830,N,00610.243,E,00.0,000,190814,,,A*4E
$IIVHW,,,026,M,00.0,N,,*60
$IIVLW,53454,N,000.0,N*50
$IIVWR,135,L,16.9,N,,,,*76
$IIDPT,002.6,+0.7,*44
$IIGLL,4612.830,N,00610.243,E,160520,A,A*58
$IIHDG,026,,,,*53
$IIMTW,+17.5,C*3B
$IIMWV,225,R,16.5,N,A*14
$IIMWV,225,T,16.9,N,A*1E
$IIRMC,160520,A,4612.830,N,00610.243,E,00.0,000,190814,,,A*44
$IIVHW,,,026,M,00.0,N,,*60
$IIVLW,53454,N,000.0,N*50
$IIVWR,136,L,16.2,N,,,,*7E
$IIDPT,002.6,+0.7,*44
$IIGLL,4612.830,N,00610.243,E,160521,A,A*59
$IIHDG,026,,,,*53
$IIMTW,+17.5,C*3B
$IIMWV,224,R,16.2,N,A*12
$IIMWV,225,T,16.5,N,A*12
$IIRMC,160521,A,4612.830,N,00610.243,E,00.0,000,190814,,,A*45
$IIVHW,,,026,M,00.0,N,,*60
$IIVLW,53454,N,000.0,N*50
$IIVWR,134,L,15.9,N,,,,*74
$IIDPT,002.6,+0.7,*44
$IIGLL,4612.830,N,00610.243,E,160522,A,A*5A
$IIHDG,026,,,,*53
$IIMTW,+17.5,C*3B
$IIMWV,226,R,15.9,N,A*18
$IIMWV,224,T,16.2,N,A*14
$IIRMC,160522,A,4612.830,N,00610.243,E,00.0,000,190814,,,A*46
$IIVHW,,,026,M,00.0,N,,*60
$IIVLW,53454,N,000.0,N*50
$IIVWR,134,L,16.5,N,,,,*7B
$IIDPT,002.6,+0.7,*44
$IIGLL,4612.830,N,00610.243,E,160523,A,A*5B
$IIHDG,026,,,,*53
$IIMTW,+17.5,C*3B
$IIMWV,226,R,16.5,N,A*17
$IIMWV,226,T,15.9,N,A*1E
$IIRMC,160524,A,4612.830,N,00610.243,E,00.0,000,190814,,,A*40
$IIVHW,,,025,M,00.0,N,,*63
$IIVLW,53454,N,000.0,N*50
$IIVWR,135,L,16.2,N,,,,*7D
$IIDPT,002.6,+0.7,*44
$IIGLL,4612.830,N,00610.243,E,160524,A,A*5C
$IIHDG,025,,,,*50
$IIMTW,+17.5,C*3B
$IIMWV,225,R,16.2,N,A*13
$IIMWV,225,T,16.2,N,A*15
$IIRMC,160525,A,4612.830,N,00610.243,E,00.0,000,190814,,,A*41
$IIVHW,,,025,M,00.0,N,,*63
$IIVLW,53454,N,000.0,N*50
$IIVWR,138,L,15.4,N,,,,*75
$IIDPT,002.6,+0.7,*44
$IIGLL,4612.830,N,00610.243,E,160525,A,A*5D
$IIHDG,025,,,,*50
$IIMTW,+17.5,C*3B
$IIMWV,223,R,14.6,N,A*13
$IIMWV,222,T,15.4,N,A*17
$IIRMC,160526,A,4612.830,N,00610.243,E,00.0,000,190814,,,A*42
$IIVHW,,,026,M,00.0,N,,*60
$IIVLW,53454,N,000.0,N*50
$IIVWR,137,L,14.6,N,,,,*79
$IIDPT,002.6,+0.7,*44
$IIGLL,4612.830,N,00610.243,E,160526,A,A*5E
$IIHDG,026,,,,*53
$IIMTW,+17.5,C*3B
$IIMWV,225,R,14.3,N,A*10
$IIMWV,223,T,14.6,N,A*15
$IIRMC,160527,A,4612.830,N,00610.243,E,00.0,000,190814,,,A*43
$IIVHW,,,024,M,00.0,N,,*62
$IIVLW,53454,N,000.0,N*50
$IIVWR,135,L,14.3,N,,,,*7E
$IIDPT,002.6,+0.7,*44
$IIGLL,4612.830,N,00610.243,E,160527,A,A*5F
$IIHDG,025,,,,*50
$IIMTW,+17.5,C*3B
$IIMWV,223,R,13.9,N,A*1B
$IIMWV,225,T,14.3,N,A*16
$IIRMC,160528,A,4612.830,N,00610.243,E,00.0,000,190814,,,A*4C
$IIVHW,,,025,M,00.0,N,,*63
$IIVLW,53454,N,000.0,N*50
$IIVWR,137,L,13.9,N,,,,*71
$IIDPT,002.6,+0.7,*44
$IIGLL,4612.830,N,00610.243,E,160529,A,A*51
$IIHDG,026,,,,*53
$IIMTW,+17.5,C*3B
$IIMWV,224,R,13.7,N,A*12
$IIMWV,223,T,13.9,N,A*1D
$IIRMC,160529,A,4612.830,N,00610.243,E,00.0,000,190814,,,A*4D
$IIVHW,,,026,M,00.0,N,,*60
$IIVLW,53454,N,000.0,N*50
$IIVWR,136,L,13.7,N,,,,*7E
$IIDPT,002.6,+0.7,*44
$IIGLL,4612.830,N,00610.243,E,160530,A,A*59
$IIHDG,025,,,,*50
$IIMTW,+17.5,C*3B
$IIMWV,225,R,14.0,N,A*13
$IIMWV,224,T,13.7,N,A*14
$IIRMC,160530,A,4612.830,N,00610.243,E,00.0,000,190814,,,A*45
$IIVHW,,,025,M,00.0,N,,*63
$IIVLW,53454,N,000.0,N*50
$IIVWR,136,L,14.3,N,,,,*7D
$IIDPT,002.6,+0.7,*44
$IIGLL,4612.830,N,00610.243,E,160531,A,A*58
$IIHDG,025,,,,*50
$IIMTW,+17.5,C*3B
$IIMWV,224,R,14.3,N,A*11
$IIMWV,225,T,14.0,N,A*15
$IIRMC,160531,A,4612.830,N,00610.243,E,00.0,000,190814,,,A*44
$IIVHW,,,025,M,00.0,N,,*63
$IIVLW,53454,N,000.0,N*50
$IIVWR,136,L,13.7,N,,,,*7E
$IIDPT,002.6,+0.7,*44
$IIGLL,4612.830,N,00610.243,E,160532,A,A*5B
$IIHDG,026,,,,*53
$IIMTW,+17.5,C*3B
$IIMWV,224,R,13.7,N,A*12
$IIMWV,224,T,14.3,N,A*17
$IIRMC,160532,A,4612.830,N,00610.243,E,00.0,000,190814,,,A*47
$IIVHW,,,026,M,00.0,N,,*60
$IIVLW,53454,N,000.0,N*50
$IIVWR,136,L,13.6,N,,,,*7F
$IIDPT,002.6,+0.7,*44
$IIGLL,4612.830,N,00610.243,E,160533,A,A*5A
$IIHDG,026,,,,*53
$IIMTW,+17.5,C*3B
$IIMWV,224,R,13.6,N,A*13
$IIMWV,224,T,13.7,N,A*14
$IIRMC,160534,A,4612.830,N,00610.243,E,00.0,000,190814,,,A*41
$IIVHW,,,026,M,00.0,N,,*60
$IIVLW,53454,N,000.0,N*50
$IIVWR,137,L,13.5,N,,,,*7D
$IIDPT,002.6,+0.7,*44
$IIGLL,4612.830,N,00610.243,E,160534,A,A*5D
$IIHDG,026,,,,*53
$IIMTW,+17.5,C*3B
$IIMWV,223,R,13.5,N,A*17
$IIMWV,223,T,13.5,N,A*11
$IIRMC,160535,A,4612.830,N,00610.243,E,00.0,000,190814,,,A*40
$IIVHW,,,025,M,00.0,N,,*63
$IIVLW,53454,N,000.0,N*50
$IIVWR,136,L,13.5,N,,,,*7C
$IIDPT,002.6,+0.7,*44
$IIGLL,4612.830,N,00610.243,E,160535,A,A*5C
$IIHDG,025,,,,*50
$IIMTW,+17.5,C*3B
$IIMWV,224,R,13.2,N,A*17
$IIMWV,224,T,13.5,N,A*16
$IIRMC,160536,A,4612.830,N,00610.243,E,00.0,000,190814,,,A*43
$IIVHW,,,025,M,00.0,N,,*63
$IIVLW,53454,N,000.0,N*50
$IIVWR,136,L,13.2,N,,,,*7B
$IIDPT,002.6,+0.7,*44
$IIGLL,4612.830,N,00610.243,E,160536,A,A*5F
$IIHDG,025,,,,*50
$IIMTW,+17.5,C*3B
$IIMWV,226,R,13.2,N,A*15
$IIMWV,224,T,13.2,N,A*11
$IIRMC,160537,A,4612.830,N,00610.243,E,00.0,000,190814,,,A*42
$IIVHW,,,025,M,00.0,N,,*63
$IIVLW,53454,N,000.0,N*50
$IIVWR,134,L,13.2,N,,,,*79
$IIDPT,002.6,+0.7,*44
$IIGLL,4612.830,N,00610.243,E,160537,A,A*5E
$IIHDG,025,,,,*50
$IIMTW,+17.5,C*3B
$IIMWV,227,R,13.7,N,A*11
$IIMWV,226,T,13.2,N,A*13
$IIRMC,160538,A,4612.830,N,00610.243,E,00.0,000,190814,,,A*4D
$IIVHW,,,025,M,00.0,N,,*63
$IIVLW,53454,N,000.0,N*50
$IIVWR,133,L,13.7,N,,,,*7B
$IIDPT,002.6,+0.7,*44
$IIGLL,4612.830,N,00610.243,E,160538,A,A*51
$IIHDG,025,,,,*50
$IIMTW,+17.5,C*3B
$IIMWV,227,R,14.0,N,A*11
$IIMWV,227,T,13.7,N,A*17
$IIRMC,160538,A,4612.830,N,00610.243,E,00.0,000,190814,,,A*4D
$IIVHW,,,025,M,00.0,N,,*63
$IIVLW,53454,N,000.0,N*50
$IIVWR,133,L,14.0,N,,,,*7B
$IIDPT,002.6,+0.7,*44
$IIGLL,4612.830,N,00610.243,E,160540,A,A*5E
$IIHDG,026,,,,*53
$IIMTW,+17.5,C*3B
$IIMWV,227,R,14.3,N,A*12
$IIMWV,227,T,14.0,N,A*17
$IIRMC,160540,A,4612.830,N,00610.243,E,00.0,000,190814,,,A*42
$IIVHW,,,026,M,00.0,N,,*60
$IIVLW,53454,N,000.0,N*50
$IIVWR,133,L,14.0,N,,,,*7B
$IIDPT,002.6,+0.7,*44
$IIGLL,4612.830,N,00610.243,E,160541,A,A*5F
$IIHDG,026,,,,*53
$IIMTW,+17.5,C*3B
$IIMWV,227,R,14.0,N,A*11
$IIMWV,227,T,14.3,N,A*14
$IIRMC,160541,A,4612.830,N,00610.243,E,00.0,000,190814,,,A*43
$IIVHW,,,026,M,00.0,N,,*60
$IIVLW,53454,N,000.0,N*50
$IIVWR,133,L,14.3,N,,,,*78
$IIDPT,002.6,+0.7,*44
$IIGLL,4612.830,N,00610.243,E,160542,A,A*5C
$IIHDG,026,,,,*53
$IIMTW,+17.5,C*3B
$IIMWV,227,R,14.3,N,A*12
$IIMWV,227,T,14.0,N,A*17
$IIRMC,160542,A,4612.830,N,00610.243,E,00.0,000,190814,,,A*40
$IIVHW,,,026,M,00.0,N,,*60
$IIVLW,53454,N,000.0,N*50
$IIVWR,132,L,14.5,N,,,,*7F
$IIDPT,002.6,+0.7,*44
$IIGLL,4612.830,N,00610.243,E,160543,A,A*5D
$IIHDG,026,,,,*53
$IIMTW,+17.5,C*3B
$IIMWV,228,R,14.5,N,A*1B
$IIMWV,227,T,14.3,N,A*14
$IIRMC,160544,A,4612.830,N,00610.243,E,00.0,000,190814,,,A*46
$IIVHW,,,026,M,00.0,N,,*60
$IIVLW,53454,N,000.0,N*50
$IIVWR,133,L,14.3,N,,,,*78
$IIDPT,002.6,+0.7,*44
$IIGLL,4612.830,N,00610.243,E,160544,A,A*5A
$IIHDG,026,,,,*53
$IIMTW,+17.5,C*3B
$IIMWV,227,R,14.3,N,A*12
$IIMWV,227,T,14.3,N,A*14
$IIRMC,160545,A,4612.830,N,00610.243,E,00.0,000,190814,,,A*47
$IIVHW,,,025,M,00.0,N,,*63
$IIVLW,53454,N,000.0,N*50
$IIVWR,136,L,13.9,N,,,,*70
$IIDPT,002.6,+0.7,*44
$IIGLL,4612.830,N,00610.243,E,160545,A,A*5B
$IIHDG,025,,,,*50
$IIMTW,+17.5,C*3B
$IIMWV,224,R,13.6,N,A*13
$IIMWV,224,T,13.9,N,A*1A
$IIRMC,160546,A,4612.830,N,00610.243,E,00.0,000,190814,,,A*44
$IIVHW,,,025,M,00.0,N,,*63
$IIVLW,53454,N,000.0,N*50
$IIVWR,136,L,13.6,N,,,,*7F
$IIDPT,002.6,+0.7,*44
$IIGLL,4612.830,N,00610.243,E,160546,A,A*58
$IIHDG,025,,,,*50
$IIMTW,+17.5,C*3B
$IIMWV,223,R,13.2,N,A*10
$IIMWV,224,T,13.6,N,A*15
$IIRMC,160547,A,4612.830,N,00610.243,E,00.0,000,190814,,,A*45
$IIVHW,,,025,M,00.0,N,,*63
$IIVLW,53454,N,000.0,N*50
$IIVWR,137,L,13.2,N,,,,*7A
$IIDPT,002.6,+0.7,*44
$IIGLL,4612.830,N,00610.243,E,160547,A,A*59
$IIHDG,025,,,,*50
$IIMTW,+17.5,C*3B
$IIMWV,224,R,13.7,N,A*12
$IIMWV,223,T,13.2,N,A*16
$IIRMC,160548,A,4612.830,N,00610.243,E,00.0,000,190814,,,A*4A
$IIVHW,,,025,M,00.0,N,,*63
$IIVLW,53454,N,000.0,N*50
$IIVWR,136,L,13.7,N,,,,*7E
$IIDPT,002.6,+0.7,*44
$IIGLL,4612.830,N,00610.243,E,160548,A,A*56
$IIHDG,025,,,,*50
$IIMTW,+17.5,C*3B
$IIMWV,223,R,13.6,N,A*14
$IIMWV,224,T,13.7,N,A*14
$IIRMC,160548,A,4612.830,N,00610.243,E,00.0,000,190814,,,A*4A
$IIVHW,,,025,M,00.0,N,,*63
$IIVLW,53454,N,000.0,N*50
$IIVWR,137,L,13.6,N,,,,*7E
$IIDPT,002.6,+0.7,*44
$IIGLL,4612.830,N,00610.243,E,160550,A,A*5F
$IIHDG,025,,,,*50
$IIMTW,+17.5,C*3B
$IIMWV,223,R,13.6,N,A*14
$IIMWV,223,T,13.6,N,A*12
$IIRMC,160550,A,4612.830,N,00610.243,E,00.0,000,190814,,,A*43
$IIVHW,,,025,M,00.0,N,,*63
$IIVLW,53454,N,000.0,N*50
$IIVWR,137,L,13.2,N,,,,*7A
$IIDPT,002.6,+0.7,*44
$IIGLL,4612.830,N,00610.243,E,160551,A,A*5E
$IIHDG,026,,,,*53
$IIMTW,+17.5,C*3B
$IIMWV,223,R,13.2,N,A*10
$IIMWV,223,T,13.6,N,A*12
$IIRMC,160551,A,4612.830,N,00610.243,E,00.0,000,190814,,,A*42
$IIVHW,,,026,M,00.0,N,,*60
$IIVLW,53454,N,000.0,N*50
$IIVWR,137,L,12.8,N,,,,*71
$IIDPT,002.6,+0.7,*44
$IIGLL,4612.830,N,00610.243,E,160552,A,A*5D
$IIHDG,025,,,,*50
